~VERSION INFORMATION
VERS.           1.2   :CWLS Log ASCII Standard - VERSION 1.2
WRAP.           NO    :One Line per depth step
PROD.  Schlumberger   :LAS Producer
PROG.  DLIS to ASCII 17C0-152                          :LAS Program name and version
CREA.        2010/11/19 02:18                          :LAS Creation date {YYYY/MM/DD hh:mm}
DLIS_CREA.  2010-Nov-18 21:51                          :DLIS Creation date and time {YYYY-MMM-DD hh:mm}
SOURCE.     c799ad9c-fb3a-46c4-856c-9f94c6b0213d       :DLIS File Name
#--------------------------------------------------
~WELL INFORMATION
#MNEM.UNIT      DATA             DESCRIPTION
#---- ------ --------------   -----------------------------
STRT .F      8904.0000       :START DEPTH     
STOP .F      9132.5000       :STOP DEPTH     
STEP .F       0.5000         :STEP       
NULL .          -999.25      :NULL VALUE
COMP .                 COMPANY:  Wellstar Corporation               
WELL .                    WELL:  Silver Spur Minerals 35-2          
FLD  .                   FIELD:  Wildcat                            
LOC  .                LOCATION:  Sec.35, T8N, R78W                  
CNTY .                  COUNTY:  Jackson                            
STAT .                   STATE:  Colorado                           
CTRY .                 COUNTRY:                                     
SRVC .         SERVICE COMPANY:  Schlumberger                       
API  .              API NUMBER:  05-057-06490-0100                  
DATE .                LOG DATE:  18-Nov-2010
UWI  .          UNIQUE WELL ID:                                     
#-----------------------------------------------------------------------------
~PARAMETER INFORMATION
#MNEM.UNIT    VALUE                      DESCRIPTION
#---- -----   --------------------       ------------------------
CN   .        Wellstar Corporation       :Company Name
WN   .        Silver Spur Minerals 35-2  :Well Name
FN   .        Wildcat                    :Field Name
FL   .        Sec.35  T8N  R78W          :Field Location
FL1  .        SHL  1996' FSL X 655' FEL NESE :Field Location Line 1
COUN .        Jackson                    :County or Rig Name
STAT .        Colorado                   :State or Province
NATI .                                   :Nation
DATE .        18-Nov-2010                :Date as Month-Day-Year
APIN .        05-057-06490-0100          :API Serial Number
SECT .        35                         :Section
TOWN .        8N                         :Township
RANG .        78W                        :Range
DMF  .        Kelly Bushing              :Drilling Measured From
LMF  .        Kelly Bushing              :Log Measured From
PDAT .        Ground Level               :Permanent Datum
ENGI .        Philip Grant               :Engineer's Name
WITN .        Jacky Burch                :Witness's Name
LATI .                                   :Latitude
LONG .                                   :Longitude
LUL  .        Fort Morgan  CO            :Logging Unit Location
LUN  .              3021                 :Logging Unit Number
RUN  .        1                          :Run Number
SON  .        BE0K-00102                 :Service Order Number
BHT  .DEGF     211.99986                 :Bottom Hole Temperature (used in calculations)
BS   .IN         6.12500                 :Bit Size
DFD  .LB/G       8.80000                 :Drilling Fluid Density
DFV  .S         28.00000                 :Drilling Fluid Viscosity
DFL  .                                   :Drilling Fluid Loss
RMFS .OHMM       0.64200                 :Resistivity of Mud Filtrate Sample
EKB  .F       8549.00000                 :Elevation of Kelly Bushing
EGL  .F       8534.00000                 :Elevation of Ground Level
BLI  .F       9108.00000                 :Bottom Log Interval
BSAL .PPM     38000.00000                :Borehole Salinity
FLEV .                                   :Fluid Level
MCST .DEGF      83.57200                 :Mud Cake Sample Temperature
MFST .DEGF      83.57200                 :Mud Filtrate Sample Temperature
MRT  .DEGF     217.00000                 :Maximum Recorded Temperature
MST  .DEGF      83.57200                 :Mud Sample Temperature
RMCS .OHMM       1.28400                 :Resistivity of Mud Cake Sample
RMS  .OHMM       0.85600                 :Resistivity of Mud Sample
RW   .OHMM       1.00000                 :Resistivity of Connate Water
TDD  .F       8610.00000                 :Total Depth - Driller
TDL  .F       9116.00000                 :Total Depth - Logger
TLI  .F       8482.00000                 :Top Log Interval
HIDE .        Elemental Capture Spectroscopy :Header Identifier
MATR .        LIME                       :Rock Matrix for Neutron Porosity Corrections
FNUM .           1.00000                 :Form Factor Numerator
FEXP .           2.00000                 :Form Factor Exponent
DFT  .        KCl  Mud                   :Drilling Fluid Type
DFPH .           9.80000                 :Drilling Fluid PH
MCSS .        Calculated                 :Mud Cake Sample Source
MFSS .        Calculated                 :Mud Filtrate Sample Source
MSS  .        AIT bottom nose            :Mud Sample Source
OS1  .        None                       :Other Services Line 1
OS2  .                                   :Other Services Line 2
OS3  .                                   :Other Services Line 3
OS4  .                                   :Other Services Line 4
OS5  .                                   :Other Services Line 5
R1   .        Tool run as per tool sketch. :Remark Line 1
R2   .                                   :Remark Line 2
R3   .        This is the first log in hole. :Remark Line 3
R4   .                                   :Remark Line 4
R5   .        Data may be affected by hole rugosity. :Remark Line 5
R6   .                                   :Remark Line 6
R7   .                                   :Remark Line 7
R8   .                                   :Remark Line 8
TCS  .        11 00                      :Time Circulation Stopped
TLAB .                                   :Time Logger At Bottom
NMT  .        NOBARITE                   :HILT Nuclear Mud Type
EPD  .F         8534.000000              :Elevation of Permanent Datum above Mean Sea Level
APD  .F          15.000000               :Elevation of Depth Reference (LMF) above Permanent Datum
#-----------------------------------------------------------------------------
~CURVE INFORMATION
#MNEM.UNIT   API CODE                                  DESCRIPTION
#---- -----  --------                                  -----------------------
DEPT .F                                                :DEPTH (BOREHOLE) {F12.4}
CDF  .LBF                                              :Calibrated Downhole Force {F11.4}
CFTC .HZ                                               :Corrected Far Thermal Counting Rate {F11.4}
CNTC .HZ                                               :Corrected Near Thermal Counting Rate {F11.4}
CTEM .DEGF                                             :Cartridge Temperature {F11.4}
DNPH .CFCF                                             :Delta Thermal Neutron Porosity {F11.4}
DWAL_WALK2.                                            :Dry Weight Fraction Pseudo Aluminum (SpectroLith WALK2 Model) {F11.4}
DWCA_WALK2.                                            :Dry Weight Fraction Calcium (SpectroLith WALK2 Model) {F11.4}
DWFE_WALK2.                                            :Dry Weight Fraction Iron + 0.14 Aluminum (SpectroLith WALK2 Model) {F11.4}
DWGD_WALK2.PPM                                         :Dry Weight Fraction Gadolinium (SpectroLith WALK2 Model) {F11.4}
DWSI_WALK2.                                            :Dry Weight Fraction Silicon (SpectroLith WALK2 Model) {F11.4}
DWSU_WALK2.                                            :Dry Weight Fraction Sulfur (SpectroLith WALK2 Model) {F11.4}
DWTI_WALK2.                                            :Dry Weight Fraction Titanium (SpectroLith WALK2 Model) {F11.4}
ECGR .GAPI                                             :Environmentally Corrected Gamma-Ray {F11.4}
ECST .DEGF                                             :ECS Temperature {F11.4}
ESUF_WALK2.                                            :Elemental Statistical Uncertainty Factor (SpectroLith WALK2 Model) {F11.4}
GDEV .DEG                                              :HGNS Deviation {F11.4}
GR   .GAPI                                             :Gamma-Ray {F11.4}
GR_EDTC.GAPI                                           :EDTC Gamma Ray {F11.4}
GTEM .DEGF                                             :Generalized Borehole Temperature {F11.4}
HGR  .GAPI                                             :HiRes Gamma-Ray {F11.4}
HNPO .CFCF                                             :HiRes Enhanced Thermal Neutron Porosity {F11.4}
HTNP .CFCF                                             :HiRes Thermal Neutron Porosity {F11.4}
NPHI .CFCF                                             :Thermal Neutron Porosity (Ratio Method) {F11.4}
NPOR .CFCF                                             :Enhanced Thermal Neutron Porosity {F11.4}
QCPMT.                                                 :Photomultiplier Tube Quality Control {F11.4}
RHGE_WALK2.G/C3                                        :Matrix Density from Elemental Concentrations (SpectroLith WALK2 Model) {F11.4}
TENS .LBF                                              :Cable Tension {F11.4}
TNPH .CFCF                                             :Thermal Neutron Porosity {F11.4}
WANH_WALK2.                                            :Dry Weight Fraction Anhydrite/Gypsum (SpectroLith WALK2 Model) {F11.4}
WCAR_WALK2.                                            :Dry Weight Fraction Carbonate (SpectroLith WALK2 Model) {F11.4}
WCLA_WALK2.                                            :Dry Weight Fraction Clay (SpectroLith WALK2 Model) {F11.4}
WCOA_WALK2.                                            :Dry Weight Fraction Coal (SpectroLith WALK2 Model) {F11.4}
WEVA_WALK2.                                            :Dry Weight Fraction Salt (SpectroLith WALK2 Model) {F11.4}
WPYR_WALK2.                                            :Dry Weight Fraction Pyrite (SpectroLith WALK2 Model) {F11.4}
WQFM_WALK2.                                            :Dry Weight Fraction Quartz+Feldspar+Mica (QFM) (SpectroLith WALK2 Model) {F11.4}
WSID_WALK2.                                            :Dry Weight Fraction Siderite (SpectroLith WALK2 Model) {F11.4}
#-----------------------------------------------------------------------------
# 
#      DEPT        CDF        CFTC       CNTC       CTEM       DNPH    DWAL_WALK2 DWCA_WALK2 DWFE_WALK2 DWGD_WALK2 DWSI_WALK2 DWSU_WALK2 DWTI_WALK2    ECGR       ECST    ESUF_WALK2    GDEV        GR      GR_EDTC      GTEM       HGR        HNPO       HTNP       NPHI       NPOR      QCPMT    RHGE_WALK2    TENS       TNPH    WANH_WALK2 WCAR_WALK2 WCLA_WALK2 WCOA_WALK2 WEVA_WALK2 WPYR_WALK2 WQFM_WALK2 WSID_WALK2
#
~A  
# ...
   8944.0000  1535.4045    40.4649    34.9164   212.9884     0.0074     0.0566     0.0989     0.0330     1.9938     0.2516     0.0000     0.0039   152.5217    52.6245     0.5679     6.4049   171.4469   143.8611   219.7505   167.7717     0.0393     0.0346     0.0195     0.0357     0.2598     2.7207  3005.0000     0.0336     0.0000     0.1911     0.3127     0.0000     0.0000     0.0000     0.4962     0.0000
   8944.5000  1535.4045    40.8991    33.0929   212.9884     0.0072     0.0548     0.1093     0.0324     3.9295     0.2423     0.0000     0.0028   149.3454    51.8441     0.5287     6.6852   167.8765   137.4897   219.7505   159.0056     0.0157     0.0273     0.0126     0.0285     0.7986     2.7213  2944.0000     0.0263     0.0000     0.2191     0.2969     0.0000     0.0000     0.0000     0.4840     0.0000
   8945.0000  1535.4045    43.8433    32.0508   212.9884     0.0069     0.0517     0.1199     0.0310     4.1167     0.2352     0.0000     0.0016   152.9051    53.0147     0.4922     6.4894   171.8779   137.5226   219.7505   175.9437     0.1047     0.0163     0.0256     0.0430     0.6574     2.7205  2926.0000     0.0157     0.0000     0.2475     0.2693     0.0000     0.0000     0.0000     0.4832     0.0000
   8945.5000  1535.4045    39.2789    31.5299   212.9884     0.0072     0.0496     0.1271     0.0299     5.9368     0.2304     0.0000     0.0011   160.5993    52.2343     0.4801     6.5086   180.5269   131.5551   219.7505   181.1405     0.0360     0.0260     0.0302     0.0081     0.7069     2.7197  3004.0000     0.0256     0.0000     0.2668     0.2509     0.0000     0.0000     0.0000     0.4823     0.0000
   8946.0000  1540.3816    37.3288    31.5076   212.9884     0.0073     0.0521     0.1204     0.0313     4.6351     0.2339     0.0000     0.0014   155.6680    52.2343     0.4731     6.4741   174.9836   126.5811   219.7505   185.5290     0.0835     0.0314     0.0456     0.0365     0.2885     2.7211  3013.0000     0.0313     0.0000     0.2488     0.2725     0.0000     0.0000     0.0000     0.4786     0.0000
   8946.5000  1535.4045    34.2844    32.8080   212.9884     0.0077     0.0548     0.1091     0.0325     3.8885     0.2425     0.0018     0.0017   156.8491    53.0147     0.4878     6.5132   176.3113   122.8273   219.7505   159.7021     0.0303     0.0475     0.0280     0.0527     0.0000     2.7237  2984.0000     0.0473     0.0000     0.2184     0.2964     0.0000     0.0000     0.0034     0.4817     0.0000
   8947.0000  1535.4045    37.3284    31.2471   212.9884     0.0073     0.0589     0.0955     0.0344     2.7171     0.2516     0.0046     0.0023   151.0843    53.0147     0.5286     6.5127   169.8311   121.5815   219.7505   184.7641     0.0307     0.0318     0.0406     0.0234     0.0000     2.7282  2967.0000     0.0304     0.0000     0.1819     0.3324     0.0000     0.0000     0.0087     0.4770     0.0000
   8947.5000  1535.4045    36.8909    32.6776   212.9884     0.0075     0.0567     0.0837     0.0333     3.3439     0.2691     0.0028     0.0024   155.7547    53.0147     0.5670     6.4614   175.0811   126.1997   219.7505   165.8512     0.1703     0.0380     0.0395     0.0309     0.0000     2.7219  2924.0000     0.0371     0.0000     0.1502     0.3130     0.0000     0.0000     0.0052     0.5315     0.0000
   8948.0000  1540.3816    37.3291    33.2008   212.9884     0.0075     0.0556     0.0839     0.0329     4.9537     0.2706     0.0000     0.0027   154.9034    53.0147     0.5923     6.5533   174.1242   126.9064   219.7505   175.9453     0.3068     0.0391     0.0457     0.0757     0.0475     2.7179  2996.0000     0.0375     0.0000     0.1506     0.3036     0.0000     0.0000     0.0000     0.5458     0.0000
   8948.5000  1540.3816    35.8047    32.4174   212.9884     0.0075     0.0546     0.0845     0.0323     5.3894     0.2717     0.0000     0.0028   159.9913    53.0147     0.5905     6.6448   179.8434   129.8132   219.6308   181.4926    -0.0037     0.0413     0.0253     0.0140     0.2311     2.7168  3013.0000     0.0399     0.0000     0.1524     0.2948     0.0000     0.0000     0.0000     0.5528     0.0000
   8949.0000  1535.4045    37.7622    32.0288   212.9884     0.0073     0.0559     0.0908     0.0330     5.1393     0.2621     0.0000     0.0029   156.9878    53.0147     0.5810     6.5031   176.4672   132.8302   219.3912   182.6784     0.0081     0.0328     0.0205     0.0193     0.0676     2.7192  2975.0000     0.0319     0.0000     0.1694     0.3060     0.0000     0.0000     0.0000     0.5247     0.0000
   8949.5000  1535.4045    36.0215    31.7666   212.9884     0.0075     0.0547     0.0868     0.0322     5.8455     0.2690     0.0006     0.0029   148.0426    53.0147     0.5809     6.4665   166.4121   131.1680   219.3912   164.7538     0.1124     0.0379     0.0314     0.0561     0.1598     2.7177  3015.0000     0.0367     0.0000     0.1585     0.2954     0.0000     0.0000     0.0011     0.5450     0.0000
   8950.0000  1540.3816    34.5057    30.8571   212.9884     0.0075     0.0535     0.0893     0.0313     7.8147     0.2684     0.0016     0.0030   140.9082    53.0147     0.5907     6.6824   158.3924   135.6130   219.3912   151.2743    -0.0040     0.0395     0.0525     0.0326     0.1789     2.7177  3006.0000     0.0385     0.0000     0.1651     0.2854     0.0000     0.0000     0.0031     0.5465     0.0000
   8950.5000  1545.3585    32.9823    31.7665   212.9884     0.0077     0.0520     0.0892     0.0305     9.3597     0.2711     0.0009     0.0029   145.4923    53.0147     0.6006     6.5878   163.5453   131.5667   219.3912   158.8776     0.0481     0.0494     0.0470     0.0897     0.5265     2.7154  3067.0000     0.0483     0.0000     0.1648     0.2719     0.0000     0.0000     0.0018     0.5615     0.0000
   8951.0000  1549.9801    33.9309    31.0747   212.9884     0.0076     0.0501     0.0887     0.0295     9.5975     0.2748     0.0000     0.0027   157.0952    53.0147     0.6198     6.5433   176.5879   139.0298   219.3912   180.4008    -0.0154     0.0419     0.0445     0.0298     0.3322     2.7125  3024.0000     0.0416     0.0000     0.1636     0.2555     0.0000     0.0000     0.0000     0.5809     0.0000
   8951.5000  1545.3585    35.6681    31.9865   212.9884     0.0075     0.0469     0.0810     0.0277     9.5682     0.2894     0.0000     0.0023   169.1434    53.0147     0.6394     6.5889   190.1311   138.2144   219.3912   190.7622     0.0288     0.0384     0.0232     0.0057     0.3722     2.7079  2985.0000     0.0387     0.0000     0.1430     0.2271     0.0000     0.0000     0.0000     0.6299     0.0000
   8952.0000  1545.3585    35.8478    32.2681   212.9884     0.0075     0.0453     0.0763     0.0268    12.0538     0.2978     0.0000     0.0021   169.0558    53.0147     0.6483     6.4715   190.0327   148.3254   219.3912   199.4474     0.0789     0.0384     0.0370     0.0896     0.8124     2.7054  2978.0000     0.0392     0.0000     0.1301     0.2130     0.0000     0.0000     0.0000     0.6568     0.0000
   8952.5000  1540.3816    37.8954    33.6608   212.9884     0.0075     0.0483     0.0824     0.0287    12.8418     0.2852     0.0000     0.0020   163.8450    53.0147     0.6174     6.5106   184.1752   140.5715   219.3912   180.0564     0.0472     0.0373     0.0317     0.0235     2.0447     2.7099  2931.0000     0.0373     0.0000     0.1467     0.2391     0.0000     0.0000     0.0000     0.6142     0.0000
   8953.0000  1540.3816    35.8819    31.4626   212.9884     0.0074     0.0527     0.0846     0.0312    11.9148     0.2748     0.0000     0.0025   158.3580    53.0147     0.5906     6.6117   178.0074   137.5007   219.3912   173.0231     0.1857     0.0361     0.0581     0.0620     1.4195     2.7149  2947.0000     0.0360     0.0000     0.1527     0.2785     0.0000     0.0000     0.0000     0.5689     0.0000
   8953.5000  1540.3816    35.0543    34.1103   212.9884     0.0078     0.0548     0.0882     0.0323     7.9034     0.2670     0.0000     0.0031   154.7805    53.0147     0.5710     6.5141   173.9860   132.7762   219.3912   180.7541     0.0156     0.0490     0.0457     0.0205     0.5556     2.7175  3000.0000     0.0494     0.0000     0.1622     0.2970     0.0000     0.0000     0.0000     0.5407     0.0000
