~VERSION INFORMATION
VERS.           1.2   :CWLS Log ASCII Standard - VERSION 1.2
WRAP.           NO    :One Line per depth step
PROD.  Schlumberger   :LAS Producer
PROG.  DLIS to ASCII 17C0-152                          :LAS Program name and version
CREA.        2010/11/19 02:18                          :LAS Creation date {YYYY/MM/DD hh:mm}
DLIS_CREA.  2010-Nov-18 22:49                          :DLIS Creation date and time {YYYY-MMM-DD hh:mm}
SOURCE.     d476e3e6-e07a-4d20-b90c-cbd099bd9e21       :DLIS File Name
#--------------------------------------------------
~WELL INFORMATION
#MNEM.UNIT      DATA             DESCRIPTION
#---- ------ --------------   -----------------------------
STRT .F      8456.0000       :START DEPTH     
STOP .F      9128.5000       :STOP DEPTH     
STEP .F       0.5000         :STEP       
NULL .          -999.25      :NULL VALUE
COMP .                 COMPANY:  Wellstar Corporation               
WELL .                    WELL:  Silver Spur Minerals 35-2          
FLD  .                   FIELD:  Wildcat                            
LOC  .                LOCATION:  Sec.35, T8N, R78W                  
CNTY .                  COUNTY:  Jackson                            
STAT .                   STATE:  Colorado                           
CTRY .                 COUNTRY:                                     
SRVC .         SERVICE COMPANY:  Schlumberger                       
API  .              API NUMBER:  05-057-06490-0100                  
DATE .                LOG DATE:  18-Nov-2010
UWI  .          UNIQUE WELL ID:                                     
#-----------------------------------------------------------------------------
~PARAMETER INFORMATION
#MNEM.UNIT    VALUE                      DESCRIPTION
#---- -----   --------------------       ------------------------
CN   .        Wellstar Corporation       :Company Name
WN   .        Silver Spur Minerals 35-2  :Well Name
FN   .        Wildcat                    :Field Name
FL   .        Sec.35  T8N  R78W          :Field Location
FL1  .        SHL  1996' FSL X 655' FEL NESE :Field Location Line 1
COUN .        Jackson                    :County or Rig Name
STAT .        Colorado                   :State or Province
NATI .                                   :Nation
DATE .        18-Nov-2010                :Date as Month-Day-Year
APIN .        05-057-06490-0100          :API Serial Number
SECT .        35                         :Section
TOWN .        8N                         :Township
RANG .        78W                        :Range
DMF  .        Kelly Bushing              :Drilling Measured From
LMF  .        Kelly Bushing              :Log Measured From
PDAT .        Ground Level               :Permanent Datum
ENGI .        Philip Grant               :Engineer's Name
WITN .        Jacky Burch                :Witness's Name
LATI .                                   :Latitude
LONG .                                   :Longitude
LUL  .        Fort Morgan  CO            :Logging Unit Location
LUN  .              3021                 :Logging Unit Number
RUN  .        1                          :Run Number
SON  .        BE0K-00102                 :Service Order Number
BHT  .DEGF     211.99986                 :Bottom Hole Temperature (used in calculations)
BS   .IN         6.12500                 :Bit Size
DFD  .LB/G       8.80000                 :Drilling Fluid Density
DFV  .S         28.00000                 :Drilling Fluid Viscosity
DFL  .                                   :Drilling Fluid Loss
RMFS .OHMM       0.64200                 :Resistivity of Mud Filtrate Sample
EKB  .F       8549.00000                 :Elevation of Kelly Bushing
EGL  .F       8534.00000                 :Elevation of Ground Level
BLI  .F       9108.00000                 :Bottom Log Interval
BSAL .PPM     38000.00000                :Borehole Salinity
FLEV .                                   :Fluid Level
MCST .DEGF      83.57200                 :Mud Cake Sample Temperature
MFST .DEGF      83.57200                 :Mud Filtrate Sample Temperature
MRT  .DEGF     217.00000                 :Maximum Recorded Temperature
MST  .DEGF      83.57200                 :Mud Sample Temperature
RMCS .OHMM       1.28400                 :Resistivity of Mud Cake Sample
RMS  .OHMM       0.85600                 :Resistivity of Mud Sample
RW   .OHMM       1.00000                 :Resistivity of Connate Water
TDD  .F       8610.00000                 :Total Depth - Driller
TDL  .F       9116.00000                 :Total Depth - Logger
TLI  .F       8482.00000                 :Top Log Interval
HIDE .        Elemental Capture Spectroscopy :Header Identifier
MATR .        LIME                       :Rock Matrix for Neutron Porosity Corrections
FNUM .           1.00000                 :Form Factor Numerator
FEXP .           2.00000                 :Form Factor Exponent
DFT  .        KCl  Mud                   :Drilling Fluid Type
DFPH .           9.80000                 :Drilling Fluid PH
MCSS .        Calculated                 :Mud Cake Sample Source
MFSS .        Calculated                 :Mud Filtrate Sample Source
MSS  .        AIT bottom nose            :Mud Sample Source
OS1  .        PEx-HRLA                   :Other Services Line 1
OS2  .        MSIP-FMI                   :Other Services Line 2
OS3  .        HNGS                       :Other Services Line 3
OS4  .                                   :Other Services Line 4
OS5  .                                   :Other Services Line 5
R1   .        Tool run as per tool sketch. :Remark Line 1
R2   .                                   :Remark Line 2
R3   .        This is the first log in hole. :Remark Line 3
R4   .                                   :Remark Line 4
R5   .        Data may be affected by hole rugosity. :Remark Line 5
R6   .                                   :Remark Line 6
R7   .        Matrix Limestone 2.71      :Remark Line 7
R8   .                                   :Remark Line 8
TCS  .        11 00                      :Time Circulation Stopped
TLAB .        9 31                       :Time Logger At Bottom
NMT  .        NOBARITE                   :HILT Nuclear Mud Type
EPD  .F         8534.000000              :Elevation of Permanent Datum above Mean Sea Level
APD  .F          15.000000               :Elevation of Depth Reference (LMF) above Permanent Datum
#-----------------------------------------------------------------------------
~CURVE INFORMATION
#MNEM.UNIT   API CODE                                  DESCRIPTION
#---- -----  --------                                  -----------------------
DEPT .F                                                :DEPTH (BOREHOLE) {F12.4}
CDF  .LBF                                              :Calibrated Downhole Force {F11.4}
CFTC .HZ                                               :Corrected Far Thermal Counting Rate {F11.4}
CNTC .HZ                                               :Corrected Near Thermal Counting Rate {F11.4}
CTEM .DEGF                                             :Cartridge Temperature {F11.4}
DNPH .CFCF                                             :Delta Thermal Neutron Porosity {F11.4}
DWAL_WALK2.                                            :Dry Weight Fraction Pseudo Aluminum (SpectroLith WALK2 Model) {F11.4}
DWCA_WALK2.                                            :Dry Weight Fraction Calcium (SpectroLith WALK2 Model) {F11.4}
DWFE_WALK2.                                            :Dry Weight Fraction Iron + 0.14 Aluminum (SpectroLith WALK2 Model) {F11.4}
DWGD_WALK2.PPM                                         :Dry Weight Fraction Gadolinium (SpectroLith WALK2 Model) {F11.4}
DWSI_WALK2.                                            :Dry Weight Fraction Silicon (SpectroLith WALK2 Model) {F11.4}
DWSU_WALK2.                                            :Dry Weight Fraction Sulfur (SpectroLith WALK2 Model) {F11.4}
DWTI_WALK2.                                            :Dry Weight Fraction Titanium (SpectroLith WALK2 Model) {F11.4}
ECGR .GAPI                                             :Environmentally Corrected Gamma-Ray {F11.4}
ECST .DEGF                                             :ECS Temperature {F11.4}
ESUF_WALK2.                                            :Elemental Statistical Uncertainty Factor (SpectroLith WALK2 Model) {F11.4}
GDEV .DEG                                              :HGNS Deviation {F11.4}
GR   .GAPI                                             :Gamma-Ray {F11.4}
GR_EDTC.GAPI                                           :EDTC Gamma Ray {F11.4}
GTEM .DEGF                                             :Generalized Borehole Temperature {F11.4}
HGR  .GAPI                                             :HiRes Gamma-Ray {F11.4}
HNPO .CFCF                                             :HiRes Enhanced Thermal Neutron Porosity {F11.4}
HTNP .CFCF                                             :HiRes Thermal Neutron Porosity {F11.4}
NPHI .CFCF                                             :Thermal Neutron Porosity (Ratio Method) {F11.4}
NPOR .CFCF                                             :Enhanced Thermal Neutron Porosity {F11.4}
QCPMT.                                                 :Photomultiplier Tube Quality Control {F11.4}
RHGE_WALK2.G/C3                                        :Matrix Density from Elemental Concentrations (SpectroLith WALK2 Model) {F11.4}
TENS .LBF                                              :Cable Tension {F11.4}
TNPH .CFCF                                             :Thermal Neutron Porosity {F11.4}
WANH_WALK2.                                            :Dry Weight Fraction Anhydrite/Gypsum (SpectroLith WALK2 Model) {F11.4}
WCAR_WALK2.                                            :Dry Weight Fraction Carbonate (SpectroLith WALK2 Model) {F11.4}
WCLA_WALK2.                                            :Dry Weight Fraction Clay (SpectroLith WALK2 Model) {F11.4}
WCOA_WALK2.                                            :Dry Weight Fraction Coal (SpectroLith WALK2 Model) {F11.4}
WEVA_WALK2.                                            :Dry Weight Fraction Salt (SpectroLith WALK2 Model) {F11.4}
WPYR_WALK2.                                            :Dry Weight Fraction Pyrite (SpectroLith WALK2 Model) {F11.4}
WQFM_WALK2.                                            :Dry Weight Fraction Quartz+Feldspar+Mica (QFM) (SpectroLith WALK2 Model) {F11.4}
WSID_WALK2.                                            :Dry Weight Fraction Siderite (SpectroLith WALK2 Model) {F11.4}
#-----------------------------------------------------------------------------
# 
#      DEPT        CDF        CFTC       CNTC       CTEM       DNPH    DWAL_WALK2 DWCA_WALK2 DWFE_WALK2 DWGD_WALK2 DWSI_WALK2 DWSU_WALK2 DWTI_WALK2    ECGR       ECST    ESUF_WALK2    GDEV        GR      GR_EDTC      GTEM       HGR        HNPO       HTNP       NPHI       NPOR      QCPMT    RHGE_WALK2    TENS       TNPH    WANH_WALK2 WCAR_WALK2 WCLA_WALK2 WCOA_WALK2 WEVA_WALK2 WPYR_WALK2 WQFM_WALK2 WSID_WALK2
#
~A  
# ...
   8586.0000  1302.1965    26.9071    30.7214   222.8708     0.0085     0.0626     0.1715     0.0351     4.7938     0.1576     0.0184     0.0014   205.1978    58.8674     0.7608     3.8675   230.6592   200.4430   219.7505   239.2628     0.0795     0.0750     0.0480     0.0631     0.1176     2.7587  2844.0000     0.0752     0.0000     0.3864     0.3649     0.0000     0.0000     0.0344     0.2142     0.0000
   8586.5000  1302.1965    29.5087    31.2475   222.8708     0.0081     0.0654     0.1593     0.0367     3.8907     0.1669     0.0170     0.0022   207.0133    57.3066     0.7549     3.9226   232.7000   206.2887   219.7505   221.3182     0.1626     0.0620     0.0566     0.0669     0.1215     2.7579  2871.0000     0.0625     0.0000     0.3534     0.3900     0.0000     0.0000     0.0317     0.2248     0.0000
   8587.0000  1302.1965    27.3410    29.1632   222.8708     0.0082     0.0663     0.1520     0.0368     2.0992     0.1743     0.0186     0.0028   205.9711    56.9165     0.7431     3.8145   231.5285   215.2916   219.7505   237.1540     0.0851     0.0629     0.0762     0.1134     0.1483     2.7587  2847.0000     0.0641     0.0000     0.3338     0.3977     0.0000     0.0000     0.0349     0.2336     0.0000
   8587.5000  1302.1965    28.3950    29.7302   222.8708     0.0081     0.0657     0.1522     0.0358     0.7526     0.1757     0.0243     0.0025   204.9987    57.6968     0.7508     4.0286   230.4354   213.2140   219.9901   235.7986     0.0037     0.0602     0.0643     0.0473     0.1065     2.7636  2830.0000     0.0610     0.0000     0.3344     0.3924     0.0000     0.0000     0.0455     0.2277     0.0000
   8588.0000  1307.1736    29.0462    28.9490   222.8708     0.0079     0.0639     0.1616     0.0334     0.9754     0.1691     0.0347     0.0022   200.9109    56.5263     0.7681     3.8657   225.8404   210.7850   220.1098   218.8450     0.0588     0.0530     0.0342     0.0651     0.2862     2.7730  2865.0000     0.0537     0.0000     0.3598     0.3768     0.0000     0.0000     0.0650     0.1984     0.0000
   8588.5000  1302.1965    34.0398    29.3397   222.8708     0.0074     0.0594     0.1700     0.0312     3.1870     0.1670     0.0302     0.0023   201.6037    57.3066     0.7903     3.9350   226.6192   204.5732   220.1098   223.8989     0.0417     0.0338     0.0480     0.0037     0.0000     2.7650  2893.0000     0.0342     0.0000     0.3823     0.3370     0.0000     0.0000     0.0565     0.2242     0.0000
   8589.0000  1297.2196    31.9977    29.4944   222.8708     0.0076     0.0531     0.1739     0.0285     4.0678     0.1726     0.0240     0.0018   201.9027    57.3066     0.8052     3.9970   226.9553   204.8502   220.1098   237.9939     0.1411     0.0435     0.0774     0.0620     0.1629     2.7533  2839.0000     0.0427     0.0000     0.3929     0.2819     0.0000     0.0000     0.0448     0.2803     0.0000
   8589.5000  1302.1965    29.1790    30.7970   222.8708     0.0081     0.0443     0.1926     0.0253     4.6521     0.1646     0.0091     0.0012   193.4075    56.5263     0.7609     4.0383   217.4060   197.5789   220.1098   219.7934     0.0990     0.0628     0.0964     0.1048     0.0562     2.7332  2846.0000     0.0621     0.0000     0.4432     0.2042     0.0000     0.0000     0.0171     0.3355     0.0000
   8590.0000  1307.1736    29.1749    31.2697   222.8708     0.0082     0.0403     0.2061     0.0232     3.4100     0.1558     0.0088     0.0006   184.9331    56.5263     0.7288     3.9996   207.8801   193.6600   220.1098   194.8947     0.1245     0.0654     0.0652     0.0557     0.0000     2.7312  2886.0000     0.0645     0.0000     0.4794     0.1695     0.0000     0.0000     0.0164     0.3347     0.0000
   8590.5000  1302.1965    32.8055    32.3299   222.8708     0.0078     0.0394     0.2190     0.0226     2.6381     0.1424     0.0075     0.0010   177.7080    57.3066     0.6786     4.0037   199.7584   183.0137   220.1098   209.4309     0.0311     0.0517     0.0350     0.0428     0.0097     2.7308  2877.0000     0.0515     0.0000     0.5141     0.1612     0.0000     0.0000     0.0141     0.3106     0.0000
   8591.0000  1302.1965    35.1938    32.3299   222.8708     0.0076     0.0411     0.2196     0.0224     1.8085     0.1398     0.0153     0.0016   181.2702    57.6968     0.6679     4.0400   203.7626   175.4851   220.1098   194.1193    -0.0267     0.0418     0.0307     0.0153     0.7023     2.7396  2809.0000     0.0418     0.0000     0.5157     0.1762     0.0000     0.0000     0.0286     0.2795     0.0000
   8591.5000  1302.1965    32.1581    31.1353   222.8708     0.0078     0.0412     0.2298     0.0219     2.5716     0.1282     0.0184     0.0018   174.7906    57.6968     0.6580     4.0599   196.4790   174.6349   220.4692   206.2856     0.0267     0.0497     0.0305     0.0441     0.5725     2.7442  2846.0000     0.0492     0.0000     0.5431     0.1772     0.0000     0.0000     0.0345     0.2451     0.0000
   8592.0000  1302.1965    29.8888    29.3995   222.8708     0.0078     0.0385     0.2389     0.0197     4.6874     0.1230     0.0218     0.0021   175.0085    57.6968     0.6971     4.0492   196.7239   172.4181   220.4692   188.2060     0.0663     0.0536     0.0386     0.0819     0.3622     2.7456  2890.0000     0.0517     0.0000     0.5677     0.1530     0.0000     0.0000     0.0408     0.2385     0.0000
   8592.5000  1302.1965    29.6680    27.7065   222.8708     0.0077     0.0316     0.2470     0.0152     6.1283     0.1261     0.0230     0.0015   170.8398    57.6968     0.7412     4.0133   192.0379   171.1746   220.4692   195.2760     0.0215     0.0465     0.0581     0.0518     0.2026     2.7400  2842.0000     0.0447     0.0000     0.5895     0.0930     0.0000     0.0000     0.0326     0.2849     0.0000
   8593.0000  1302.1965    28.3654    27.5598   222.8708     0.0078     0.0296     0.2379     0.0127     6.2884     0.1416     0.0276     0.0014   174.8682    57.3066     0.7679     4.0355   196.5662   168.3048   220.4692   192.7829     0.2114     0.0521     0.0622     0.0683     0.1652     2.7392  2851.0000     0.0502     0.0000     0.5649     0.0752     0.0000     0.0000     0.0272     0.3327     0.0000
   8593.5000  1307.1736    30.6347    29.2873   222.8708     0.0077     0.0324     0.2306     0.0137     4.3703     0.1457     0.0314     0.0012   170.0933    56.5263     0.7146     4.0851   191.1989   168.3281   220.4692   201.1798     0.0459     0.0490     0.0752     0.0477     0.0000     2.7444  2816.0000     0.0477     0.0000     0.5452     0.1001     0.0000     0.0000     0.0295     0.3252     0.0000
   8594.0000  1302.1965    29.1186    30.3293   222.8708     0.0081     0.0382     0.2373     0.0187     5.9152     0.1261     0.0258     0.0020   166.9492    57.6968     0.6734     4.1105   187.6646   168.8822   220.4692   179.7523     0.0141     0.0598     0.0737     0.0542     0.0000     2.7483  2847.0000     0.0601     0.0000     0.5632     0.1511     0.0000     0.0000     0.0403     0.2454     0.0000
   8594.5000  1302.1965    29.9839    32.0630   222.8708     0.0082     0.0386     0.2436     0.0211     6.2302     0.1160     0.0123     0.0021   165.4565    57.6968     0.6157     4.0726   185.9866   163.3251   220.4692   182.3027     0.0637     0.0625     0.0640     0.0522     0.4478     2.7378  2899.0000     0.0640     0.0000     0.5803     0.1546     0.0000     0.0000     0.0231     0.2421     0.0000
   8595.0000  1302.1965    30.3809    32.1951   222.8708     0.0081     0.0361     0.2477     0.0211     8.1443     0.1143     0.0009     0.0020   172.7225    57.6968     0.5761     4.0602   194.1543   164.9371   220.4692   194.9814     0.0540     0.0622     0.0469     0.0644     0.2099     2.7251  2811.0000     0.0625     0.0000     0.5913     0.1320     0.0000     0.0000     0.0017     0.2749     0.0000
   8595.5000  1307.1736    32.1846    31.5249   222.8708     0.0078     0.0320     0.2409     0.0190     7.4945     0.1292     0.0000     0.0015   180.3627    57.6968     0.5267     4.1456   202.7424   167.9648   220.4692   203.8811     0.0775     0.0510     0.0370     0.0376     0.5351     2.7190  2844.0000     0.0508     0.0000     0.5730     0.0965     0.0000     0.0000     0.0000     0.3305     0.0000
