~VERSION INFORMATION
VERS.           1.2   :CWLS Log ASCII Standard - VERSION 1.2
WRAP.           NO    :One Line per depth step
PROD.  Schlumberger   :LAS Producer
PROG.  DLIS to ASCII 17C0-152                          :LAS Program name and version
CREA.        2010/11/19 02:18                          :LAS Creation date {YYYY/MM/DD hh:mm}
DLIS_CREA.  2010-Nov-18 22:49                          :DLIS Creation date and time {YYYY-MMM-DD hh:mm}
SOURCE.     d476e3e6-e07a-4d20-b90c-cbd099bd9e21       :DLIS File Name
#--------------------------------------------------
~WELL INFORMATION
#MNEM.UNIT      DATA             DESCRIPTION
#---- ------ --------------   -----------------------------
STRT .F      8456.0000       :START DEPTH     
STOP .F      9128.5000       :STOP DEPTH     
STEP .F       0.5000         :STEP       
NULL .          -999.25      :NULL VALUE
COMP .                 COMPANY:  Wellstar Corporation               
WELL .                    WELL:  Silver Spur Minerals 35-2          
FLD  .                   FIELD:  Wildcat                            
LOC  .                LOCATION:  Sec.35, T8N, R78W                  
CNTY .                  COUNTY:  Jackson                            
STAT .                   STATE:  Colorado                           
CTRY .                 COUNTRY:                                     
SRVC .         SERVICE COMPANY:  Schlumberger                       
API  .              API NUMBER:  05-057-06490-0100                  
DATE .                LOG DATE:  18-Nov-2010
UWI  .          UNIQUE WELL ID:                                     
#-----------------------------------------------------------------------------
~PARAMETER INFORMATION
#MNEM.UNIT    VALUE                      DESCRIPTION
#---- -----   --------------------       ------------------------
CN   .        Wellstar Corporation       :Company Name
WN   .        Silver Spur Minerals 35-2  :Well Name
FN   .        Wildcat                    :Field Name
FL   .        Sec.35  T8N  R78W          :Field Location
FL1  .        SHL  1996' FSL X 655' FEL NESE :Field Location Line 1
COUN .        Jackson                    :County or Rig Name
STAT .        Colorado                   :State or Province
NATI .                                   :Nation
DATE .        18-Nov-2010                :Date as Month-Day-Year
APIN .        05-057-06490-0100          :API Serial Number
SECT .        35                         :Section
TOWN .        8N                         :Township
RANG .        78W                        :Range
DMF  .        Kelly Bushing              :Drilling Measured From
LMF  .        Kelly Bushing              :Log Measured From
PDAT .        Ground Level               :Permanent Datum
ENGI .        Philip Grant               :Engineer's Name
WITN .        Jacky Burch                :Witness's Name
LATI .                                   :Latitude
LONG .                                   :Longitude
LUL  .        Fort Morgan  CO            :Logging Unit Location
LUN  .              3021                 :Logging Unit Number
RUN  .        1                          :Run Number
SON  .        BE0K-00102                 :Service Order Number
BHT  .DEGF     211.99986                 :Bottom Hole Temperature (used in calculations)
BS   .IN         6.12500                 :Bit Size
DFD  .LB/G       8.80000                 :Drilling Fluid Density
DFV  .S         28.00000                 :Drilling Fluid Viscosity
DFL  .                                   :Drilling Fluid Loss
RMFS .OHMM       0.64200                 :Resistivity of Mud Filtrate Sample
EKB  .F       8549.00000                 :Elevation of Kelly Bushing
EGL  .F       8534.00000                 :Elevation of Ground Level
BLI  .F       9108.00000                 :Bottom Log Interval
BSAL .PPM     38000.00000                :Borehole Salinity
FLEV .                                   :Fluid Level
MCST .DEGF      83.57200                 :Mud Cake Sample Temperature
MFST .DEGF      83.57200                 :Mud Filtrate Sample Temperature
MRT  .DEGF     217.00000                 :Maximum Recorded Temperature
MST  .DEGF      83.57200                 :Mud Sample Temperature
RMCS .OHMM       1.28400                 :Resistivity of Mud Cake Sample
RMS  .OHMM       0.85600                 :Resistivity of Mud Sample
RW   .OHMM       1.00000                 :Resistivity of Connate Water
TDD  .F       8610.00000                 :Total Depth - Driller
TDL  .F       9116.00000                 :Total Depth - Logger
TLI  .F       8482.00000                 :Top Log Interval
HIDE .        Elemental Capture Spectroscopy :Header Identifier
MATR .        LIME                       :Rock Matrix for Neutron Porosity Corrections
FNUM .           1.00000                 :Form Factor Numerator
FEXP .           2.00000                 :Form Factor Exponent
DFT  .        KCl  Mud                   :Drilling Fluid Type
DFPH .           9.80000                 :Drilling Fluid PH
MCSS .        Calculated                 :Mud Cake Sample Source
MFSS .        Calculated                 :Mud Filtrate Sample Source
MSS  .        AIT bottom nose            :Mud Sample Source
OS1  .        PEx-HRLA                   :Other Services Line 1
OS2  .        MSIP-FMI                   :Other Services Line 2
OS3  .        HNGS                       :Other Services Line 3
OS4  .                                   :Other Services Line 4
OS5  .                                   :Other Services Line 5
R1   .        Tool run as per tool sketch. :Remark Line 1
R2   .                                   :Remark Line 2
R3   .        This is the first log in hole. :Remark Line 3
R4   .                                   :Remark Line 4
R5   .        Data may be affected by hole rugosity. :Remark Line 5
R6   .                                   :Remark Line 6
R7   .        Matrix Limestone 2.71      :Remark Line 7
R8   .                                   :Remark Line 8
TCS  .        11 00                      :Time Circulation Stopped
TLAB .        9 31                       :Time Logger At Bottom
NMT  .        NOBARITE                   :HILT Nuclear Mud Type
EPD  .F         8534.000000              :Elevation of Permanent Datum above Mean Sea Level
APD  .F          15.000000               :Elevation of Depth Reference (LMF) above Permanent Datum
#-----------------------------------------------------------------------------
~CURVE INFORMATION
#MNEM.UNIT   API CODE                                  DESCRIPTION
#---- -----  --------                                  -----------------------
DEPT .F                                                :DEPTH (BOREHOLE) {F12.4}
CDF  .LBF                                              :Calibrated Downhole Force {F11.4}
CFTC .HZ                                               :Corrected Far Thermal Counting Rate {F11.4}
CNTC .HZ                                               :Corrected Near Thermal Counting Rate {F11.4}
CTEM .DEGF                                             :Cartridge Temperature {F11.4}
DNPH .CFCF                                             :Delta Thermal Neutron Porosity {F11.4}
DWAL_WALK2.                                            :Dry Weight Fraction Pseudo Aluminum (SpectroLith WALK2 Model) {F11.4}
DWCA_WALK2.                                            :Dry Weight Fraction Calcium (SpectroLith WALK2 Model) {F11.4}
DWFE_WALK2.                                            :Dry Weight Fraction Iron + 0.14 Aluminum (SpectroLith WALK2 Model) {F11.4}
DWGD_WALK2.PPM                                         :Dry Weight Fraction Gadolinium (SpectroLith WALK2 Model) {F11.4}
DWSI_WALK2.                                            :Dry Weight Fraction Silicon (SpectroLith WALK2 Model) {F11.4}
DWSU_WALK2.                                            :Dry Weight Fraction Sulfur (SpectroLith WALK2 Model) {F11.4}
DWTI_WALK2.                                            :Dry Weight Fraction Titanium (SpectroLith WALK2 Model) {F11.4}
ECGR .GAPI                                             :Environmentally Corrected Gamma-Ray {F11.4}
ECST .DEGF                                             :ECS Temperature {F11.4}
ESUF_WALK2.                                            :Elemental Statistical Uncertainty Factor (SpectroLith WALK2 Model) {F11.4}
GDEV .DEG                                              :HGNS Deviation {F11.4}
GR   .GAPI                                             :Gamma-Ray {F11.4}
GR_EDTC.GAPI                                           :EDTC Gamma Ray {F11.4}
GTEM .DEGF                                             :Generalized Borehole Temperature {F11.4}
HGR  .GAPI                                             :HiRes Gamma-Ray {F11.4}
HNPO .CFCF                                             :HiRes Enhanced Thermal Neutron Porosity {F11.4}
HTNP .CFCF                                             :HiRes Thermal Neutron Porosity {F11.4}
NPHI .CFCF                                             :Thermal Neutron Porosity (Ratio Method) {F11.4}
NPOR .CFCF                                             :Enhanced Thermal Neutron Porosity {F11.4}
QCPMT.                                                 :Photomultiplier Tube Quality Control {F11.4}
RHGE_WALK2.G/C3                                        :Matrix Density from Elemental Concentrations (SpectroLith WALK2 Model) {F11.4}
TENS .LBF                                              :Cable Tension {F11.4}
TNPH .CFCF                                             :Thermal Neutron Porosity {F11.4}
WANH_WALK2.                                            :Dry Weight Fraction Anhydrite/Gypsum (SpectroLith WALK2 Model) {F11.4}
WCAR_WALK2.                                            :Dry Weight Fraction Carbonate (SpectroLith WALK2 Model) {F11.4}
WCLA_WALK2.                                            :Dry Weight Fraction Clay (SpectroLith WALK2 Model) {F11.4}
WCOA_WALK2.                                            :Dry Weight Fraction Coal (SpectroLith WALK2 Model) {F11.4}
WEVA_WALK2.                                            :Dry Weight Fraction Salt (SpectroLith WALK2 Model) {F11.4}
WPYR_WALK2.                                            :Dry Weight Fraction Pyrite (SpectroLith WALK2 Model) {F11.4}
WQFM_WALK2.                                            :Dry Weight Fraction Quartz+Feldspar+Mica (QFM) (SpectroLith WALK2 Model) {F11.4}
WSID_WALK2.                                            :Dry Weight Fraction Siderite (SpectroLith WALK2 Model) {F11.4}
#-----------------------------------------------------------------------------
# 
#      DEPT        CDF        CFTC       CNTC       CTEM       DNPH    DWAL_WALK2 DWCA_WALK2 DWFE_WALK2 DWGD_WALK2 DWSI_WALK2 DWSU_WALK2 DWTI_WALK2    ECGR       ECST    ESUF_WALK2    GDEV        GR      GR_EDTC      GTEM       HGR        HNPO       HTNP       NPHI       NPOR      QCPMT    RHGE_WALK2    TENS       TNPH    WANH_WALK2 WCAR_WALK2 WCLA_WALK2 WCOA_WALK2 WEVA_WALK2 WPYR_WALK2 WQFM_WALK2 WSID_WALK2
#
~A  
# ...
   8716.0000  1365.4756    26.0395    28.2202   224.8472     0.0082     0.0485     0.1604     0.0267     0.0000     0.1958     0.0134     0.0027   188.2301    57.6968     0.5314     5.6349   211.5861   172.7013   223.3436   224.1554     0.1298     0.0662     0.0431     0.0356     0.2813     2.7353  2940.0000     0.0668     0.0000     0.3564     0.2409     0.0000     0.0000     0.0251     0.3775     0.0000
   8716.5000  1365.4756    26.6875    27.2312   224.8472     0.0080     0.0465     0.1602     0.0262     0.0000     0.1989     0.0087     0.0025   183.3681    57.6968     0.5444     5.7013   206.1209   167.4380   223.3436   196.2210     0.1364     0.0569     0.0474     0.1027     0.2842     2.7288  2893.0000     0.0575     0.0000     0.3559     0.2239     0.0000     0.0000     0.0162     0.4040     0.0000
   8717.0000  1360.4985    29.4928    28.2297   224.8472     0.0077     0.0450     0.1564     0.0257     3.1592     0.2057     0.0070     0.0021   178.1573    56.9165     0.5149     5.5940   200.2634   170.5029   223.3436   198.1984     0.0764     0.0473     0.0562     0.0996     0.6018     2.7252  2891.0000     0.0480     0.0000     0.3458     0.2103     0.0000     0.0000     0.0131     0.4308     0.0000
   8717.5000  1365.4756    31.2570    27.8495   224.8472     0.0075     0.0477     0.1564     0.0275     5.6929     0.2007     0.0073     0.0017   184.9810    56.5263     0.5021     5.6211   207.9339   176.6761   223.3436   206.8668    -0.0000     0.0394     0.0647     0.0188     0.0742     2.7288  2958.0000     0.0385     0.0000     0.3456     0.2345     0.0000     0.0000     0.0136     0.4063     0.0000
   8718.0000  1360.4985    32.7064    31.5353   224.8472     0.0078     0.0495     0.1607     0.0284     6.8065     0.1925     0.0087     0.0017   189.6553    56.5263     0.4946     5.6518   213.1881   175.0981   223.3436   218.9134     0.1264     0.0498     0.0603     0.0432     0.3666     2.7330  2897.0000     0.0485     0.0000     0.3574     0.2505     0.0000     0.0000     0.0164     0.3758     0.0000
   8718.5000  1360.4985    32.9429    33.3587   224.8472     0.0079     0.0493     0.1696     0.0287     5.3116     0.1822     0.0055     0.0017   192.7595    56.5263     0.5077     5.6739   216.6775   178.1255   223.3436   213.9531     0.1503     0.0561     0.1126     0.0682     0.0000     2.7313  2888.0000     0.0553     0.0000     0.3812     0.2485     0.0000     0.0000     0.0103     0.3600     0.0000
   8719.0000  1360.4985    28.8586    34.4606   224.8472     0.0087     0.0479     0.1740     0.0278     2.9019     0.1796     0.0057     0.0016   187.7586    57.6968     0.5350     5.7148   211.0562   173.0604   223.3436   216.6513     0.0370     0.0815     0.1052     0.0491     0.0097     2.7307  2885.0000     0.0825     0.0000     0.3931     0.2358     0.0000     0.0000     0.0107     0.3605     0.0000
   8719.5000  1360.4985    27.1942    34.2110   224.8472     0.0089     0.0462     0.1797     0.0276     2.9284     0.1753     0.0000     0.0017   190.1904    56.9165     0.5943     5.5969   213.7896   172.9763   223.3436   201.5365     0.0824     0.0913     0.0968     0.1142     0.4014     2.7244  2896.0000     0.0926     0.0000     0.4083     0.2211     0.0000     0.0000     0.0000     0.3706     0.0000
   8720.0000  1360.4985    27.1942    33.2887   224.8472     0.0088     0.0489     0.1755     0.0289     4.8780     0.1755     0.0008     0.0023   185.8855    56.5263     0.6320     5.6521   208.9506   170.2070   223.3436   222.7118     0.0213     0.0873     0.0388     0.0661     0.6034     2.7271  2919.0000     0.0874     0.0000     0.3971     0.2452     0.0000     0.0000     0.0016     0.3561     0.0000
   8720.5000  1360.4985    30.1625    30.2539   224.8472     0.0079     0.0542     0.1648     0.0318     7.4603     0.1789     0.0000     0.0033   191.4633    56.5263     0.6526     5.7302   215.2205   170.1404   223.3436   201.4715    -0.0103     0.0542     0.0477     0.0485     0.1085     2.7296  2915.0000     0.0544     0.0000     0.3683     0.2913     0.0000     0.0000     0.0000     0.3404     0.0000
   8721.0000  1365.4756    29.3303    30.4919   224.8472     0.0080     0.0587     0.1469     0.0334     6.9277     0.1927     0.0065     0.0040   189.2193    56.5263     0.6502     5.6661   212.6981   175.4037   223.3436   221.2353     0.0095     0.0597     0.0523     0.0881     0.0918     2.7372  2868.0000     0.0598     0.0000     0.3201     0.3313     0.0000     0.0000     0.0121     0.3365     0.0000
   8721.5000  1360.4985    31.2846    30.0434   224.8472     0.0077     0.0591     0.1421     0.0333     5.4151     0.1980     0.0088     0.0041   189.0999    57.3066     0.6321     5.6988   212.5638   171.2758   223.3436   215.2538     0.0637     0.0490     0.0715     0.0827     0.0572     2.7388  2894.0000     0.0482     0.0000     0.3072     0.3342     0.0000     0.0000     0.0165     0.3422     0.0000
   8722.0000  1360.4985    29.1144    29.1415   224.8472     0.0079     0.0551     0.1450     0.0304     3.6012     0.2021     0.0132     0.0037   185.1890    57.3066     0.6208     5.6301   208.1676   174.3705   223.3436   201.6680     0.0118     0.0548     0.0761     0.0344     0.2207     2.7392  2894.0000     0.0543     0.0000     0.3150     0.2997     0.0000     0.0000     0.0247     0.3605     0.0000
   8722.5000  1365.4756    28.9064    30.5409   224.8472     0.0081     0.0535     0.1489     0.0290     2.8639     0.2009     0.0157     0.0039   190.9764    56.5263     0.6140     5.7091   214.6732   177.8331   223.3436   206.9559     0.0958     0.0623     0.0833     0.0389     0.0000     2.7402  2930.0000     0.0623     0.0000     0.3256     0.2851     0.0000     0.0000     0.0294     0.3600     0.0000
   8723.0000  1365.4756    27.1693    32.2359   224.8472     0.0086     0.0532     0.1416     0.0286     4.7115     0.2101     0.0179     0.0037   199.6613    56.5263     0.5901     5.7027   224.4357   181.8413   223.7029   233.9365     0.0965     0.0806     0.0812     0.1271     0.0000     2.7408  2958.0000     0.0818     0.0000     0.3060     0.2827     0.0000     0.0000     0.0334     0.3779     0.0000
   8723.5000  1360.4985    30.8587    33.5586   224.8472     0.0082     0.0552     0.1327     0.0300     6.6562     0.2167     0.0156     0.0041   204.8053    56.5263     0.5843     5.6991   230.2180   181.7220   223.7029   231.4047     0.0660     0.0666     0.0806     0.0656     0.1161     2.7392  2882.0000     0.0664     0.0000     0.2820     0.3006     0.0000     0.0000     0.0291     0.3883     0.0000
   8724.0000  1365.4756    31.4659    33.8192   224.8472     0.0082     0.0554     0.1298     0.0307     8.0588     0.2193     0.0122     0.0038   204.6664    57.1116     0.5727     5.6581   230.0618   179.3265   223.7029   225.3326     0.0660     0.0649     0.0874     0.0643     0.1132     2.7360  2904.0000     0.0645     0.0000     0.2741     0.3021     0.0000     0.0000     0.0228     0.4010     0.0000
   8724.5000  1365.4756    30.3771    35.2516   224.8472     0.0085     0.0544     0.1361     0.0302     6.6228     0.2136     0.0113     0.0036   204.0411    57.3066     0.5512     5.6888   229.3589   184.6104   223.7029   234.0666    -0.0021     0.0780     0.0717     0.0561     0.0000     2.7351  2922.0000     0.0772     0.0000     0.2912     0.2928     0.0000     0.0000     0.0211     0.3949     0.0000
   8725.0000  1360.4985    31.9987    35.5012   224.8472     0.0083     0.0513     0.1508     0.0285     5.5360     0.2018     0.0110     0.0032   206.7698    56.5263     0.5371     5.7161   232.4263   190.6422   223.7029   228.7084     0.0443     0.0702     0.0555     0.0676     0.0000     2.7342  2876.0000     0.0694     0.0000     0.3308     0.2657     0.0000     0.0000     0.0206     0.3829     0.0000
   8725.5000  1365.4756    32.6500    34.7196   224.8472     0.0081     0.0454     0.1716     0.0257     4.5369     0.1876     0.0066     0.0029   196.6954    56.5263     0.5468     5.7050   221.1018   186.8444   223.7029   234.5336     0.0831     0.0634     0.0583     0.0679     0.0000     2.7272  2891.0000     0.0626     0.0000     0.3865     0.2137     0.0000     0.0000     0.0123     0.3875     0.0000
