~VERSION INFORMATION
VERS.           1.2   :CWLS Log ASCII Standard - VERSION 1.2
WRAP.           NO    :One Line per depth step
PROD.  Schlumberger   :LAS Producer
PROG.  DLIS to ASCII 17C0-152                          :LAS Program name and version
CREA.        2010/11/19 02:18                          :LAS Creation date {YYYY/MM/DD hh:mm}
DLIS_CREA.  2010-Nov-18 21:51                          :DLIS Creation date and time {YYYY-MMM-DD hh:mm}
SOURCE.     c799ad9c-fb3a-46c4-856c-9f94c6b0213d       :DLIS File Name
#--------------------------------------------------
~WELL INFORMATION
#MNEM.UNIT      DATA             DESCRIPTION
#---- ------ --------------   -----------------------------
STRT .F      8904.0000       :START DEPTH     
STOP .F      9132.5000       :STOP DEPTH     
STEP .F       0.5000         :STEP       
NULL .          -999.25      :NULL VALUE
COMP .                 COMPANY:  Wellstar Corporation               
WELL .                    WELL:  Silver Spur Minerals 35-2          
FLD  .                   FIELD:  Wildcat                            
LOC  .                LOCATION:  Sec.35, T8N, R78W                  
CNTY .                  COUNTY:  Jackson                            
STAT .                   STATE:  Colorado                           
CTRY .                 COUNTRY:                                     
SRVC .         SERVICE COMPANY:  Schlumberger                       
API  .              API NUMBER:  05-057-06490-0100                  
DATE .                LOG DATE:  18-Nov-2010
UWI  .          UNIQUE WELL ID:                                     
#-----------------------------------------------------------------------------
~PARAMETER INFORMATION
#MNEM.UNIT    VALUE                      DESCRIPTION
#---- -----   --------------------       ------------------------
CN   .        Wellstar Corporation       :Company Name
WN   .        Silver Spur Minerals 35-2  :Well Name
FN   .        Wildcat                    :Field Name
FL   .        Sec.35  T8N  R78W          :Field Location
FL1  .        SHL  1996' FSL X 655' FEL NESE :Field Location Line 1
COUN .        Jackson                    :County or Rig Name
STAT .        Colorado                   :State or Province
NATI .                                   :Nation
DATE .        18-Nov-2010                :Date as Month-Day-Year
APIN .        05-057-06490-0100          :API Serial Number
SECT .        35                         :Section
TOWN .        8N                         :Township
RANG .        78W                        :Range
DMF  .        Kelly Bushing              :Drilling Measured From
LMF  .        Kelly Bushing              :Log Measured From
PDAT .        Ground Level               :Permanent Datum
ENGI .        Philip Grant               :Engineer's Name
WITN .        Jacky Burch                :Witness's Name
LATI .                                   :Latitude
LONG .                                   :Longitude
LUL  .        Fort Morgan  CO            :Logging Unit Location
LUN  .              3021                 :Logging Unit Number
RUN  .        1                          :Run Number
SON  .        BE0K-00102                 :Service Order Number
BHT  .DEGF     211.99986                 :Bottom Hole Temperature (used in calculations)
BS   .IN         6.12500                 :Bit Size
DFD  .LB/G       8.80000                 :Drilling Fluid Density
DFV  .S         28.00000                 :Drilling Fluid Viscosity
DFL  .                                   :Drilling Fluid Loss
RMFS .OHMM       0.64200                 :Resistivity of Mud Filtrate Sample
EKB  .F       8549.00000                 :Elevation of Kelly Bushing
EGL  .F       8534.00000                 :Elevation of Ground Level
BLI  .F       9108.00000                 :Bottom Log Interval
BSAL .PPM     38000.00000                :Borehole Salinity
FLEV .                                   :Fluid Level
MCST .DEGF      83.57200                 :Mud Cake Sample Temperature
MFST .DEGF      83.57200                 :Mud Filtrate Sample Temperature
MRT  .DEGF     217.00000                 :Maximum Recorded Temperature
MST  .DEGF      83.57200                 :Mud Sample Temperature
RMCS .OHMM       1.28400                 :Resistivity of Mud Cake Sample
RMS  .OHMM       0.85600                 :Resistivity of Mud Sample
RW   .OHMM       1.00000                 :Resistivity of Connate Water
TDD  .F       8610.00000                 :Total Depth - Driller
TDL  .F       9116.00000                 :Total Depth - Logger
TLI  .F       8482.00000                 :Top Log Interval
HIDE .        Elemental Capture Spectroscopy :Header Identifier
MATR .        LIME                       :Rock Matrix for Neutron Porosity Corrections
FNUM .           1.00000                 :Form Factor Numerator
FEXP .           2.00000                 :Form Factor Exponent
DFT  .        KCl  Mud                   :Drilling Fluid Type
DFPH .           9.80000                 :Drilling Fluid PH
MCSS .        Calculated                 :Mud Cake Sample Source
MFSS .        Calculated                 :Mud Filtrate Sample Source
MSS  .        AIT bottom nose            :Mud Sample Source
OS1  .        None                       :Other Services Line 1
OS2  .                                   :Other Services Line 2
OS3  .                                   :Other Services Line 3
OS4  .                                   :Other Services Line 4
OS5  .                                   :Other Services Line 5
R1   .        Tool run as per tool sketch. :Remark Line 1
R2   .                                   :Remark Line 2
R3   .        This is the first log in hole. :Remark Line 3
R4   .                                   :Remark Line 4
R5   .        Data may be affected by hole rugosity. :Remark Line 5
R6   .                                   :Remark Line 6
R7   .                                   :Remark Line 7
R8   .                                   :Remark Line 8
TCS  .        11 00                      :Time Circulation Stopped
TLAB .                                   :Time Logger At Bottom
NMT  .        NOBARITE                   :HILT Nuclear Mud Type
EPD  .F         8534.000000              :Elevation of Permanent Datum above Mean Sea Level
APD  .F          15.000000               :Elevation of Depth Reference (LMF) above Permanent Datum
#-----------------------------------------------------------------------------
~CURVE INFORMATION
#MNEM.UNIT   API CODE                                  DESCRIPTION
#---- -----  --------                                  -----------------------
DEPT .F                                                :DEPTH (BOREHOLE) {F12.4}
CDF  .LBF                                              :Calibrated Downhole Force {F11.4}
CFTC .HZ                                               :Corrected Far Thermal Counting Rate {F11.4}
CNTC .HZ                                               :Corrected Near Thermal Counting Rate {F11.4}
CTEM .DEGF                                             :Cartridge Temperature {F11.4}
DNPH .CFCF                                             :Delta Thermal Neutron Porosity {F11.4}
DWAL_WALK2.                                            :Dry Weight Fraction Pseudo Aluminum (SpectroLith WALK2 Model) {F11.4}
DWCA_WALK2.                                            :Dry Weight Fraction Calcium (SpectroLith WALK2 Model) {F11.4}
DWFE_WALK2.                                            :Dry Weight Fraction Iron + 0.14 Aluminum (SpectroLith WALK2 Model) {F11.4}
DWGD_WALK2.PPM                                         :Dry Weight Fraction Gadolinium (SpectroLith WALK2 Model) {F11.4}
DWSI_WALK2.                                            :Dry Weight Fraction Silicon (SpectroLith WALK2 Model) {F11.4}
DWSU_WALK2.                                            :Dry Weight Fraction Sulfur (SpectroLith WALK2 Model) {F11.4}
DWTI_WALK2.                                            :Dry Weight Fraction Titanium (SpectroLith WALK2 Model) {F11.4}
ECGR .GAPI                                             :Environmentally Corrected Gamma-Ray {F11.4}
ECST .DEGF                                             :ECS Temperature {F11.4}
ESUF_WALK2.                                            :Elemental Statistical Uncertainty Factor (SpectroLith WALK2 Model) {F11.4}
GDEV .DEG                                              :HGNS Deviation {F11.4}
GR   .GAPI                                             :Gamma-Ray {F11.4}
GR_EDTC.GAPI                                           :EDTC Gamma Ray {F11.4}
GTEM .DEGF                                             :Generalized Borehole Temperature {F11.4}
HGR  .GAPI                                             :HiRes Gamma-Ray {F11.4}
HNPO .CFCF                                             :HiRes Enhanced Thermal Neutron Porosity {F11.4}
HTNP .CFCF                                             :HiRes Thermal Neutron Porosity {F11.4}
NPHI .CFCF                                             :Thermal Neutron Porosity (Ratio Method) {F11.4}
NPOR .CFCF                                             :Enhanced Thermal Neutron Porosity {F11.4}
QCPMT.                                                 :Photomultiplier Tube Quality Control {F11.4}
RHGE_WALK2.G/C3                                        :Matrix Density from Elemental Concentrations (SpectroLith WALK2 Model) {F11.4}
TENS .LBF                                              :Cable Tension {F11.4}
TNPH .CFCF                                             :Thermal Neutron Porosity {F11.4}
WANH_WALK2.                                            :Dry Weight Fraction Anhydrite/Gypsum (SpectroLith WALK2 Model) {F11.4}
WCAR_WALK2.                                            :Dry Weight Fraction Carbonate (SpectroLith WALK2 Model) {F11.4}
WCLA_WALK2.                                            :Dry Weight Fraction Clay (SpectroLith WALK2 Model) {F11.4}
WCOA_WALK2.                                            :Dry Weight Fraction Coal (SpectroLith WALK2 Model) {F11.4}
WEVA_WALK2.                                            :Dry Weight Fraction Salt (SpectroLith WALK2 Model) {F11.4}
WPYR_WALK2.                                            :Dry Weight Fraction Pyrite (SpectroLith WALK2 Model) {F11.4}
WQFM_WALK2.                                            :Dry Weight Fraction Quartz+Feldspar+Mica (QFM) (SpectroLith WALK2 Model) {F11.4}
WSID_WALK2.                                            :Dry Weight Fraction Siderite (SpectroLith WALK2 Model) {F11.4}
#-----------------------------------------------------------------------------
# 
#      DEPT        CDF        CFTC       CNTC       CTEM       DNPH    DWAL_WALK2 DWCA_WALK2 DWFE_WALK2 DWGD_WALK2 DWSI_WALK2 DWSU_WALK2 DWTI_WALK2    ECGR       ECST    ESUF_WALK2    GDEV        GR      GR_EDTC      GTEM       HGR        HNPO       HTNP       NPHI       NPOR      QCPMT    RHGE_WALK2    TENS       TNPH    WANH_WALK2 WCAR_WALK2 WCLA_WALK2 WCOA_WALK2 WEVA_WALK2 WPYR_WALK2 WQFM_WALK2 WSID_WALK2
#
~A  
# ...
   8934.0000  1530.7831    35.1534    36.3253   214.9649     0.0080     0.0471     0.1543     0.0269     6.5468     0.2045     0.0069     0.0024   130.4651    53.0147     0.5977     6.3561   146.6535   103.7172   220.1098   158.5042     0.1172     0.0576     0.0410     0.0854     0.0000     2.7269  2961.0000     0.0580     0.0000     0.3400     0.2289     0.0000     0.0000     0.0129     0.4182     0.0000
   8934.5000  1530.7831    37.4937    34.4910   214.9649     0.0076     0.0441     0.1564     0.0255     4.8160     0.2069     0.0060     0.0016   132.8156    53.0147     0.5826     6.4081   149.2957   106.6268   220.1098   148.8054     0.0660     0.0398     0.0390     0.0489     0.0000     2.7237  2988.0000     0.0417     0.0000     0.3458     0.2030     0.0000     0.0000     0.0112     0.4400     0.0000
   8935.0000  1525.8060    38.7960    34.3584   214.9649     0.0075     0.0441     0.1555     0.0257     4.5186     0.2079     0.0052     0.0012   132.3989    53.7950     0.5734     6.3291   148.8273   109.8235   220.1098   139.7589     0.0387     0.0359     0.0299     0.0028     0.0000     2.7229  2961.0000     0.0369     0.0000     0.3432     0.2023     0.0000     0.0000     0.0096     0.4449     0.0000
   8935.5000  1525.8060    38.5789    35.1421   214.9649     0.0075     0.0477     0.1479     0.0281     4.5474     0.2100     0.0033     0.0015   136.7066    54.1852     0.5664     6.3731   153.6694   110.7940   220.1098   157.6676    -0.0008     0.0394     0.0301     0.0818     0.0000     2.7239  2995.0000     0.0404     0.0000     0.3228     0.2344     0.0000     0.0000     0.0062     0.4365     0.0000
   8936.0000  1520.8291    39.2779    34.4910   214.9649     0.0074     0.0492     0.1480     0.0284     4.4317     0.2078     0.0068     0.0017   147.8178    54.1852     0.5617     6.3985   166.1593   114.7993   220.1098   164.3016     0.0128     0.0354     0.0210     0.0293     0.0000     2.7286  2968.0000     0.0358     0.0000     0.3231     0.2473     0.0000     0.0000     0.0128     0.4168     0.0000
   8936.5000  1525.8060    39.1552    31.7441   214.9649     0.0072     0.0473     0.1571     0.0271     3.6354     0.2007     0.0076     0.0020   144.4286    54.1852     0.5452     6.3115   162.3496   118.0728   220.1098   177.2908    -0.0047     0.0259     0.0208     0.0073     0.0000     2.7286  2967.0000     0.0267     0.0000     0.3477     0.2310     0.0000     0.0000     0.0143     0.4071     0.0000
   8937.0000  1530.7831    39.4572    33.2629   214.9649     0.0073     0.0440     0.1765     0.0258     4.7891     0.1834     0.0015     0.0022   137.3978    54.1852     0.5363     6.4315   154.4464   117.1146   219.9302   145.5307     0.1892     0.0307     0.0448     0.0502     0.0000     2.7223  2966.0000     0.0310     0.0000     0.3997     0.2013     0.0000     0.0000     0.0028     0.3961     0.0000
   8937.5000  1530.7831    36.4923    34.0006   214.9649     0.0076     0.0418     0.1916     0.0245     6.3679     0.1696     0.0000     0.0027   124.3529    54.1852     0.5084     6.4470   139.7829   114.0674   219.7505   139.6774     0.1905     0.0433     0.0508     0.0782     0.4730     2.7207  2965.0000     0.0435     0.0000     0.4403     0.1828     0.0000     0.0000     0.0000     0.3769     0.0000
   8938.0000  1530.7831    34.8786    32.4356   214.9649     0.0076     0.0390     0.2016     0.0226     8.5547     0.1632     0.0000     0.0030   118.5739    54.1852     0.5085     6.3955   133.2869   107.1927   219.7505   132.9904     0.0367     0.0439     0.0530     0.0242     0.9251     2.7189  3027.0000     0.0434     0.0000     0.4673     0.1576     0.0000     0.0000     0.0000     0.3751     0.0000
   8938.5000  1530.7831    35.2237    34.1286   214.9649     0.0078     0.0361     0.1974     0.0209     9.4299     0.1733     0.0000     0.0030   114.5057    54.1852     0.5035     6.4344   128.7139    99.4388   219.7505   127.5220     0.0420     0.0496     0.0508     0.0229     1.3753     2.7150  3026.0000     0.0488     0.0000     0.4560     0.1321     0.0000     0.0000     0.0000     0.4119     0.0000
   8939.0000  1530.7831    36.0217    36.6149   214.9649     0.0079     0.0363     0.1825     0.0211     8.9228     0.1902     0.0000     0.0028   109.0864    53.4048     0.5011     6.4331   122.6221    88.7737   219.7505   125.8734     0.2689     0.0551     0.0517     0.1151     1.0999     2.7129  2990.0000     0.0554     0.0000     0.4159     0.1344     0.0000     0.0000     0.0000     0.4497     0.0000
   8939.5000  1530.7831    36.2387    35.2374   214.9649     0.0078     0.0397     0.1623     0.0232     7.4545     0.2076     0.0000     0.0026   110.2672    53.0147     0.4985     6.4221   123.9493    88.0811   219.7505   114.7065     0.0441     0.0496     0.0820     0.0334     0.6396     2.7134  2961.0000     0.0492     0.0000     0.3617     0.1639     0.0000     0.0000     0.0000     0.4744     0.0000
   8940.0000  1530.7831    31.1686    34.5539   214.9649     0.0083     0.0438     0.1480     0.0258     6.3757     0.2169     0.0000     0.0025   111.0834    53.0147     0.5209     6.4642   124.8668   100.2658   219.7505   131.2429     0.0390     0.0702     0.0770     0.0363     0.5709     2.7156  3016.0000     0.0695     0.0000     0.3230     0.1998     0.0000     0.0000     0.0000     0.4771     0.0000
   8940.5000  1535.4045    30.3000    35.9886   214.9649     0.0086     0.0455     0.1392     0.0269     6.2211     0.2239     0.0000     0.0023   121.9768    53.0147     0.5234     6.4541   137.1120   114.2551   219.7505   128.1141     0.2155     0.0836     0.0697     0.1310     1.2023     2.7163  3004.0000     0.0813     0.0000     0.2995     0.2151     0.0000     0.0000     0.0000     0.4854     0.0000
   8941.0000  1535.4045    34.8589    35.5979   214.9649     0.0080     0.0447     0.1368     0.0265     5.1787     0.2281     0.0000     0.0020   135.8157    53.0147     0.5383     6.5078   152.6680   118.0467   219.7505   152.2451     0.0949     0.0573     0.0670     0.0537     0.8838     2.7152  2977.0000     0.0563     0.0000     0.2931     0.2080     0.0000     0.0000     0.0000     0.4989     0.0000
   8941.5000  1530.7831    36.8934    36.1191   214.9649     0.0078     0.0423     0.1323     0.0250     3.5826     0.2377     0.0000     0.0021   155.4595    52.2343     0.5588     6.4200   174.7493   119.1132   219.7505   176.7418     0.0917     0.0516     0.0923     0.0552     0.7854     2.7116  3001.0000     0.0500     0.0000     0.2808     0.1870     0.0000     0.0000     0.0000     0.5322     0.0000
   8942.0000  1535.4045    35.5873    39.1145   214.9649     0.0082     0.0417     0.1285     0.0246     2.4506     0.2433     0.0000     0.0021   166.7113    52.2343     0.5866     6.4149   187.3973   121.6063   219.7505   194.8739     0.1521     0.0682     0.1005     0.0824     0.4381     2.7102  2936.0000     0.0673     0.0000     0.2707     0.1814     0.0000     0.0000     0.0000     0.5479     0.0000
   8942.5000  1535.4045    32.9861    39.0627   214.4493     0.0086     0.0455     0.1201     0.0265     3.9649     0.2466     0.0000     0.0033   172.6170    53.0147     0.5919     6.4944   194.0357   129.8503   219.7505   189.4130     0.0359     0.0813     0.0721     0.0573     0.3757     2.7123  3013.0000     0.0802     0.0000     0.2481     0.2150     0.0000     0.0000     0.0000     0.5369     0.0000
   8943.0000  1535.4045    34.9364    38.9302   213.8943     0.0083     0.0505     0.1108     0.0293     3.9236     0.2488     0.0000     0.0039   170.1672    51.8441     0.5845     6.5367   191.2819   135.7229   219.7505   197.3051     0.0220     0.0702     0.0390     0.0443     0.4587     2.7158  3005.0000     0.0696     0.0000     0.2231     0.2588     0.0000     0.0000     0.0000     0.5182     0.0000
   8943.5000  1530.7831    36.9900    38.1733   213.1531     0.0080     0.0556     0.1012     0.0321     3.9405     0.2511     0.0000     0.0048   163.9162    52.6245     0.5842     6.4288   184.2552   141.0918   219.7505   186.2295     0.1304     0.0587     0.0198     0.0705     0.0941     2.7193  2975.0000     0.0575     0.0000     0.1972     0.3037     0.0000     0.0000     0.0000     0.4991     0.0000
