~VERSION INFORMATION
VERS.           1.2   :CWLS Log ASCII Standard - VERSION 1.2
WRAP.           NO    :One Line per depth step
PROD.  Schlumberger   :LAS Producer
PROG.  DLIS to ASCII 17C0-152                          :LAS Program name and version
CREA.        2010/11/19 02:18                          :LAS Creation date {YYYY/MM/DD hh:mm}
DLIS_CREA.  2010-Nov-18 22:49                          :DLIS Creation date and time {YYYY-MMM-DD hh:mm}
SOURCE.     d476e3e6-e07a-4d20-b90c-cbd099bd9e21       :DLIS File Name
#--------------------------------------------------
~WELL INFORMATION
#MNEM.UNIT      DATA             DESCRIPTION
#---- ------ --------------   -----------------------------
STRT .F      8456.0000       :START DEPTH     
STOP .F      9128.5000       :STOP DEPTH     
STEP .F       0.5000         :STEP       
NULL .          -999.25      :NULL VALUE
COMP .                 COMPANY:  Wellstar Corporation               
WELL .                    WELL:  Silver Spur Minerals 35-2          
FLD  .                   FIELD:  Wildcat                            
LOC  .                LOCATION:  Sec.35, T8N, R78W                  
CNTY .                  COUNTY:  Jackson                            
STAT .                   STATE:  Colorado                           
CTRY .                 COUNTRY:                                     
SRVC .         SERVICE COMPANY:  Schlumberger                       
API  .              API NUMBER:  05-057-06490-0100                  
DATE .                LOG DATE:  18-Nov-2010
UWI  .          UNIQUE WELL ID:                                     
#-----------------------------------------------------------------------------
~PARAMETER INFORMATION
#MNEM.UNIT    VALUE                      DESCRIPTION
#---- -----   --------------------       ------------------------
CN   .        Wellstar Corporation       :Company Name
WN   .        Silver Spur Minerals 35-2  :Well Name
FN   .        Wildcat                    :Field Name
FL   .        Sec.35  T8N  R78W          :Field Location
FL1  .        SHL  1996' FSL X 655' FEL NESE :Field Location Line 1
COUN .        Jackson                    :County or Rig Name
STAT .        Colorado                   :State or Province
NATI .                                   :Nation
DATE .        18-Nov-2010                :Date as Month-Day-Year
APIN .        05-057-06490-0100          :API Serial Number
SECT .        35                         :Section
TOWN .        8N                         :Township
RANG .        78W                        :Range
DMF  .        Kelly Bushing              :Drilling Measured From
LMF  .        Kelly Bushing              :Log Measured From
PDAT .        Ground Level               :Permanent Datum
ENGI .        Philip Grant               :Engineer's Name
WITN .        Jacky Burch                :Witness's Name
LATI .                                   :Latitude
LONG .                                   :Longitude
LUL  .        Fort Morgan  CO            :Logging Unit Location
LUN  .              3021                 :Logging Unit Number
RUN  .        1                          :Run Number
SON  .        BE0K-00102                 :Service Order Number
BHT  .DEGF     211.99986                 :Bottom Hole Temperature (used in calculations)
BS   .IN         6.12500                 :Bit Size
DFD  .LB/G       8.80000                 :Drilling Fluid Density
DFV  .S         28.00000                 :Drilling Fluid Viscosity
DFL  .                                   :Drilling Fluid Loss
RMFS .OHMM       0.64200                 :Resistivity of Mud Filtrate Sample
EKB  .F       8549.00000                 :Elevation of Kelly Bushing
EGL  .F       8534.00000                 :Elevation of Ground Level
BLI  .F       9108.00000                 :Bottom Log Interval
BSAL .PPM     38000.00000                :Borehole Salinity
FLEV .                                   :Fluid Level
MCST .DEGF      83.57200                 :Mud Cake Sample Temperature
MFST .DEGF      83.57200                 :Mud Filtrate Sample Temperature
MRT  .DEGF     217.00000                 :Maximum Recorded Temperature
MST  .DEGF      83.57200                 :Mud Sample Temperature
RMCS .OHMM       1.28400                 :Resistivity of Mud Cake Sample
RMS  .OHMM       0.85600                 :Resistivity of Mud Sample
RW   .OHMM       1.00000                 :Resistivity of Connate Water
TDD  .F       8610.00000                 :Total Depth - Driller
TDL  .F       9116.00000                 :Total Depth - Logger
TLI  .F       8482.00000                 :Top Log Interval
HIDE .        Elemental Capture Spectroscopy :Header Identifier
MATR .        LIME                       :Rock Matrix for Neutron Porosity Corrections
FNUM .           1.00000                 :Form Factor Numerator
FEXP .           2.00000                 :Form Factor Exponent
DFT  .        KCl  Mud                   :Drilling Fluid Type
DFPH .           9.80000                 :Drilling Fluid PH
MCSS .        Calculated                 :Mud Cake Sample Source
MFSS .        Calculated                 :Mud Filtrate Sample Source
MSS  .        AIT bottom nose            :Mud Sample Source
OS1  .        PEx-HRLA                   :Other Services Line 1
OS2  .        MSIP-FMI                   :Other Services Line 2
OS3  .        HNGS                       :Other Services Line 3
OS4  .                                   :Other Services Line 4
OS5  .                                   :Other Services Line 5
R1   .        Tool run as per tool sketch. :Remark Line 1
R2   .                                   :Remark Line 2
R3   .        This is the first log in hole. :Remark Line 3
R4   .                                   :Remark Line 4
R5   .        Data may be affected by hole rugosity. :Remark Line 5
R6   .                                   :Remark Line 6
R7   .        Matrix Limestone 2.71      :Remark Line 7
R8   .                                   :Remark Line 8
TCS  .        11 00                      :Time Circulation Stopped
TLAB .        9 31                       :Time Logger At Bottom
NMT  .        NOBARITE                   :HILT Nuclear Mud Type
EPD  .F         8534.000000              :Elevation of Permanent Datum above Mean Sea Level
APD  .F          15.000000               :Elevation of Depth Reference (LMF) above Permanent Datum
#-----------------------------------------------------------------------------
~CURVE INFORMATION
#MNEM.UNIT   API CODE                                  DESCRIPTION
#---- -----  --------                                  -----------------------
DEPT .F                                                :DEPTH (BOREHOLE) {F12.4}
CDF  .LBF                                              :Calibrated Downhole Force {F11.4}
CFTC .HZ                                               :Corrected Far Thermal Counting Rate {F11.4}
CNTC .HZ                                               :Corrected Near Thermal Counting Rate {F11.4}
CTEM .DEGF                                             :Cartridge Temperature {F11.4}
DNPH .CFCF                                             :Delta Thermal Neutron Porosity {F11.4}
DWAL_WALK2.                                            :Dry Weight Fraction Pseudo Aluminum (SpectroLith WALK2 Model) {F11.4}
DWCA_WALK2.                                            :Dry Weight Fraction Calcium (SpectroLith WALK2 Model) {F11.4}
DWFE_WALK2.                                            :Dry Weight Fraction Iron + 0.14 Aluminum (SpectroLith WALK2 Model) {F11.4}
DWGD_WALK2.PPM                                         :Dry Weight Fraction Gadolinium (SpectroLith WALK2 Model) {F11.4}
DWSI_WALK2.                                            :Dry Weight Fraction Silicon (SpectroLith WALK2 Model) {F11.4}
DWSU_WALK2.                                            :Dry Weight Fraction Sulfur (SpectroLith WALK2 Model) {F11.4}
DWTI_WALK2.                                            :Dry Weight Fraction Titanium (SpectroLith WALK2 Model) {F11.4}
ECGR .GAPI                                             :Environmentally Corrected Gamma-Ray {F11.4}
ECST .DEGF                                             :ECS Temperature {F11.4}
ESUF_WALK2.                                            :Elemental Statistical Uncertainty Factor (SpectroLith WALK2 Model) {F11.4}
GDEV .DEG                                              :HGNS Deviation {F11.4}
GR   .GAPI                                             :Gamma-Ray {F11.4}
GR_EDTC.GAPI                                           :EDTC Gamma Ray {F11.4}
GTEM .DEGF                                             :Generalized Borehole Temperature {F11.4}
HGR  .GAPI                                             :HiRes Gamma-Ray {F11.4}
HNPO .CFCF                                             :HiRes Enhanced Thermal Neutron Porosity {F11.4}
HTNP .CFCF                                             :HiRes Thermal Neutron Porosity {F11.4}
NPHI .CFCF                                             :Thermal Neutron Porosity (Ratio Method) {F11.4}
NPOR .CFCF                                             :Enhanced Thermal Neutron Porosity {F11.4}
QCPMT.                                                 :Photomultiplier Tube Quality Control {F11.4}
RHGE_WALK2.G/C3                                        :Matrix Density from Elemental Concentrations (SpectroLith WALK2 Model) {F11.4}
TENS .LBF                                              :Cable Tension {F11.4}
TNPH .CFCF                                             :Thermal Neutron Porosity {F11.4}
WANH_WALK2.                                            :Dry Weight Fraction Anhydrite/Gypsum (SpectroLith WALK2 Model) {F11.4}
WCAR_WALK2.                                            :Dry Weight Fraction Carbonate (SpectroLith WALK2 Model) {F11.4}
WCLA_WALK2.                                            :Dry Weight Fraction Clay (SpectroLith WALK2 Model) {F11.4}
WCOA_WALK2.                                            :Dry Weight Fraction Coal (SpectroLith WALK2 Model) {F11.4}
WEVA_WALK2.                                            :Dry Weight Fraction Salt (SpectroLith WALK2 Model) {F11.4}
WPYR_WALK2.                                            :Dry Weight Fraction Pyrite (SpectroLith WALK2 Model) {F11.4}
WQFM_WALK2.                                            :Dry Weight Fraction Quartz+Feldspar+Mica (QFM) (SpectroLith WALK2 Model) {F11.4}
WSID_WALK2.                                            :Dry Weight Fraction Siderite (SpectroLith WALK2 Model) {F11.4}
#-----------------------------------------------------------------------------
# 
#      DEPT        CDF        CFTC       CNTC       CTEM       DNPH    DWAL_WALK2 DWCA_WALK2 DWFE_WALK2 DWGD_WALK2 DWSI_WALK2 DWSU_WALK2 DWTI_WALK2    ECGR       ECST    ESUF_WALK2    GDEV        GR      GR_EDTC      GTEM       HGR        HNPO       HTNP       NPHI       NPOR      QCPMT    RHGE_WALK2    TENS       TNPH    WANH_WALK2 WCAR_WALK2 WCLA_WALK2 WCOA_WALK2 WEVA_WALK2 WPYR_WALK2 WQFM_WALK2 WSID_WALK2
#
~A  
# ...
   8546.0000  1302.1965    25.7595    31.6836   220.8943     0.0088     0.0641     0.1881     0.0329     0.8550     0.1384     0.0388     0.0020   202.0566    57.6968     0.7619     3.7376   227.1282   185.4965   218.3133   228.4661     0.0145     0.0886     0.1071     0.0404     0.3688     2.7815  2786.0000     0.0887     0.0000     0.4310     0.3784     0.0000     0.0000     0.0707     0.1199     0.0000
   8546.5000  1302.1965    25.5936    33.5146   220.8943     0.0092     0.0554     0.2018     0.0294     2.1545     0.1364     0.0254     0.0025   193.8118    57.6968     0.7485     3.6384   217.8604   182.5878   218.3133   213.0750     0.1498     0.1011     0.1103     0.1032     0.0283     2.7614  2811.0000     0.1009     0.0000     0.4679     0.3023     0.0000     0.0000     0.0475     0.1824     0.0000
   8547.0000  1307.1736    25.9200    34.7388   220.8943     0.0093     0.0499     0.2020     0.0276     5.0082     0.1446     0.0120     0.0033   188.8009    57.6968     0.7426     3.8095   212.2278   175.5262   218.3133   213.0582     0.3512     0.1052     0.1242     0.1874     0.1833     2.7423  2832.0000     0.1055     0.0000     0.4685     0.2539     0.0000     0.0000     0.0225     0.2551     0.0000
   8547.5000  1302.1965    27.2816    34.1940   220.8943     0.0089     0.0450     0.2052     0.0261     6.0492     0.1483     0.0020     0.0028   185.0938    57.6968     0.7013     3.7038   208.0606   177.9883   218.4331   211.3131     0.1410     0.0921     0.1363     0.0665     0.3009     2.7284  2844.0000     0.0918     0.0000     0.4770     0.2105     0.0000     0.0000     0.0038     0.3086     0.0000
   8548.0000  1302.1965    26.6304    35.6293   220.8943     0.0093     0.0428     0.2101     0.0254     7.2346     0.1459     0.0005     0.0016   179.8804    57.6968     0.6767     3.6855   202.2004   176.7214   218.4930   200.4492     0.0834     0.1066     0.0908     0.1020     0.2217     2.7262  2807.0000     0.1050     0.0000     0.4902     0.1910     0.0000     0.0000     0.0009     0.3179     0.0000
   8548.5000  1307.1736    29.5802    35.7654   220.8943     0.0087     0.0452     0.2196     0.0264     6.3890     0.1310     0.0065     0.0007   175.4815    57.6968     0.6340     3.6773   197.2556   179.2319   218.6726   194.7567     0.1701     0.0852     0.0926     0.0747     0.1109     2.7368  2805.0000     0.0846     0.0000     0.5157     0.2120     0.0000     0.0000     0.0122     0.2601     0.0000
   8549.0000  1302.1965    28.4476    34.9837   220.8943     0.0088     0.0504     0.2197     0.0285     6.3123     0.1225     0.0149     0.0005   176.8710    57.6968     0.6221     3.6475   198.8176   177.4940   218.6726   196.4345     0.0785     0.0881     0.0492     0.0577     0.2551     2.7505  2836.0000     0.0880     0.0000     0.5160     0.2578     0.0000     0.0000     0.0279     0.1983     0.0000
   8549.5000  1302.1965    32.6689    34.7114   220.8943     0.0081     0.0555     0.2134     0.0308     6.4359     0.1214     0.0203     0.0008   178.3961    57.6968     0.6278     3.7019   200.5319   176.9401   218.6726   205.6794     0.0778     0.0622     0.0596     0.1241     0.1290     2.7600  2869.0000     0.0625     0.0000     0.4991     0.3030     0.0000     0.0000     0.0380     0.1599     0.0000
   8550.0000  1302.1965    33.1228    33.8944   220.8943     0.0080     0.0589     0.2064     0.0327     8.7668     0.1237     0.0216     0.0008   180.8468    57.3066     0.6625     3.6691   203.2867   186.7131   218.6726   200.3713     0.0672     0.0566     0.0428     0.0533     0.0231     2.7638  2786.0000     0.0568     0.0000     0.4803     0.3327     0.0000     0.0000     0.0404     0.1466     0.0000
   8550.5000  1307.1736    36.3798    32.7219   220.8943     0.0075     0.0622     0.2013     0.0343     9.2027     0.1240     0.0246     0.0009   190.4992    56.5263     0.6890     3.6405   214.1368   189.8127   218.6726   204.8443     0.0228     0.0378     0.0742     0.0286     0.5400     2.7695  2797.0000     0.0390     0.0000     0.4666     0.3620     0.0000     0.0000     0.0460     0.1254     0.0000
   8551.0000  1302.1965    30.9337    33.4026   220.8943     0.0082     0.0680     0.1935     0.0367     9.0310     0.1237     0.0303     0.0016   198.0518    57.6968     0.7058     3.6663   222.6265   197.2695   218.6726   238.3099     0.0464     0.0634     0.0652     0.0657     0.3579     2.7794  2829.0000     0.0653     0.0000     0.4455     0.4129     0.0000     0.0000     0.0566     0.0850     0.0000
   8551.5000  1302.1965    32.5224    33.0341   220.8943     0.0079     0.0714     0.1855     0.0383     5.9360     0.1276     0.0326     0.0021   209.8632    57.6968     0.7181     3.6923   235.9035   200.9318   218.6726   225.5135     0.1105     0.0550     0.0874     0.0474     0.3080     2.7836  2855.0000     0.0558     0.0000     0.4239     0.4423     0.0000     0.0000     0.0610     0.0727     0.0000
   8552.0000  1302.1965    29.2621    33.5128   220.8943     0.0085     0.0750     0.1682     0.0401     3.0747     0.1417     0.0332     0.0029   206.3726    57.6968     0.7438     3.6892   231.9797   204.8100   218.6726   244.8448     0.1021     0.0759     0.0594     0.1006     0.1502     2.7846  2781.0000     0.0752     0.0000     0.3773     0.4739     0.0000     0.0000     0.0621     0.0866     0.0000
   8552.5000  1307.1736    29.9453    31.3360   220.8943     0.0081     0.0718     0.1601     0.0388     1.0745     0.1562     0.0291     0.0026   206.0095    57.6968     0.7550     3.6088   231.5716   201.6023   218.6726   225.9348     0.0149     0.0610     0.0730     0.0525     0.4016     2.7761  2792.0000     0.0607     0.0000     0.3556     0.4462     0.0000     0.0000     0.0544     0.1438     0.0000
   8553.0000  1307.1736    26.7965    30.5524   220.8943     0.0085     0.0689     0.1540     0.0371     1.3694     0.1685     0.0290     0.0024   197.3246    57.6968     0.7485     3.5952   221.8091   200.3558   218.6726   223.5291     0.0005     0.0758     0.0686     0.0369     0.3125     2.7719  2790.0000     0.0750     0.0000     0.3392     0.4205     0.0000     0.0000     0.0543     0.1860     0.0000
   8553.5000  1302.1965    25.2093    30.4163   220.8943     0.0087     0.0651     0.1622     0.0351     3.5316     0.1654     0.0294     0.0015   195.0055    57.6968     0.7247     3.6660   219.2023   201.8793   218.6726   215.4941     0.1456     0.0868     0.0923     0.1632     0.3770     2.7700  2827.0000     0.0853     0.0000     0.3613     0.3875     0.0000     0.0000     0.0549     0.1963     0.0000
   8554.0000  1302.1965    27.0535    31.6967   220.8943     0.0086     0.0644     0.1686     0.0344     3.2137     0.1595     0.0334     0.0010   195.3686    57.3066     0.7016     3.7003   219.6104   202.1779   218.6726   218.0465     0.0104     0.0813     0.0775     0.0875     0.2392     2.7745  2830.0000     0.0796     0.0000     0.3784     0.3814     0.0000     0.0000     0.0626     0.1776     0.0000
   8554.5000  1307.1736    26.7981    28.9035   220.8943     0.0082     0.0660     0.1781     0.0347     0.6981     0.1461     0.0382     0.0009   194.7433    56.5263     0.7152     3.6178   218.9075   194.4608   218.6726   225.3908     0.1286     0.0669     0.0520     0.0634     0.6139     2.7824  2773.0000     0.0659     0.0000     0.4042     0.3951     0.0000     0.0000     0.0715     0.1292     0.0000
   8555.0000  1302.1965    27.9544    28.5774   220.8943     0.0080     0.0642     0.1903     0.0335     0.0000     0.1353     0.0384     0.0011   191.5480    58.8674     0.7342     3.6133   215.3157   190.7170   218.6726   212.5405    -0.0348     0.0585     0.0447     0.0037     0.9073     2.7824  2817.0000     0.0575     0.0000     0.4368     0.3791     0.0000     0.0000     0.0718     0.1123     0.0000
   8555.5000  1302.1965    28.1684    29.7494   220.8943     0.0081     0.0635     0.1955     0.0338     0.0000     0.1297     0.0313     0.0018   191.2965    58.0870     0.7679     3.7246   215.0330   188.4057   218.6726   207.1013     0.1829     0.0628     0.0424     0.1196     0.5192     2.7754  2817.0000     0.0624     0.0000     0.4510     0.3733     0.0000     0.0000     0.0585     0.1173     0.0000
