~VERSION INFORMATION
VERS.           1.2   :CWLS Log ASCII Standard - VERSION 1.2
WRAP.           NO    :One Line per depth step
PROD.  Schlumberger   :LAS Producer
PROG.  DLIS to ASCII 17C0-152                          :LAS Program name and version
CREA.        2010/11/19 02:18                          :LAS Creation date {YYYY/MM/DD hh:mm}
DLIS_CREA.  2010-Nov-18 21:51                          :DLIS Creation date and time {YYYY-MMM-DD hh:mm}
SOURCE.     c799ad9c-fb3a-46c4-856c-9f94c6b0213d       :DLIS File Name
#--------------------------------------------------
~WELL INFORMATION
#MNEM.UNIT      DATA             DESCRIPTION
#---- ------ --------------   -----------------------------
STRT .F      8904.0000       :START DEPTH     
STOP .F      9132.5000       :STOP DEPTH     
STEP .F       0.5000         :STEP       
NULL .          -999.25      :NULL VALUE
COMP .                 COMPANY:  Wellstar Corporation               
WELL .                    WELL:  Silver Spur Minerals 35-2          
FLD  .                   FIELD:  Wildcat                            
LOC  .                LOCATION:  Sec.35, T8N, R78W                  
CNTY .                  COUNTY:  Jackson                            
STAT .                   STATE:  Colorado                           
CTRY .                 COUNTRY:                                     
SRVC .         SERVICE COMPANY:  Schlumberger                       
API  .              API NUMBER:  05-057-06490-0100                  
DATE .                LOG DATE:  18-Nov-2010
UWI  .          UNIQUE WELL ID:                                     
#-----------------------------------------------------------------------------
~PARAMETER INFORMATION
#MNEM.UNIT    VALUE                      DESCRIPTION
#---- -----   --------------------       ------------------------
CN   .        Wellstar Corporation       :Company Name
WN   .        Silver Spur Minerals 35-2  :Well Name
FN   .        Wildcat                    :Field Name
FL   .        Sec.35  T8N  R78W          :Field Location
FL1  .        SHL  1996' FSL X 655' FEL NESE :Field Location Line 1
COUN .        Jackson                    :County or Rig Name
STAT .        Colorado                   :State or Province
NATI .                                   :Nation
DATE .        18-Nov-2010                :Date as Month-Day-Year
APIN .        05-057-06490-0100          :API Serial Number
SECT .        35                         :Section
TOWN .        8N                         :Township
RANG .        78W                        :Range
DMF  .        Kelly Bushing              :Drilling Measured From
LMF  .        Kelly Bushing              :Log Measured From
PDAT .        Ground Level               :Permanent Datum
ENGI .        Philip Grant               :Engineer's Name
WITN .        Jacky Burch                :Witness's Name
LATI .                                   :Latitude
LONG .                                   :Longitude
LUL  .        Fort Morgan  CO            :Logging Unit Location
LUN  .              3021                 :Logging Unit Number
RUN  .        1                          :Run Number
SON  .        BE0K-00102                 :Service Order Number
BHT  .DEGF     211.99986                 :Bottom Hole Temperature (used in calculations)
BS   .IN         6.12500                 :Bit Size
DFD  .LB/G       8.80000                 :Drilling Fluid Density
DFV  .S         28.00000                 :Drilling Fluid Viscosity
DFL  .                                   :Drilling Fluid Loss
RMFS .OHMM       0.64200                 :Resistivity of Mud Filtrate Sample
EKB  .F       8549.00000                 :Elevation of Kelly Bushing
EGL  .F       8534.00000                 :Elevation of Ground Level
BLI  .F       9108.00000                 :Bottom Log Interval
BSAL .PPM     38000.00000                :Borehole Salinity
FLEV .                                   :Fluid Level
MCST .DEGF      83.57200                 :Mud Cake Sample Temperature
MFST .DEGF      83.57200                 :Mud Filtrate Sample Temperature
MRT  .DEGF     217.00000                 :Maximum Recorded Temperature
MST  .DEGF      83.57200                 :Mud Sample Temperature
RMCS .OHMM       1.28400                 :Resistivity of Mud Cake Sample
RMS  .OHMM       0.85600                 :Resistivity of Mud Sample
RW   .OHMM       1.00000                 :Resistivity of Connate Water
TDD  .F       8610.00000                 :Total Depth - Driller
TDL  .F       9116.00000                 :Total Depth - Logger
TLI  .F       8482.00000                 :Top Log Interval
HIDE .        Elemental Capture Spectroscopy :Header Identifier
MATR .        LIME                       :Rock Matrix for Neutron Porosity Corrections
FNUM .           1.00000                 :Form Factor Numerator
FEXP .           2.00000                 :Form Factor Exponent
DFT  .        KCl  Mud                   :Drilling Fluid Type
DFPH .           9.80000                 :Drilling Fluid PH
MCSS .        Calculated                 :Mud Cake Sample Source
MFSS .        Calculated                 :Mud Filtrate Sample Source
MSS  .        AIT bottom nose            :Mud Sample Source
OS1  .        None                       :Other Services Line 1
OS2  .                                   :Other Services Line 2
OS3  .                                   :Other Services Line 3
OS4  .                                   :Other Services Line 4
OS5  .                                   :Other Services Line 5
R1   .        Tool run as per tool sketch. :Remark Line 1
R2   .                                   :Remark Line 2
R3   .        This is the first log in hole. :Remark Line 3
R4   .                                   :Remark Line 4
R5   .        Data may be affected by hole rugosity. :Remark Line 5
R6   .                                   :Remark Line 6
R7   .                                   :Remark Line 7
R8   .                                   :Remark Line 8
TCS  .        11 00                      :Time Circulation Stopped
TLAB .                                   :Time Logger At Bottom
NMT  .        NOBARITE                   :HILT Nuclear Mud Type
EPD  .F         8534.000000              :Elevation of Permanent Datum above Mean Sea Level
APD  .F          15.000000               :Elevation of Depth Reference (LMF) above Permanent Datum
#-----------------------------------------------------------------------------
~CURVE INFORMATION
#MNEM.UNIT   API CODE                                  DESCRIPTION
#---- -----  --------                                  -----------------------
DEPT .F                                                :DEPTH (BOREHOLE) {F12.4}
CDF  .LBF                                              :Calibrated Downhole Force {F11.4}
CFTC .HZ                                               :Corrected Far Thermal Counting Rate {F11.4}
CNTC .HZ                                               :Corrected Near Thermal Counting Rate {F11.4}
CTEM .DEGF                                             :Cartridge Temperature {F11.4}
DNPH .CFCF                                             :Delta Thermal Neutron Porosity {F11.4}
DWAL_WALK2.                                            :Dry Weight Fraction Pseudo Aluminum (SpectroLith WALK2 Model) {F11.4}
DWCA_WALK2.                                            :Dry Weight Fraction Calcium (SpectroLith WALK2 Model) {F11.4}
DWFE_WALK2.                                            :Dry Weight Fraction Iron + 0.14 Aluminum (SpectroLith WALK2 Model) {F11.4}
DWGD_WALK2.PPM                                         :Dry Weight Fraction Gadolinium (SpectroLith WALK2 Model) {F11.4}
DWSI_WALK2.                                            :Dry Weight Fraction Silicon (SpectroLith WALK2 Model) {F11.4}
DWSU_WALK2.                                            :Dry Weight Fraction Sulfur (SpectroLith WALK2 Model) {F11.4}
DWTI_WALK2.                                            :Dry Weight Fraction Titanium (SpectroLith WALK2 Model) {F11.4}
ECGR .GAPI                                             :Environmentally Corrected Gamma-Ray {F11.4}
ECST .DEGF                                             :ECS Temperature {F11.4}
ESUF_WALK2.                                            :Elemental Statistical Uncertainty Factor (SpectroLith WALK2 Model) {F11.4}
GDEV .DEG                                              :HGNS Deviation {F11.4}
GR   .GAPI                                             :Gamma-Ray {F11.4}
GR_EDTC.GAPI                                           :EDTC Gamma Ray {F11.4}
GTEM .DEGF                                             :Generalized Borehole Temperature {F11.4}
HGR  .GAPI                                             :HiRes Gamma-Ray {F11.4}
HNPO .CFCF                                             :HiRes Enhanced Thermal Neutron Porosity {F11.4}
HTNP .CFCF                                             :HiRes Thermal Neutron Porosity {F11.4}
NPHI .CFCF                                             :Thermal Neutron Porosity (Ratio Method) {F11.4}
NPOR .CFCF                                             :Enhanced Thermal Neutron Porosity {F11.4}
QCPMT.                                                 :Photomultiplier Tube Quality Control {F11.4}
RHGE_WALK2.G/C3                                        :Matrix Density from Elemental Concentrations (SpectroLith WALK2 Model) {F11.4}
TENS .LBF                                              :Cable Tension {F11.4}
TNPH .CFCF                                             :Thermal Neutron Porosity {F11.4}
WANH_WALK2.                                            :Dry Weight Fraction Anhydrite/Gypsum (SpectroLith WALK2 Model) {F11.4}
WCAR_WALK2.                                            :Dry Weight Fraction Carbonate (SpectroLith WALK2 Model) {F11.4}
WCLA_WALK2.                                            :Dry Weight Fraction Clay (SpectroLith WALK2 Model) {F11.4}
WCOA_WALK2.                                            :Dry Weight Fraction Coal (SpectroLith WALK2 Model) {F11.4}
WEVA_WALK2.                                            :Dry Weight Fraction Salt (SpectroLith WALK2 Model) {F11.4}
WPYR_WALK2.                                            :Dry Weight Fraction Pyrite (SpectroLith WALK2 Model) {F11.4}
WQFM_WALK2.                                            :Dry Weight Fraction Quartz+Feldspar+Mica (QFM) (SpectroLith WALK2 Model) {F11.4}
WSID_WALK2.                                            :Dry Weight Fraction Siderite (SpectroLith WALK2 Model) {F11.4}
#-----------------------------------------------------------------------------
# 
#      DEPT        CDF        CFTC       CNTC       CTEM       DNPH    DWAL_WALK2 DWCA_WALK2 DWFE_WALK2 DWGD_WALK2 DWSI_WALK2 DWSU_WALK2 DWTI_WALK2    ECGR       ECST    ESUF_WALK2    GDEV        GR      GR_EDTC      GTEM       HGR        HNPO       HTNP       NPHI       NPOR      QCPMT    RHGE_WALK2    TENS       TNPH    WANH_WALK2 WCAR_WALK2 WCLA_WALK2 WCOA_WALK2 WEVA_WALK2 WPYR_WALK2 WQFM_WALK2 WSID_WALK2
#
~A  
# ...
   8974.0000  1569.5326    36.6731    32.2875   211.0119     0.0074     0.0497     0.0887     0.0290     1.8510     0.2758     0.0000     0.0035   174.3231    53.0147     0.5739     6.6768   195.9535   150.4172   218.6726   207.0577     0.0640     0.0357     0.0197     0.0463     0.2513     2.7115  2975.0000     0.0364     0.0000     0.1637     0.2519     0.0000     0.0000     0.0000     0.5843     0.0000
   8974.5000  1569.5326    37.9795    32.0291   211.0119     0.0073     0.0522     0.0842     0.0307     1.7465     0.2764     0.0000     0.0032   174.0326    53.0147     0.5708     6.6001   195.6270   147.8029   218.6726   187.0161     0.0422     0.0310     0.0205     0.0473     0.4099     2.7138  2911.0000     0.0312     0.0000     0.1515     0.2741     0.0000     0.0000     0.0000     0.5744     0.0000
   8975.0000  1569.5326    39.0607    30.7242   211.0119     0.0071     0.0548     0.0766     0.0323     1.4625     0.2806     0.0000     0.0029   165.8169    53.0147     0.5735     6.6864   186.3918   145.8695   218.6726   192.9946     0.0511     0.0231     0.0244     0.0278     0.6474     2.7156  2944.0000     0.0234     0.0000     0.1311     0.2966     0.0000     0.0000     0.0000     0.5724     0.0000
   8975.5000  1574.5095    35.8079    29.5540   211.0119     0.0073     0.0596     0.0740     0.0354     3.9336     0.2748     0.0000     0.0026   163.2280    53.0147     0.5859     6.7513   183.4817   141.2988   218.6726   179.3421     0.0726     0.0291     0.0163     0.0196     0.7498     2.7208  2983.0000     0.0290     0.0000     0.1240     0.3390     0.0000     0.0000     0.0000     0.5369     0.0000
   8976.0000  1574.5095    38.1920    29.2917   211.0119     0.0071     0.0609     0.0746     0.0363     5.5741     0.2718     0.0000     0.0023   161.3071    53.0147     0.5925     6.6857   181.3224   134.7910   218.6726   177.7300    -0.0118     0.0206     0.0223     0.0044     0.6992     2.7226  2906.0000     0.0209     0.0000     0.1256     0.3500     0.0000     0.0000     0.0000     0.5244     0.0000
   8976.5000  1574.5095    35.4403    29.7008   211.0119     0.0073     0.0623     0.0778     0.0371     7.3924     0.2656     0.0000     0.0024   167.9749    53.0147     0.5829     6.7393   188.8176   139.0481   218.6726   186.0454     0.0181     0.0309     0.0166     0.0653     0.3148     2.7246  2990.0000     0.0307     0.0000     0.1344     0.3622     0.0000     0.0000     0.0000     0.5034     0.0000
   8977.0000  1574.5095    38.9143    29.0495   211.0119     0.0070     0.0611     0.0697     0.0362     7.5727     0.2773     0.0000     0.0028   169.8554    53.0147     0.5831     6.6951   190.9315   139.1866   218.6726   202.0434     0.0668     0.0185     0.0361     0.0243     0.2116     2.7216  2975.0000     0.0181     0.0000     0.1124     0.3520     0.0000     0.0000     0.0000     0.5356     0.0000
   8977.5000  1579.1311    35.6580    29.7007   211.0119     0.0073     0.0608     0.0682     0.0360     7.7022     0.2796     0.0000     0.0031   167.5454    53.0147     0.5925     6.6152   188.3348   141.2329   218.6726   184.3780     0.0080     0.0302     0.0433     0.0176     0.4264     2.7209  2983.0000     0.0300     0.0000     0.1084     0.3497     0.0000     0.0000     0.0000     0.5419     0.0000
   8978.0000  1579.1311    34.2886    31.1335   211.0119     0.0075     0.0602     0.0683     0.0355     7.8061     0.2807     0.0000     0.0032   165.1331    53.0147     0.6054     6.8502   185.6232   149.2338   218.4331   178.6697     0.0758     0.0408     0.0771     0.0608     0.5039     2.7200  3012.0000     0.0405     0.0000     0.1089     0.3438     0.0000     0.0000     0.0000     0.5473     0.0000
   8978.5000  1579.1311    30.1604    32.3054   211.0119     0.0082     0.0604     0.0774     0.0356     8.9343     0.2697     0.0000     0.0034   174.5815    53.0147     0.6070     6.6548   196.2440   162.1151   218.3133   192.7806     0.0468     0.0646     0.0589     0.0442     0.6318     2.7217  2963.0000     0.0642     0.0000     0.1331     0.3460     0.0000     0.0000     0.0000     0.5208     0.0000
   8979.0000  1574.5095    34.7608    33.1224   211.0119     0.0077     0.0581     0.0887     0.0343    11.0494     0.2605     0.0000     0.0031   194.5154    53.0147     0.5979     6.5707   218.6512   174.6256   218.3133   215.7072     0.0562     0.0475     0.0651     0.0538     0.7298     2.7213  2984.0000     0.0466     0.0000     0.1636     0.3259     0.0000     0.0000     0.0000     0.5105     0.0000
   8979.5000  1579.1311    34.7608    34.5553   211.0119     0.0079     0.0561     0.1010     0.0333    13.5087     0.2496     0.0000     0.0025   199.5178    53.0147     0.5787     6.7531   224.2744   164.8084   218.3133   245.1454     0.0717     0.0538     0.0448     0.0565     0.8675     2.7215  2974.0000     0.0524     0.0000     0.1966     0.3081     0.0000     0.0000     0.0000     0.4952     0.0000
   8980.0000  1574.5095    38.0165    34.2948   211.0119     0.0075     0.0526     0.1094     0.0316    13.6433     0.2457     0.0000     0.0011   193.1771    52.6245     0.5608     6.7706   217.1469   153.8502   218.3133   210.2323     0.0419     0.0407     0.0571     0.0303     1.5690     2.7200  2952.0000     0.0392     0.0000     0.2192     0.2770     0.0000     0.0000     0.0000     0.5038     0.0000
   8980.5000  1574.5095    33.8540    34.6856   211.0119     0.0080     0.0538     0.1055     0.0325    11.6477     0.2479     0.0000     0.0008   174.2332    51.8441     0.5533     6.6680   195.8524   143.8927   218.3133   194.8387     0.0046     0.0579     0.0429     0.0542     0.8677     2.7210  2955.0000     0.0569     0.0000     0.2088     0.2878     0.0000     0.0000     0.0000     0.5034     0.0000
   8981.0000  1584.1080    36.3583    34.8581   211.0119     0.0077     0.0525     0.0960     0.0319     8.8772     0.2611     0.0000     0.0005   169.1399    51.8441     0.5416     6.7927   190.1272   141.5388   218.3133   181.8440    -0.0066     0.0481     0.0461     0.0492     1.0137     2.7182  2977.0000     0.0473     0.0000     0.1833     0.2767     0.0000     0.0000     0.0000     0.5400     0.0000
   8981.5000  1584.1080    36.1412    34.8040   211.0119     0.0077     0.0545     0.0805     0.0327     7.1122     0.2760     0.0000     0.0014   164.1391    52.6245     0.5428     6.6841   184.5058   138.6160   218.3133   193.3514     0.2868     0.0481     0.0340     0.0532     1.0733     2.7171  3009.0000     0.0479     0.0000     0.1417     0.2939     0.0000     0.0000     0.0000     0.5644     0.0000
   8982.0000  1579.1311    37.0098    33.5014   211.0119     0.0075     0.0561     0.0654     0.0335     7.2225     0.2910     0.0000     0.0019   170.5755    53.0147     0.5571     6.7589   191.7408   140.4171   218.3133   178.1250     0.0482     0.0398     0.0372     0.0334     0.4747     2.7159  2993.0000     0.0397     0.0000     0.1011     0.3077     0.0000     0.0000     0.0000     0.5913     0.0000
   8982.5000  1579.1311    36.1019    33.4075   211.0119     0.0076     0.0593     0.0665     0.0351     7.0990     0.2843     0.0000     0.0029   167.6692    53.0147     0.5522     6.7580   188.4739   146.3878   218.3133   202.9709     0.0387     0.0435     0.0251     0.0303     0.2027     2.7190  2928.0000     0.0426     0.0000     0.1038     0.3362     0.0000     0.0000     0.0000     0.5600     0.0000
   8983.0000  1584.1080    39.9858    34.1231   211.0119     0.0073     0.0591     0.0826     0.0350     7.3535     0.2659     0.0000     0.0028   166.0022    53.0147     0.5420     6.6492   186.6001   153.7257   218.3133   183.4240     0.0734     0.0334     0.0278     0.0655     0.0957     2.7215  3052.0000     0.0323     0.0000     0.1471     0.3345     0.0000     0.0000     0.0000     0.5184     0.0000
   8983.5000  1584.1080    39.1134    32.9088   211.0119     0.0073     0.0568     0.1044     0.0337     5.6182     0.2444     0.0000     0.0026   157.7411    53.7950     0.5186     6.7661   177.3140   150.4004   218.3133   173.1329     0.0067     0.0316     0.0338     0.0251     0.5869     2.7228  3023.0000     0.0308     0.0000     0.2058     0.3141     0.0000     0.0000     0.0000     0.4800     0.0000
