~VERSION INFORMATION
VERS.           1.2   :CWLS Log ASCII Standard - VERSION 1.2
WRAP.           NO    :One Line per depth step
PROD.  Schlumberger   :LAS Producer
PROG.  DLIS to ASCII 17C0-152                          :LAS Program name and version
CREA.        2010/11/19 02:18                          :LAS Creation date {YYYY/MM/DD hh:mm}
DLIS_CREA.  2010-Nov-18 22:49                          :DLIS Creation date and time {YYYY-MMM-DD hh:mm}
SOURCE.     d476e3e6-e07a-4d20-b90c-cbd099bd9e21       :DLIS File Name
#--------------------------------------------------
~WELL INFORMATION
#MNEM.UNIT      DATA             DESCRIPTION
#---- ------ --------------   -----------------------------
STRT .F      8456.0000       :START DEPTH     
STOP .F      9128.5000       :STOP DEPTH     
STEP .F       0.5000         :STEP       
NULL .          -999.25      :NULL VALUE
COMP .                 COMPANY:  Wellstar Corporation               
WELL .                    WELL:  Silver Spur Minerals 35-2          
FLD  .                   FIELD:  Wildcat                            
LOC  .                LOCATION:  Sec.35, T8N, R78W                  
CNTY .                  COUNTY:  Jackson                            
STAT .                   STATE:  Colorado                           
CTRY .                 COUNTRY:                                     
SRVC .         SERVICE COMPANY:  Schlumberger                       
API  .              API NUMBER:  05-057-06490-0100                  
DATE .                LOG DATE:  18-Nov-2010
UWI  .          UNIQUE WELL ID:                                     
#-----------------------------------------------------------------------------
~PARAMETER INFORMATION
#MNEM.UNIT    VALUE                      DESCRIPTION
#---- -----   --------------------       ------------------------
CN   .        Wellstar Corporation       :Company Name
WN   .        Silver Spur Minerals 35-2  :Well Name
FN   .        Wildcat                    :Field Name
FL   .        Sec.35  T8N  R78W          :Field Location
FL1  .        SHL  1996' FSL X 655' FEL NESE :Field Location Line 1
COUN .        Jackson                    :County or Rig Name
STAT .        Colorado                   :State or Province
NATI .                                   :Nation
DATE .        18-Nov-2010                :Date as Month-Day-Year
APIN .        05-057-06490-0100          :API Serial Number
SECT .        35                         :Section
TOWN .        8N                         :Township
RANG .        78W                        :Range
DMF  .        Kelly Bushing              :Drilling Measured From
LMF  .        Kelly Bushing              :Log Measured From
PDAT .        Ground Level               :Permanent Datum
ENGI .        Philip Grant               :Engineer's Name
WITN .        Jacky Burch                :Witness's Name
LATI .                                   :Latitude
LONG .                                   :Longitude
LUL  .        Fort Morgan  CO            :Logging Unit Location
LUN  .              3021                 :Logging Unit Number
RUN  .        1                          :Run Number
SON  .        BE0K-00102                 :Service Order Number
BHT  .DEGF     211.99986                 :Bottom Hole Temperature (used in calculations)
BS   .IN         6.12500                 :Bit Size
DFD  .LB/G       8.80000                 :Drilling Fluid Density
DFV  .S         28.00000                 :Drilling Fluid Viscosity
DFL  .                                   :Drilling Fluid Loss
RMFS .OHMM       0.64200                 :Resistivity of Mud Filtrate Sample
EKB  .F       8549.00000                 :Elevation of Kelly Bushing
EGL  .F       8534.00000                 :Elevation of Ground Level
BLI  .F       9108.00000                 :Bottom Log Interval
BSAL .PPM     38000.00000                :Borehole Salinity
FLEV .                                   :Fluid Level
MCST .DEGF      83.57200                 :Mud Cake Sample Temperature
MFST .DEGF      83.57200                 :Mud Filtrate Sample Temperature
MRT  .DEGF     217.00000                 :Maximum Recorded Temperature
MST  .DEGF      83.57200                 :Mud Sample Temperature
RMCS .OHMM       1.28400                 :Resistivity of Mud Cake Sample
RMS  .OHMM       0.85600                 :Resistivity of Mud Sample
RW   .OHMM       1.00000                 :Resistivity of Connate Water
TDD  .F       8610.00000                 :Total Depth - Driller
TDL  .F       9116.00000                 :Total Depth - Logger
TLI  .F       8482.00000                 :Top Log Interval
HIDE .        Elemental Capture Spectroscopy :Header Identifier
MATR .        LIME                       :Rock Matrix for Neutron Porosity Corrections
FNUM .           1.00000                 :Form Factor Numerator
FEXP .           2.00000                 :Form Factor Exponent
DFT  .        KCl  Mud                   :Drilling Fluid Type
DFPH .           9.80000                 :Drilling Fluid PH
MCSS .        Calculated                 :Mud Cake Sample Source
MFSS .        Calculated                 :Mud Filtrate Sample Source
MSS  .        AIT bottom nose            :Mud Sample Source
OS1  .        PEx-HRLA                   :Other Services Line 1
OS2  .        MSIP-FMI                   :Other Services Line 2
OS3  .        HNGS                       :Other Services Line 3
OS4  .                                   :Other Services Line 4
OS5  .                                   :Other Services Line 5
R1   .        Tool run as per tool sketch. :Remark Line 1
R2   .                                   :Remark Line 2
R3   .        This is the first log in hole. :Remark Line 3
R4   .                                   :Remark Line 4
R5   .        Data may be affected by hole rugosity. :Remark Line 5
R6   .                                   :Remark Line 6
R7   .        Matrix Limestone 2.71      :Remark Line 7
R8   .                                   :Remark Line 8
TCS  .        11 00                      :Time Circulation Stopped
TLAB .        9 31                       :Time Logger At Bottom
NMT  .        NOBARITE                   :HILT Nuclear Mud Type
EPD  .F         8534.000000              :Elevation of Permanent Datum above Mean Sea Level
APD  .F          15.000000               :Elevation of Depth Reference (LMF) above Permanent Datum
#-----------------------------------------------------------------------------
~CURVE INFORMATION
#MNEM.UNIT   API CODE                                  DESCRIPTION
#---- -----  --------                                  -----------------------
DEPT .F                                                :DEPTH (BOREHOLE) {F12.4}
CDF  .LBF                                              :Calibrated Downhole Force {F11.4}
CFTC .HZ                                               :Corrected Far Thermal Counting Rate {F11.4}
CNTC .HZ                                               :Corrected Near Thermal Counting Rate {F11.4}
CTEM .DEGF                                             :Cartridge Temperature {F11.4}
DNPH .CFCF                                             :Delta Thermal Neutron Porosity {F11.4}
DWAL_WALK2.                                            :Dry Weight Fraction Pseudo Aluminum (SpectroLith WALK2 Model) {F11.4}
DWCA_WALK2.                                            :Dry Weight Fraction Calcium (SpectroLith WALK2 Model) {F11.4}
DWFE_WALK2.                                            :Dry Weight Fraction Iron + 0.14 Aluminum (SpectroLith WALK2 Model) {F11.4}
DWGD_WALK2.PPM                                         :Dry Weight Fraction Gadolinium (SpectroLith WALK2 Model) {F11.4}
DWSI_WALK2.                                            :Dry Weight Fraction Silicon (SpectroLith WALK2 Model) {F11.4}
DWSU_WALK2.                                            :Dry Weight Fraction Sulfur (SpectroLith WALK2 Model) {F11.4}
DWTI_WALK2.                                            :Dry Weight Fraction Titanium (SpectroLith WALK2 Model) {F11.4}
ECGR .GAPI                                             :Environmentally Corrected Gamma-Ray {F11.4}
ECST .DEGF                                             :ECS Temperature {F11.4}
ESUF_WALK2.                                            :Elemental Statistical Uncertainty Factor (SpectroLith WALK2 Model) {F11.4}
GDEV .DEG                                              :HGNS Deviation {F11.4}
GR   .GAPI                                             :Gamma-Ray {F11.4}
GR_EDTC.GAPI                                           :EDTC Gamma Ray {F11.4}
GTEM .DEGF                                             :Generalized Borehole Temperature {F11.4}
HGR  .GAPI                                             :HiRes Gamma-Ray {F11.4}
HNPO .CFCF                                             :HiRes Enhanced Thermal Neutron Porosity {F11.4}
HTNP .CFCF                                             :HiRes Thermal Neutron Porosity {F11.4}
NPHI .CFCF                                             :Thermal Neutron Porosity (Ratio Method) {F11.4}
NPOR .CFCF                                             :Enhanced Thermal Neutron Porosity {F11.4}
QCPMT.                                                 :Photomultiplier Tube Quality Control {F11.4}
RHGE_WALK2.G/C3                                        :Matrix Density from Elemental Concentrations (SpectroLith WALK2 Model) {F11.4}
TENS .LBF                                              :Cable Tension {F11.4}
TNPH .CFCF                                             :Thermal Neutron Porosity {F11.4}
WANH_WALK2.                                            :Dry Weight Fraction Anhydrite/Gypsum (SpectroLith WALK2 Model) {F11.4}
WCAR_WALK2.                                            :Dry Weight Fraction Carbonate (SpectroLith WALK2 Model) {F11.4}
WCLA_WALK2.                                            :Dry Weight Fraction Clay (SpectroLith WALK2 Model) {F11.4}
WCOA_WALK2.                                            :Dry Weight Fraction Coal (SpectroLith WALK2 Model) {F11.4}
WEVA_WALK2.                                            :Dry Weight Fraction Salt (SpectroLith WALK2 Model) {F11.4}
WPYR_WALK2.                                            :Dry Weight Fraction Pyrite (SpectroLith WALK2 Model) {F11.4}
WQFM_WALK2.                                            :Dry Weight Fraction Quartz+Feldspar+Mica (QFM) (SpectroLith WALK2 Model) {F11.4}
WSID_WALK2.                                            :Dry Weight Fraction Siderite (SpectroLith WALK2 Model) {F11.4}
#-----------------------------------------------------------------------------
# 
#      DEPT        CDF        CFTC       CNTC       CTEM       DNPH    DWAL_WALK2 DWCA_WALK2 DWFE_WALK2 DWGD_WALK2 DWSI_WALK2 DWSU_WALK2 DWTI_WALK2    ECGR       ECST    ESUF_WALK2    GDEV        GR      GR_EDTC      GTEM       HGR        HNPO       HTNP       NPHI       NPOR      QCPMT    RHGE_WALK2    TENS       TNPH    WANH_WALK2 WCAR_WALK2 WCLA_WALK2 WCOA_WALK2 WEVA_WALK2 WPYR_WALK2 WQFM_WALK2 WSID_WALK2
#
~A  
# ...
   9026.0000  1452.9286    32.7700    32.1690   222.8708     0.0078     0.0671     0.0723     0.0399     8.5906     0.2634     0.0000     0.0029   160.2656    54.1852     0.5775     7.1580   180.1517   132.8014   226.5774   180.6717     0.0428     0.0515     0.0255     0.0570     0.5916     2.7288  2981.0000     0.0510     0.0000     0.1195     0.4052     0.0000     0.0000     0.0000     0.4753     0.0000
   9026.5000  1447.9515    36.7189    32.5433   222.8708     0.0075     0.0648     0.0693     0.0384     9.2540     0.2711     0.0000     0.0030   164.0252    54.1852     0.5679     7.1682   184.3778   133.6116   226.5774   184.9953     0.0679     0.0376     0.0532     0.0710     0.6449     2.7256  3036.0000     0.0372     0.0000     0.1115     0.3846     0.0000     0.0000     0.0000     0.5039     0.0000
   9027.0000  1447.9515    32.6468    30.6708   222.8708     0.0077     0.0639     0.0549     0.0376     5.7103     0.2897     0.0000     0.0036   161.3788    54.1852     0.5817     7.0765   181.4031   135.6295   226.5774   187.4649     0.0623     0.0451     0.0536     0.0623     0.2639     2.7217  3023.0000     0.0451     0.0000     0.0728     0.3768     0.0000     0.0000     0.0000     0.5504     0.0000
   9027.5000  1457.9055    34.5192    31.1701   222.8708     0.0075     0.0664     0.0332     0.0388     2.4812     0.3110     0.0000     0.0044   163.2151    54.1852     0.6156     7.1557   183.4672   133.3002   226.5774   171.7493     0.0091     0.0397     0.0689     0.0172     0.5288     2.7202  3035.0000     0.0397     0.0000     0.0143     0.3985     0.0000     0.0000     0.0000     0.5872     0.0000
   9028.0000  1452.9286    31.9015    33.3847   222.8708     0.0081     0.0677     0.0055     0.0395     0.0000     0.3411     0.0000     0.0048   163.7303    54.1852     0.6662     7.0905   184.0463   136.8408   226.5774   191.1144     0.0700     0.0602     0.0667     0.0744     0.0094     2.7166  3013.0000     0.0603     0.0000     0.0000     0.4103     0.0000     0.0000     0.0000     0.5897     0.0000
   9028.5000  1447.9515    33.5657    35.0073   222.8708     0.0080     0.0693     0.0044     0.0403     1.2208     0.3396     0.0014     0.0047   167.7248    54.1852     0.6795     7.0803   188.5364   136.7024   226.5774   189.2045     0.0671     0.0595     0.0549     0.0674     0.6997     2.7196  2992.0000     0.0596     0.0000     0.0000     0.4239     0.0000     0.0000     0.0027     0.5735     0.0000
   9029.0000  1452.9286    33.1462    33.1357   222.8708     0.0079     0.0657     0.0179     0.0386     3.6622     0.3298     0.0000     0.0039   165.7553    54.1852     0.6711     7.1659   186.3226   138.2307   226.5774   185.2198     0.0359     0.0534     0.0533     0.0266     0.4248     2.7172  3029.0000     0.0535     0.0000     0.0000     0.3927     0.0000     0.0000     0.0000     0.6073     0.0000
   9029.5000  1452.9286    31.8150    33.5101   222.8708     0.0081     0.0634     0.0397     0.0372     6.4226     0.3085     0.0011     0.0036   160.7797    54.1852     0.6371     7.1282   180.7296   136.9692   226.5774   184.5463     0.0998     0.0613     0.0623     0.0464     0.8586     2.7195  3016.0000     0.0613     0.0000     0.0319     0.3725     0.0000     0.0000     0.0020     0.5937     0.0000
   9030.0000  1452.9286    31.3989    34.6336   222.8708     0.0083     0.0638     0.0501     0.0374     7.5985     0.2959     0.0012     0.0037   156.1194    54.1852     0.6122     7.1470   175.4910   131.4436   226.5774   172.4228     0.1550     0.0685     0.0609     0.1348     0.0145     2.7217  2972.0000     0.0686     0.0000     0.0597     0.3755     0.0000     0.0000     0.0022     0.5626     0.0000
   9030.5000  1452.9286    31.8741    32.2889   222.8708     0.0079     0.0653     0.0522     0.0381     6.1153     0.2908     0.0024     0.0036   156.7851    54.1852     0.5915     7.1155   176.2394   127.8521   226.5774   169.5042     0.0838     0.0552     0.0740     0.0509     0.0000     2.7250  3038.0000     0.0556     0.0000     0.0654     0.3888     0.0000     0.0000     0.0045     0.5413     0.0000
   9031.0000  1452.9286    32.0821    33.1627   222.8708     0.0080     0.0625     0.0552     0.0371     5.2999     0.2917     0.0000     0.0027   161.4283    54.1852     0.5853     7.0618   181.4587   124.9585   226.5774   186.7914     0.0660     0.0581     0.0640     0.0272     0.0827     2.7208  2985.0000     0.0585     0.0000     0.0735     0.3643     0.0000     0.0000     0.0000     0.5622     0.0000
   9031.5000  1452.9286    31.8710    34.6600   222.8708     0.0082     0.0560     0.0595     0.0334     4.4778     0.2980     0.0000     0.0020   169.2711    54.1852     0.5793     7.1605   190.2746   130.4920   226.5774   187.7456     0.0327     0.0659     0.0752     0.1270     1.1635     2.7147  2970.0000     0.0663     0.0000     0.0851     0.3071     0.0000     0.0000     0.0000     0.6077     0.0000
   9032.0000  1457.9055    31.3993    34.4104   222.8708     0.0083     0.0518     0.0691     0.0310     6.3800     0.2943     0.0000     0.0017   170.7358    54.4778     0.5698     7.1366   191.9210   139.9379   226.5774   196.1044     0.0249     0.0672     0.0759     0.0360     1.1844     2.7119  3115.0000     0.0676     0.0000     0.1107     0.2705     0.0000     0.0000     0.0000     0.6188     0.0000
   9032.5000  1457.9055    30.1510    33.7862   222.8708     0.0084     0.0563     0.0692     0.0335     7.0434     0.2864     0.0000     0.0022   173.1980    55.3557     0.5559     7.1436   194.6888   155.3122   226.5774   191.7306     0.1131     0.0710     0.0736     0.0721     1.3766     2.7165  3026.0000     0.0714     0.0000     0.1111     0.3095     0.0000     0.0000     0.0000     0.5794     0.0000
   9033.0000  1457.9055    30.3633    35.0888   222.8708     0.0085     0.0627     0.0615     0.0374     8.4723     0.2839     0.0000     0.0023   178.1772    54.1852     0.5576     7.1400   200.2859   162.5463   226.5774   196.2863     0.2235     0.0761     0.0723     0.0985     0.3627     2.7224  2986.0000     0.0765     0.0000     0.0904     0.3658     0.0000     0.0000     0.0000     0.5438     0.0000
   9033.5000  1457.9055    30.5714    33.3411   222.8708     0.0082     0.0709     0.0480     0.0418     8.4763     0.2854     0.0033     0.0026   185.4296    54.1852     0.5937     7.1247   208.4381   168.1965   226.5774   213.2172     0.0127     0.0666     0.0915     0.0506     0.1077     2.7322  3044.0000     0.0669     0.0000     0.0541     0.4380     0.0000     0.0000     0.0062     0.5018     0.0000
   9034.0000  1457.9055    30.3604    35.4628   222.8708     0.0085     0.0709     0.0399     0.0415     8.7245     0.2951     0.0058     0.0026   181.0186    54.1852     0.6211     7.0673   203.4798   155.0778   226.4576   215.6118     0.0893     0.0780     0.0674     0.0931     0.0000     2.7332  3029.0000     0.0784     0.0000     0.0323     0.4382     0.0000     0.0000     0.0109     0.5186     0.0000
   9034.5000  1452.9286    34.1044    34.9635   222.8708     0.0080     0.0691     0.0432     0.0406     9.8379     0.2944     0.0031     0.0029   169.0620    54.1852     0.6183     7.2153   190.0396   146.9757   226.3379   182.1057     0.0195     0.0569     0.0685     0.0764     0.2161     2.7289  3005.0000     0.0569     0.0000     0.0411     0.4220     0.0000     0.0000     0.0059     0.5310     0.0000
   9035.0000  1452.9286    33.0642    33.5904   222.8708     0.0079     0.0628     0.0504     0.0373    12.3943     0.2968     0.0000     0.0027   156.6672    54.1852     0.6241     7.1729   176.1069   133.6060   226.3978   172.4228     0.0553     0.0557     0.0216     0.0078     0.9722     2.7203  3023.0000     0.0558     0.0000     0.0605     0.3666     0.0000     0.0000     0.0000     0.5729     0.0000
   9035.5000  1457.9055    37.0202    32.9384   222.8708     0.0075     0.0623     0.0574     0.0370    14.3599     0.2895     0.0000     0.0026   159.2323    54.1852     0.6272     6.9418   178.9902   136.6671   226.2181   174.3960     0.0336     0.0376     0.0536     0.0597     1.7434     2.7210  3009.0000     0.0376     0.0000     0.0794     0.3623     0.0000     0.0000     0.0000     0.5583     0.0000
