~VERSION INFORMATION
VERS.           1.2   :CWLS Log ASCII Standard - VERSION 1.2
WRAP.           NO    :One Line per depth step
PROD.  Schlumberger   :LAS Producer
PROG.  DLIS to ASCII 17C0-152                          :LAS Program name and version
CREA.        2010/11/19 02:18                          :LAS Creation date {YYYY/MM/DD hh:mm}
DLIS_CREA.  2010-Nov-18 21:51                          :DLIS Creation date and time {YYYY-MMM-DD hh:mm}
SOURCE.     c799ad9c-fb3a-46c4-856c-9f94c6b0213d       :DLIS File Name
#--------------------------------------------------
~WELL INFORMATION
#MNEM.UNIT      DATA             DESCRIPTION
#---- ------ --------------   -----------------------------
STRT .F      8904.0000       :START DEPTH     
STOP .F      9132.5000       :STOP DEPTH     
STEP .F       0.5000         :STEP       
NULL .          -999.25      :NULL VALUE
COMP .                 COMPANY:  Wellstar Corporation               
WELL .                    WELL:  Silver Spur Minerals 35-2          
FLD  .                   FIELD:  Wildcat                            
LOC  .                LOCATION:  Sec.35, T8N, R78W                  
CNTY .                  COUNTY:  Jackson                            
STAT .                   STATE:  Colorado                           
CTRY .                 COUNTRY:                                     
SRVC .         SERVICE COMPANY:  Schlumberger                       
API  .              API NUMBER:  05-057-06490-0100                  
DATE .                LOG DATE:  18-Nov-2010
UWI  .          UNIQUE WELL ID:                                     
#-----------------------------------------------------------------------------
~PARAMETER INFORMATION
#MNEM.UNIT    VALUE                      DESCRIPTION
#---- -----   --------------------       ------------------------
CN   .        Wellstar Corporation       :Company Name
WN   .        Silver Spur Minerals 35-2  :Well Name
FN   .        Wildcat                    :Field Name
FL   .        Sec.35  T8N  R78W          :Field Location
FL1  .        SHL  1996' FSL X 655' FEL NESE :Field Location Line 1
COUN .        Jackson                    :County or Rig Name
STAT .        Colorado                   :State or Province
NATI .                                   :Nation
DATE .        18-Nov-2010                :Date as Month-Day-Year
APIN .        05-057-06490-0100          :API Serial Number
SECT .        35                         :Section
TOWN .        8N                         :Township
RANG .        78W                        :Range
DMF  .        Kelly Bushing              :Drilling Measured From
LMF  .        Kelly Bushing              :Log Measured From
PDAT .        Ground Level               :Permanent Datum
ENGI .        Philip Grant               :Engineer's Name
WITN .        Jacky Burch                :Witness's Name
LATI .                                   :Latitude
LONG .                                   :Longitude
LUL  .        Fort Morgan  CO            :Logging Unit Location
LUN  .              3021                 :Logging Unit Number
RUN  .        1                          :Run Number
SON  .        BE0K-00102                 :Service Order Number
BHT  .DEGF     211.99986                 :Bottom Hole Temperature (used in calculations)
BS   .IN         6.12500                 :Bit Size
DFD  .LB/G       8.80000                 :Drilling Fluid Density
DFV  .S         28.00000                 :Drilling Fluid Viscosity
DFL  .                                   :Drilling Fluid Loss
RMFS .OHMM       0.64200                 :Resistivity of Mud Filtrate Sample
EKB  .F       8549.00000                 :Elevation of Kelly Bushing
EGL  .F       8534.00000                 :Elevation of Ground Level
BLI  .F       9108.00000                 :Bottom Log Interval
BSAL .PPM     38000.00000                :Borehole Salinity
FLEV .                                   :Fluid Level
MCST .DEGF      83.57200                 :Mud Cake Sample Temperature
MFST .DEGF      83.57200                 :Mud Filtrate Sample Temperature
MRT  .DEGF     217.00000                 :Maximum Recorded Temperature
MST  .DEGF      83.57200                 :Mud Sample Temperature
RMCS .OHMM       1.28400                 :Resistivity of Mud Cake Sample
RMS  .OHMM       0.85600                 :Resistivity of Mud Sample
RW   .OHMM       1.00000                 :Resistivity of Connate Water
TDD  .F       8610.00000                 :Total Depth - Driller
TDL  .F       9116.00000                 :Total Depth - Logger
TLI  .F       8482.00000                 :Top Log Interval
HIDE .        Elemental Capture Spectroscopy :Header Identifier
MATR .        LIME                       :Rock Matrix for Neutron Porosity Corrections
FNUM .           1.00000                 :Form Factor Numerator
FEXP .           2.00000                 :Form Factor Exponent
DFT  .        KCl  Mud                   :Drilling Fluid Type
DFPH .           9.80000                 :Drilling Fluid PH
MCSS .        Calculated                 :Mud Cake Sample Source
MFSS .        Calculated                 :Mud Filtrate Sample Source
MSS  .        AIT bottom nose            :Mud Sample Source
OS1  .        None                       :Other Services Line 1
OS2  .                                   :Other Services Line 2
OS3  .                                   :Other Services Line 3
OS4  .                                   :Other Services Line 4
OS5  .                                   :Other Services Line 5
R1   .        Tool run as per tool sketch. :Remark Line 1
R2   .                                   :Remark Line 2
R3   .        This is the first log in hole. :Remark Line 3
R4   .                                   :Remark Line 4
R5   .        Data may be affected by hole rugosity. :Remark Line 5
R6   .                                   :Remark Line 6
R7   .                                   :Remark Line 7
R8   .                                   :Remark Line 8
TCS  .        11 00                      :Time Circulation Stopped
TLAB .                                   :Time Logger At Bottom
NMT  .        NOBARITE                   :HILT Nuclear Mud Type
EPD  .F         8534.000000              :Elevation of Permanent Datum above Mean Sea Level
APD  .F          15.000000               :Elevation of Depth Reference (LMF) above Permanent Datum
#-----------------------------------------------------------------------------
~CURVE INFORMATION
#MNEM.UNIT   API CODE                                  DESCRIPTION
#---- -----  --------                                  -----------------------
DEPT .F                                                :DEPTH (BOREHOLE) {F12.4}
CDF  .LBF                                              :Calibrated Downhole Force {F11.4}
CFTC .HZ                                               :Corrected Far Thermal Counting Rate {F11.4}
CNTC .HZ                                               :Corrected Near Thermal Counting Rate {F11.4}
CTEM .DEGF                                             :Cartridge Temperature {F11.4}
DNPH .CFCF                                             :Delta Thermal Neutron Porosity {F11.4}
DWAL_WALK2.                                            :Dry Weight Fraction Pseudo Aluminum (SpectroLith WALK2 Model) {F11.4}
DWCA_WALK2.                                            :Dry Weight Fraction Calcium (SpectroLith WALK2 Model) {F11.4}
DWFE_WALK2.                                            :Dry Weight Fraction Iron + 0.14 Aluminum (SpectroLith WALK2 Model) {F11.4}
DWGD_WALK2.PPM                                         :Dry Weight Fraction Gadolinium (SpectroLith WALK2 Model) {F11.4}
DWSI_WALK2.                                            :Dry Weight Fraction Silicon (SpectroLith WALK2 Model) {F11.4}
DWSU_WALK2.                                            :Dry Weight Fraction Sulfur (SpectroLith WALK2 Model) {F11.4}
DWTI_WALK2.                                            :Dry Weight Fraction Titanium (SpectroLith WALK2 Model) {F11.4}
ECGR .GAPI                                             :Environmentally Corrected Gamma-Ray {F11.4}
ECST .DEGF                                             :ECS Temperature {F11.4}
ESUF_WALK2.                                            :Elemental Statistical Uncertainty Factor (SpectroLith WALK2 Model) {F11.4}
GDEV .DEG                                              :HGNS Deviation {F11.4}
GR   .GAPI                                             :Gamma-Ray {F11.4}
GR_EDTC.GAPI                                           :EDTC Gamma Ray {F11.4}
GTEM .DEGF                                             :Generalized Borehole Temperature {F11.4}
HGR  .GAPI                                             :HiRes Gamma-Ray {F11.4}
HNPO .CFCF                                             :HiRes Enhanced Thermal Neutron Porosity {F11.4}
HTNP .CFCF                                             :HiRes Thermal Neutron Porosity {F11.4}
NPHI .CFCF                                             :Thermal Neutron Porosity (Ratio Method) {F11.4}
NPOR .CFCF                                             :Enhanced Thermal Neutron Porosity {F11.4}
QCPMT.                                                 :Photomultiplier Tube Quality Control {F11.4}
RHGE_WALK2.G/C3                                        :Matrix Density from Elemental Concentrations (SpectroLith WALK2 Model) {F11.4}
TENS .LBF                                              :Cable Tension {F11.4}
TNPH .CFCF                                             :Thermal Neutron Porosity {F11.4}
WANH_WALK2.                                            :Dry Weight Fraction Anhydrite/Gypsum (SpectroLith WALK2 Model) {F11.4}
WCAR_WALK2.                                            :Dry Weight Fraction Carbonate (SpectroLith WALK2 Model) {F11.4}
WCLA_WALK2.                                            :Dry Weight Fraction Clay (SpectroLith WALK2 Model) {F11.4}
WCOA_WALK2.                                            :Dry Weight Fraction Coal (SpectroLith WALK2 Model) {F11.4}
WEVA_WALK2.                                            :Dry Weight Fraction Salt (SpectroLith WALK2 Model) {F11.4}
WPYR_WALK2.                                            :Dry Weight Fraction Pyrite (SpectroLith WALK2 Model) {F11.4}
WQFM_WALK2.                                            :Dry Weight Fraction Quartz+Feldspar+Mica (QFM) (SpectroLith WALK2 Model) {F11.4}
WSID_WALK2.                                            :Dry Weight Fraction Siderite (SpectroLith WALK2 Model) {F11.4}
#-----------------------------------------------------------------------------
# 
#      DEPT        CDF        CFTC       CNTC       CTEM       DNPH    DWAL_WALK2 DWCA_WALK2 DWFE_WALK2 DWGD_WALK2 DWSI_WALK2 DWSU_WALK2 DWTI_WALK2    ECGR       ECST    ESUF_WALK2    GDEV        GR      GR_EDTC      GTEM       HGR        HNPO       HTNP       NPHI       NPOR      QCPMT    RHGE_WALK2    TENS       TNPH    WANH_WALK2 WCAR_WALK2 WCLA_WALK2 WCOA_WALK2 WEVA_WALK2 WPYR_WALK2 WQFM_WALK2 WSID_WALK2
#
~A  
   8904.0000  1496.6550    36.5949    34.1293   216.9414     0.0076     0.0431     0.2494     0.0236     1.7628     0.1013     0.0165     0.0013   189.0705    53.0147     0.4414     5.9114   212.5308   182.5344   220.4692   214.1716     0.0208     0.0410     0.0419     0.0349     0.2223     2.7483  3021.0000     0.0436     0.0000     0.5960     0.1942     0.0000     0.0000     0.0308     0.1790     0.0000
   8904.5000  1496.6550    35.9436    34.1293   216.9414     0.0077     0.0406     0.2467     0.0223     0.1458     0.1089     0.0142     0.0014   175.9491    53.0147     0.4445     5.9114   197.7813   165.6919   220.4692   198.4691     0.0622     0.0414     0.0520     0.0633     0.3670     2.7428  2999.0000     0.0460     0.0000     0.5886     0.1714     0.0000     0.0000     0.0266     0.2133     0.0000
   8905.0000  1496.6550    35.9436    34.5200   216.9414     0.0077     0.0406     0.2433     0.0222     0.0000     0.1128     0.0141     0.0016   172.8236    53.0147     0.4394     5.9114   194.2679   168.8958   220.4692   180.8831     0.0151     0.0467     0.0654     0.0625     0.0412     2.7419  2916.0000     0.0475     0.0000     0.5796     0.1720     0.0000     0.0000     0.0263     0.2221     0.0000
   8905.5000  1496.6550    34.9395    34.9109   216.9414     0.0079     0.0384     0.2451     0.0216     1.1833     0.1139     0.0087     0.0017   176.2460    53.0147     0.4391     5.9114   198.1149   166.1247   220.4692   204.8958     0.0561     0.0536     0.0695     0.0483     0.3360     2.7347  2960.0000     0.0531     0.0000     0.5844     0.1528     0.0000     0.0000     0.0162     0.2465     0.0000
   8906.0000  1496.6550    35.1644    36.4213   216.9414     0.0080     0.0392     0.2442     0.0221     2.3849     0.1136     0.0083     0.0018   179.9791    53.0147     0.4343     5.9114   202.3114   172.9774   220.4692   209.6519     0.0202     0.0594     0.0639     0.0513     0.2613     2.7350  3005.0000     0.0583     0.0000     0.5819     0.1599     0.0000     0.0000     0.0155     0.2427     0.0000
   8906.5000  1491.6781    32.5596    35.4913   216.9414     0.0082     0.0391     0.2466     0.0224     3.9288     0.1108     0.0056     0.0018   170.6026    53.0147     0.4265     5.9114   191.7713   160.0843   220.4692   192.9794     0.1030     0.0665     0.0471     0.0541     0.0054     2.7327  2968.0000     0.0665     0.0000     0.5883     0.1584     0.0000     0.0000     0.0104     0.2429     0.0000
   8907.0000  1491.6781    35.1656    34.9702   216.7695     0.0079     0.0393     0.2562     0.0228     6.1952     0.0987     0.0032     0.0019   159.3483    53.0147     0.4236     5.9114   179.1206   146.2434   220.4692   173.1033     0.0215     0.0518     0.0438     0.0333     0.0183     2.7325  2930.0000     0.0524     0.0000     0.6143     0.1608     0.0000     0.0000     0.0060     0.2189     0.0000
   8907.5000  1496.6550    33.2013    33.4074   215.8708     0.0079     0.0371     0.2660     0.0220     8.2115     0.0909     0.0015     0.0012   150.0500    53.0147     0.4120     5.9114   168.6685   135.4570   220.4692   171.9020     0.1054     0.0535     0.0400     0.0973     0.4661     2.7305  2982.0000     0.0544     0.0000     0.6405     0.1413     0.0000     0.0000     0.0028     0.2153     0.0000
   8908.0000  1501.6321    37.3027    32.9346   215.7061     0.0075     0.0355     0.2719     0.0209     8.1809     0.0870     0.0029     0.0009   145.8979    53.0147     0.4147     5.9518   164.0013   128.6884   220.4692   162.1175     0.0068     0.0364     0.0625     0.0352     0.5377     2.7313  2988.0000     0.0366     0.0000     0.6563     0.1272     0.0000     0.0000     0.0054     0.2111     0.0000
   8908.5000  1501.6321    34.6927    33.3777   215.1296     0.0077     0.0338     0.2736     0.0193     5.7700     0.0886     0.0075     0.0007   141.7835    53.0147     0.4225     5.9570   159.3763   126.3047   220.4692   158.4922     0.0318     0.0475     0.0623     0.0696     0.1094     2.7340  2970.0000     0.0479     0.0000     0.6610     0.1119     0.0000     0.0000     0.0140     0.2132     0.0000
   8909.0000  1501.6321    35.7778    34.6799   214.9649     0.0078     0.0310     0.2754     0.0174     3.5119     0.0918     0.0076     0.0013   135.8846    53.0147     0.4386     5.9858   152.7455   127.0787   220.4692   157.5480     0.0348     0.0487     0.0530     0.0449     0.0392     2.7308  2962.0000     0.0488     0.0000     0.6657     0.0875     0.0000     0.0000     0.0143     0.2326     0.0000
   8909.5000  1501.6321    35.3237    33.6208   214.9649     0.0077     0.0285     0.2737     0.0158     2.2800     0.0982     0.0065     0.0017   132.8132    52.2343     0.4402     5.9788   149.2930   129.0171   220.4692   142.1338     0.0043     0.0461     0.0445     0.0123     0.3214     2.7264  2967.0000     0.0464     0.0000     0.6611     0.0656     0.0000     0.0000     0.0121     0.2611     0.0000
   8910.0000  1501.6321    33.9839    33.9945   214.9649     0.0079     0.0277     0.2647     0.0159     3.5073     0.1096     0.0018     0.0021   130.5138    52.2343     0.4239     5.9186   146.7083   129.8858   220.4692   148.2075     0.0394     0.0527     0.0230     0.0543     0.5865     2.7193  2993.0000     0.0534     0.0000     0.6371     0.0584     0.0000     0.0000     0.0033     0.3012     0.0000
   8910.5000  1501.6321    36.8096    32.9041   214.9649     0.0075     0.0303     0.2515     0.0171     3.7236     0.1207     0.0050     0.0020   133.7793    53.0147     0.4333     6.0154   150.3790   126.3417   220.4692   149.1252     0.0088     0.0384     0.0451     0.0702     0.1745     2.7230  2939.0000     0.0382     0.0000     0.6015     0.0816     0.0000     0.0000     0.0093     0.3077     0.0000
   8911.0000  1496.6550    33.1734    31.2354   214.9649     0.0077     0.0313     0.2385     0.0179     4.7137     0.1339     0.0035     0.0018   136.0019    53.0147     0.4593     6.0369   152.8773   125.2340   220.4692   153.3293     0.0325     0.0456     0.0271     0.0419     0.0555     2.7207  2953.0000     0.0453     0.0000     0.5665     0.0899     0.0000     0.0000     0.0065     0.3370     0.0000
   8911.5000  1501.6321    35.3814    29.6729   214.9649     0.0073     0.0327     0.2287     0.0180     3.8911     0.1435     0.0098     0.0017   145.4033    52.2343     0.4982     5.9796   163.4453   128.2744   220.4692   156.5403     0.0864     0.0310     0.0300     0.0292     0.0047     2.7265  2958.0000     0.0308     0.0000     0.5403     0.1026     0.0000     0.0000     0.0183     0.3389     0.0000
   8912.0000  1501.6321    36.8441    31.1711   214.9649     0.0073     0.0322     0.2292     0.0178     3.5091     0.1438     0.0095     0.0015   162.2706    52.4294     0.5000     6.0262   182.4055   147.1114   220.4692   181.3950     0.0661     0.0322     0.0188     0.0237     0.0000     2.7259  2930.0000     0.0317     0.0000     0.5415     0.0981     0.0000     0.0000     0.0178     0.3426     0.0000
   8912.5000  1501.6321    37.4469    30.1729   214.9649     0.0072     0.0360     0.2341     0.0191     1.9964     0.1323     0.0168     0.0015   179.5090    52.6245     0.4901     6.0590   201.7829   164.4192   220.4692   209.7376     0.0572     0.0267     0.0281     0.0529     0.0000     2.7378  2885.0000     0.0262     0.0000     0.5546     0.1310     0.0000     0.0000     0.0315     0.2829     0.0000
   8913.0000  1501.6321    37.3640    30.9909   214.9649     0.0073     0.0355     0.2389     0.0194     1.2042     0.1269     0.0138     0.0010   189.2287    51.8441     0.4561     6.0147   212.7086   174.9155   220.4692   213.8926     0.0492     0.0292     0.0244     0.0078     0.1509     2.7356  2968.0000     0.0294     0.0000     0.5676     0.1272     0.0000     0.0000     0.0258     0.2794     0.0000
   8913.5000  1506.2535    35.4632    30.0549   214.9649     0.0073     0.0360     0.2360     0.0202     1.1434     0.1289     0.0098     0.0011   187.6965    53.0147     0.4507     6.0239   210.9863   174.0657   220.4692   214.4960     0.0119     0.0310     0.0290     0.0530     0.0144     2.7320  3000.0000     0.0320     0.0000     0.5599     0.1316     0.0000     0.0000     0.0184     0.2901     0.0000
