~VERSION INFORMATION
VERS.           1.2   :CWLS Log ASCII Standard - VERSION 1.2
WRAP.           NO    :One Line per depth step
PROD.  Schlumberger   :LAS Producer
PROG.  DLIS to ASCII 17C0-152                          :LAS Program name and version
CREA.        2010/11/19 02:18                          :LAS Creation date {YYYY/MM/DD hh:mm}
DLIS_CREA.  2010-Nov-18 22:49                          :DLIS Creation date and time {YYYY-MMM-DD hh:mm}
SOURCE.     d476e3e6-e07a-4d20-b90c-cbd099bd9e21       :DLIS File Name
#--------------------------------------------------
~WELL INFORMATION
#MNEM.UNIT      DATA             DESCRIPTION
#---- ------ --------------   -----------------------------
STRT .F      8456.0000       :START DEPTH     
STOP .F      9128.5000       :STOP DEPTH     
STEP .F       0.5000         :STEP       
NULL .          -999.25      :NULL VALUE
COMP .                 COMPANY:  Wellstar Corporation               
WELL .                    WELL:  Silver Spur Minerals 35-2          
FLD  .                   FIELD:  Wildcat                            
LOC  .                LOCATION:  Sec.35, T8N, R78W                  
CNTY .                  COUNTY:  Jackson                            
STAT .                   STATE:  Colorado                           
CTRY .                 COUNTRY:                                     
SRVC .         SERVICE COMPANY:  Schlumberger                       
API  .              API NUMBER:  05-057-06490-0100                  
DATE .                LOG DATE:  18-Nov-2010
UWI  .          UNIQUE WELL ID:                                     
#-----------------------------------------------------------------------------
~PARAMETER INFORMATION
#MNEM.UNIT    VALUE                      DESCRIPTION
#---- -----   --------------------       ------------------------
CN   .        Wellstar Corporation       :Company Name
WN   .        Silver Spur Minerals 35-2  :Well Name
FN   .        Wildcat                    :Field Name
FL   .        Sec.35  T8N  R78W          :Field Location
FL1  .        SHL  1996' FSL X 655' FEL NESE :Field Location Line 1
COUN .        Jackson                    :County or Rig Name
STAT .        Colorado                   :State or Province
NATI .                                   :Nation
DATE .        18-Nov-2010                :Date as Month-Day-Year
APIN .        05-057-06490-0100          :API Serial Number
SECT .        35                         :Section
TOWN .        8N                         :Township
RANG .        78W                        :Range
DMF  .        Kelly Bushing              :Drilling Measured From
LMF  .        Kelly Bushing              :Log Measured From
PDAT .        Ground Level               :Permanent Datum
ENGI .        Philip Grant               :Engineer's Name
WITN .        Jacky Burch                :Witness's Name
LATI .                                   :Latitude
LONG .                                   :Longitude
LUL  .        Fort Morgan  CO            :Logging Unit Location
LUN  .              3021                 :Logging Unit Number
RUN  .        1                          :Run Number
SON  .        BE0K-00102                 :Service Order Number
BHT  .DEGF     211.99986                 :Bottom Hole Temperature (used in calculations)
BS   .IN         6.12500                 :Bit Size
DFD  .LB/G       8.80000                 :Drilling Fluid Density
DFV  .S         28.00000                 :Drilling Fluid Viscosity
DFL  .                                   :Drilling Fluid Loss
RMFS .OHMM       0.64200                 :Resistivity of Mud Filtrate Sample
EKB  .F       8549.00000                 :Elevation of Kelly Bushing
EGL  .F       8534.00000                 :Elevation of Ground Level
BLI  .F       9108.00000                 :Bottom Log Interval
BSAL .PPM     38000.00000                :Borehole Salinity
FLEV .                                   :Fluid Level
MCST .DEGF      83.57200                 :Mud Cake Sample Temperature
MFST .DEGF      83.57200                 :Mud Filtrate Sample Temperature
MRT  .DEGF     217.00000                 :Maximum Recorded Temperature
MST  .DEGF      83.57200                 :Mud Sample Temperature
RMCS .OHMM       1.28400                 :Resistivity of Mud Cake Sample
RMS  .OHMM       0.85600                 :Resistivity of Mud Sample
RW   .OHMM       1.00000                 :Resistivity of Connate Water
TDD  .F       8610.00000                 :Total Depth - Driller
TDL  .F       9116.00000                 :Total Depth - Logger
TLI  .F       8482.00000                 :Top Log Interval
HIDE .        Elemental Capture Spectroscopy :Header Identifier
MATR .        LIME                       :Rock Matrix for Neutron Porosity Corrections
FNUM .           1.00000                 :Form Factor Numerator
FEXP .           2.00000                 :Form Factor Exponent
DFT  .        KCl  Mud                   :Drilling Fluid Type
DFPH .           9.80000                 :Drilling Fluid PH
MCSS .        Calculated                 :Mud Cake Sample Source
MFSS .        Calculated                 :Mud Filtrate Sample Source
MSS  .        AIT bottom nose            :Mud Sample Source
OS1  .        PEx-HRLA                   :Other Services Line 1
OS2  .        MSIP-FMI                   :Other Services Line 2
OS3  .        HNGS                       :Other Services Line 3
OS4  .                                   :Other Services Line 4
OS5  .                                   :Other Services Line 5
R1   .        Tool run as per tool sketch. :Remark Line 1
R2   .                                   :Remark Line 2
R3   .        This is the first log in hole. :Remark Line 3
R4   .                                   :Remark Line 4
R5   .        Data may be affected by hole rugosity. :Remark Line 5
R6   .                                   :Remark Line 6
R7   .        Matrix Limestone 2.71      :Remark Line 7
R8   .                                   :Remark Line 8
TCS  .        11 00                      :Time Circulation Stopped
TLAB .        9 31                       :Time Logger At Bottom
NMT  .        NOBARITE                   :HILT Nuclear Mud Type
EPD  .F         8534.000000              :Elevation of Permanent Datum above Mean Sea Level
APD  .F          15.000000               :Elevation of Depth Reference (LMF) above Permanent Datum
#-----------------------------------------------------------------------------
~CURVE INFORMATION
#MNEM.UNIT   API CODE                                  DESCRIPTION
#---- -----  --------                                  -----------------------
DEPT .F                                                :DEPTH (BOREHOLE) {F12.4}
CDF  .LBF                                              :Calibrated Downhole Force {F11.4}
CFTC .HZ                                               :Corrected Far Thermal Counting Rate {F11.4}
CNTC .HZ                                               :Corrected Near Thermal Counting Rate {F11.4}
CTEM .DEGF                                             :Cartridge Temperature {F11.4}
DNPH .CFCF                                             :Delta Thermal Neutron Porosity {F11.4}
DWAL_WALK2.                                            :Dry Weight Fraction Pseudo Aluminum (SpectroLith WALK2 Model) {F11.4}
DWCA_WALK2.                                            :Dry Weight Fraction Calcium (SpectroLith WALK2 Model) {F11.4}
DWFE_WALK2.                                            :Dry Weight Fraction Iron + 0.14 Aluminum (SpectroLith WALK2 Model) {F11.4}
DWGD_WALK2.PPM                                         :Dry Weight Fraction Gadolinium (SpectroLith WALK2 Model) {F11.4}
DWSI_WALK2.                                            :Dry Weight Fraction Silicon (SpectroLith WALK2 Model) {F11.4}
DWSU_WALK2.                                            :Dry Weight Fraction Sulfur (SpectroLith WALK2 Model) {F11.4}
DWTI_WALK2.                                            :Dry Weight Fraction Titanium (SpectroLith WALK2 Model) {F11.4}
ECGR .GAPI                                             :Environmentally Corrected Gamma-Ray {F11.4}
ECST .DEGF                                             :ECS Temperature {F11.4}
ESUF_WALK2.                                            :Elemental Statistical Uncertainty Factor (SpectroLith WALK2 Model) {F11.4}
GDEV .DEG                                              :HGNS Deviation {F11.4}
GR   .GAPI                                             :Gamma-Ray {F11.4}
GR_EDTC.GAPI                                           :EDTC Gamma Ray {F11.4}
GTEM .DEGF                                             :Generalized Borehole Temperature {F11.4}
HGR  .GAPI                                             :HiRes Gamma-Ray {F11.4}
HNPO .CFCF                                             :HiRes Enhanced Thermal Neutron Porosity {F11.4}
HTNP .CFCF                                             :HiRes Thermal Neutron Porosity {F11.4}
NPHI .CFCF                                             :Thermal Neutron Porosity (Ratio Method) {F11.4}
NPOR .CFCF                                             :Enhanced Thermal Neutron Porosity {F11.4}
QCPMT.                                                 :Photomultiplier Tube Quality Control {F11.4}
RHGE_WALK2.G/C3                                        :Matrix Density from Elemental Concentrations (SpectroLith WALK2 Model) {F11.4}
TENS .LBF                                              :Cable Tension {F11.4}
TNPH .CFCF                                             :Thermal Neutron Porosity {F11.4}
WANH_WALK2.                                            :Dry Weight Fraction Anhydrite/Gypsum (SpectroLith WALK2 Model) {F11.4}
WCAR_WALK2.                                            :Dry Weight Fraction Carbonate (SpectroLith WALK2 Model) {F11.4}
WCLA_WALK2.                                            :Dry Weight Fraction Clay (SpectroLith WALK2 Model) {F11.4}
WCOA_WALK2.                                            :Dry Weight Fraction Coal (SpectroLith WALK2 Model) {F11.4}
WEVA_WALK2.                                            :Dry Weight Fraction Salt (SpectroLith WALK2 Model) {F11.4}
WPYR_WALK2.                                            :Dry Weight Fraction Pyrite (SpectroLith WALK2 Model) {F11.4}
WQFM_WALK2.                                            :Dry Weight Fraction Quartz+Feldspar+Mica (QFM) (SpectroLith WALK2 Model) {F11.4}
WSID_WALK2.                                            :Dry Weight Fraction Siderite (SpectroLith WALK2 Model) {F11.4}
#-----------------------------------------------------------------------------
# 
#      DEPT        CDF        CFTC       CNTC       CTEM       DNPH    DWAL_WALK2 DWCA_WALK2 DWFE_WALK2 DWGD_WALK2 DWSI_WALK2 DWSU_WALK2 DWTI_WALK2    ECGR       ECST    ESUF_WALK2    GDEV        GR      GR_EDTC      GTEM       HGR        HNPO       HTNP       NPHI       NPOR      QCPMT    RHGE_WALK2    TENS       TNPH    WANH_WALK2 WCAR_WALK2 WCLA_WALK2 WCOA_WALK2 WEVA_WALK2 WPYR_WALK2 WQFM_WALK2 WSID_WALK2
#
~A  
# ...
   8676.0000  1350.9000    27.5584    32.2893   222.8708     0.0086     0.0380     0.2304     0.0219     2.7876     0.1314     0.0063     0.0009   165.5877    56.5263     0.4688     5.1102   186.1342   161.4143   222.6250   190.3837     0.0584     0.0790     0.0607     0.0694     0.2032     2.7301  2903.0000     0.0795     0.0000     0.5448     0.1486     0.0000     0.0000     0.0118     0.2948     0.0000
   8676.5000  1345.9231    28.8052    31.7787   222.8708     0.0083     0.0407     0.2258     0.0237     5.0479     0.1318     0.0053     0.0010   177.0517    56.5263     0.4442     5.0382   199.0207   160.9326   222.6250   197.6284     0.0947     0.0686     0.0775     0.0971     0.0000     2.7314  2880.0000     0.0691     0.0000     0.5324     0.1725     0.0000     0.0000     0.0099     0.2853     0.0000
   8677.0000  1355.5216    28.3525    31.1697   222.8708     0.0083     0.0400     0.2166     0.0238     6.9391     0.1433     0.0000     0.0015   178.8492    57.6968     0.4355     5.0335   201.0413   165.9523   222.8047   208.7887     0.0498     0.0688     0.0623     0.0725     0.5402     2.7238  2898.0000     0.0686     0.0000     0.5077     0.1663     0.0000     0.0000     0.0000     0.3259     0.0000
   8677.5000  1355.5216    30.9543    31.0395   222.8708     0.0079     0.0435     0.2138     0.0258     8.5082     0.1404     0.0000     0.0020   177.0912    56.9165     0.4420     5.1002   199.0650   155.3885   222.7448   196.4455     0.0904     0.0550     0.1018     0.0702     0.9067     2.7269  2858.0000     0.0542     0.0000     0.5002     0.1971     0.0000     0.0000     0.0000     0.3027     0.0000
   8678.0000  1350.9000    27.7569    32.7329   222.8708     0.0086     0.0441     0.2168     0.0260     7.7991     0.1360     0.0000     0.0025   168.1284    56.5263     0.4722     5.0793   188.9902   155.9423   222.9843   190.8757     0.1040     0.0830     0.0959     0.0680     1.2200     2.7277  2892.0000     0.0806     0.0000     0.5081     0.2028     0.0000     0.0000     0.0000     0.2892     0.0000
   8678.5000  1350.9000    27.1212    32.6007   222.8708     0.0087     0.0446     0.2206     0.0262     5.7695     0.1307     0.0000     0.0026   165.0229    56.5263     0.5060     5.0885   185.4993   155.0393   222.9843   178.8295     0.0381     0.0847     0.1325     0.0801     0.1325     2.7288  2913.0000     0.0841     0.0000     0.5185     0.2068     0.0000     0.0000     0.0000     0.2747     0.0000
   8679.0000  1350.9000    24.0853    34.1555   222.8708     0.0097     0.0441     0.2124     0.0252     2.6029     0.1420     0.0062     0.0022   163.0482    56.5263     0.5298     5.0700   183.2796   158.9266   222.9843   186.2994     0.0749     0.1181     0.0856     0.1023     0.0000     2.7328  2865.0000     0.1183     0.0000     0.4963     0.2022     0.0000     0.0000     0.0116     0.2898     0.0000
   8679.5000  1355.5216    29.0748    32.9389   222.8708     0.0084     0.0459     0.1988     0.0259     1.3547     0.1549     0.0099     0.0021   168.5875    57.3066     0.5361     5.0575   189.5062   159.8958   222.9843   185.2452     0.0940     0.0725     0.0962     0.0946     0.0000     2.7362  2865.0000     0.0734     0.0000     0.4597     0.2187     0.0000     0.0000     0.0186     0.3030     0.0000
   8680.0000  1355.5216    29.7290    33.7227   222.8708     0.0084     0.0473     0.1928     0.0269     2.0994     0.1591     0.0099     0.0015   173.8858    57.3066     0.5304     5.1302   195.4619   163.5690   222.9843   197.1089     0.0475     0.0734     0.0790     0.0575     0.0000     2.7372  2870.0000     0.0735     0.0000     0.4436     0.2312     0.0000     0.0000     0.0185     0.3067     0.0000
   8680.5000  1355.5216    29.9436    32.6785   222.8708     0.0082     0.0486     0.1916     0.0280     3.9847     0.1580     0.0079     0.0017   179.9801    56.5263     0.5224     5.0770   202.3124   162.9210   222.9843   204.2999     0.1154     0.0656     0.1010     0.0962     0.0000     2.7364  2899.0000     0.0672     0.0000     0.4404     0.2425     0.0000     0.0000     0.0147     0.3024     0.0000
   8681.0000  1350.9000    27.9936    33.9832   222.8708     0.0087     0.0486     0.1978     0.0286     6.4742     0.1502     0.0032     0.0016   184.3763    56.5263     0.5062     5.0802   207.2541   169.7057   222.9843   205.9557     0.0215     0.0837     0.0875     0.0668     0.0221     2.7332  2920.0000     0.0857     0.0000     0.4571     0.2423     0.0000     0.0000     0.0060     0.2947     0.0000
   8681.5000  1350.9000    26.7624    32.0557   222.8708     0.0087     0.0492     0.2028     0.0294     8.0967     0.1428     0.0000     0.0017   184.5650    56.5263     0.4752     5.1460   207.4662   162.3648   222.9843   212.0605     0.1730     0.0819     0.0634     0.0893     0.3931     2.7317  2839.0000     0.0836     0.0000     0.4706     0.2475     0.0000     0.0000     0.0000     0.2818     0.0000
   8682.0000  1355.5216    28.9325    32.0557   222.8708     0.0083     0.0490     0.2053     0.0292     8.9881     0.1404     0.0000     0.0017   179.7908    56.9165     0.4768     5.1493   202.0996   161.7571   222.9843   204.9607     0.0019     0.0697     0.0498     0.0444     0.4791     2.7318  2851.0000     0.0698     0.0000     0.4773     0.2456     0.0000     0.0000     0.0000     0.2771     0.0000
   8682.5000  1355.5216    29.5839    30.7530   222.8708     0.0080     0.0486     0.1996     0.0290     7.9604     0.1478     0.0000     0.0018   175.9000    57.4042     0.4935     5.1102   197.7261   149.0206   222.9843   189.3179     0.1296     0.0589     0.0309     0.0888     0.4933     2.7303  2921.0000     0.0597     0.0000     0.4618     0.2419     0.0000     0.0000     0.0000     0.2962     0.0000
   8683.0000  1350.9000    31.0322    28.9316   222.8708     0.0076     0.0463     0.1834     0.0275     6.6010     0.1709     0.0000     0.0021   176.3167    56.5263     0.5347     5.1697   198.1945   150.8212   222.9843   199.9706    -0.0057     0.0445     0.0336     0.0462     0.0327     2.7248  2888.0000     0.0443     0.0000     0.4183     0.2221     0.0000     0.0000     0.0000     0.3596     0.0000
   8683.5000  1350.9000    32.5515    28.5385   222.8708     0.0074     0.0469     0.1695     0.0278     6.0681     0.1860     0.0000     0.0021   180.1381    56.5263     0.5565     5.1612   202.4900   159.3710   222.9843   205.8931     0.0579     0.0374     0.1068     0.0243     0.0728     2.7231  2875.0000     0.0364     0.0000     0.3811     0.2272     0.0000     0.0000     0.0000     0.3918     0.0000
   8684.0000  1355.5216    27.9924    32.1597   222.8708     0.0085     0.0472     0.1633     0.0280     5.9960     0.1927     0.0000     0.0021   182.6193    56.5263     0.5724     5.1080   205.2791   166.6049   222.9843   202.7920     0.2687     0.0775     0.1079     0.1715     0.4267     2.7224  2885.0000     0.0760     0.0000     0.3643     0.2300     0.0000     0.0000     0.0000     0.4057     0.0000
   8684.5000  1360.4985    29.5086    31.7691   222.8708     0.0082     0.0488     0.1668     0.0291     6.3968     0.1857     0.0000     0.0017   182.0833    56.9165     0.5453     5.1053   204.6766   164.3888   222.9843   206.8585    -0.0080     0.0655     0.1095     0.0488     0.3638     2.7250  2878.0000     0.0651     0.0000     0.3736     0.2438     0.0000     0.0000     0.0000     0.3826     0.0000
   8685.0000  1355.5216    28.4266    32.0296   222.8708     0.0084     0.0512     0.1652     0.0294     3.6212     0.1843     0.0093     0.0014   180.0495    57.6968     0.5256     5.2485   202.3905   162.4692   222.9843   203.4948     0.0192     0.0721     0.0574     0.0110     0.2189     2.7363  2892.0000     0.0726     0.0000     0.3695     0.2646     0.0000     0.0000     0.0174     0.3485     0.0000
   8685.5000  1355.5216    30.1603    34.1115   222.8708     0.0084     0.0546     0.1532     0.0305     2.0436     0.1931     0.0166     0.0014   185.4889    56.5263     0.5382     5.1739   208.5048   165.2214   222.9843   195.9828     0.1033     0.0728     0.0727     0.1312     0.4623     2.7449  2853.0000     0.0729     0.0000     0.3372     0.2947     0.0000     0.0000     0.0311     0.3370     0.0000
