~VERSION INFORMATION
VERS.           1.2   :CWLS Log ASCII Standard - VERSION 1.2
WRAP.           NO    :One Line per depth step
PROD.  Schlumberger   :LAS Producer
PROG.  DLIS to ASCII 17C0-152                          :LAS Program name and version
CREA.        2010/11/19 02:18                          :LAS Creation date {YYYY/MM/DD hh:mm}
DLIS_CREA.  2010-Nov-18 22:49                          :DLIS Creation date and time {YYYY-MMM-DD hh:mm}
SOURCE.     d476e3e6-e07a-4d20-b90c-cbd099bd9e21       :DLIS File Name
#--------------------------------------------------
~WELL INFORMATION
#MNEM.UNIT      DATA             DESCRIPTION
#---- ------ --------------   -----------------------------
STRT .F      8456.0000       :START DEPTH     
STOP .F      9128.5000       :STOP DEPTH     
STEP .F       0.5000         :STEP       
NULL .          -999.25      :NULL VALUE
COMP .                 COMPANY:  Wellstar Corporation               
WELL .                    WELL:  Silver Spur Minerals 35-2          
FLD  .                   FIELD:  Wildcat                            
LOC  .                LOCATION:  Sec.35, T8N, R78W                  
CNTY .                  COUNTY:  Jackson                            
STAT .                   STATE:  Colorado                           
CTRY .                 COUNTRY:                                     
SRVC .         SERVICE COMPANY:  Schlumberger                       
API  .              API NUMBER:  05-057-06490-0100                  
DATE .                LOG DATE:  18-Nov-2010
UWI  .          UNIQUE WELL ID:                                     
#-----------------------------------------------------------------------------
~PARAMETER INFORMATION
#MNEM.UNIT    VALUE                      DESCRIPTION
#---- -----   --------------------       ------------------------
CN   .        Wellstar Corporation       :Company Name
WN   .        Silver Spur Minerals 35-2  :Well Name
FN   .        Wildcat                    :Field Name
FL   .        Sec.35  T8N  R78W          :Field Location
FL1  .        SHL  1996' FSL X 655' FEL NESE :Field Location Line 1
COUN .        Jackson                    :County or Rig Name
STAT .        Colorado                   :State or Province
NATI .                                   :Nation
DATE .        18-Nov-2010                :Date as Month-Day-Year
APIN .        05-057-06490-0100          :API Serial Number
SECT .        35                         :Section
TOWN .        8N                         :Township
RANG .        78W                        :Range
DMF  .        Kelly Bushing              :Drilling Measured From
LMF  .        Kelly Bushing              :Log Measured From
PDAT .        Ground Level               :Permanent Datum
ENGI .        Philip Grant               :Engineer's Name
WITN .        Jacky Burch                :Witness's Name
LATI .                                   :Latitude
LONG .                                   :Longitude
LUL  .        Fort Morgan  CO            :Logging Unit Location
LUN  .              3021                 :Logging Unit Number
RUN  .        1                          :Run Number
SON  .        BE0K-00102                 :Service Order Number
BHT  .DEGF     211.99986                 :Bottom Hole Temperature (used in calculations)
BS   .IN         6.12500                 :Bit Size
DFD  .LB/G       8.80000                 :Drilling Fluid Density
DFV  .S         28.00000                 :Drilling Fluid Viscosity
DFL  .                                   :Drilling Fluid Loss
RMFS .OHMM       0.64200                 :Resistivity of Mud Filtrate Sample
EKB  .F       8549.00000                 :Elevation of Kelly Bushing
EGL  .F       8534.00000                 :Elevation of Ground Level
BLI  .F       9108.00000                 :Bottom Log Interval
BSAL .PPM     38000.00000                :Borehole Salinity
FLEV .                                   :Fluid Level
MCST .DEGF      83.57200                 :Mud Cake Sample Temperature
MFST .DEGF      83.57200                 :Mud Filtrate Sample Temperature
MRT  .DEGF     217.00000                 :Maximum Recorded Temperature
MST  .DEGF      83.57200                 :Mud Sample Temperature
RMCS .OHMM       1.28400                 :Resistivity of Mud Cake Sample
RMS  .OHMM       0.85600                 :Resistivity of Mud Sample
RW   .OHMM       1.00000                 :Resistivity of Connate Water
TDD  .F       8610.00000                 :Total Depth - Driller
TDL  .F       9116.00000                 :Total Depth - Logger
TLI  .F       8482.00000                 :Top Log Interval
HIDE .        Elemental Capture Spectroscopy :Header Identifier
MATR .        LIME                       :Rock Matrix for Neutron Porosity Corrections
FNUM .           1.00000                 :Form Factor Numerator
FEXP .           2.00000                 :Form Factor Exponent
DFT  .        KCl  Mud                   :Drilling Fluid Type
DFPH .           9.80000                 :Drilling Fluid PH
MCSS .        Calculated                 :Mud Cake Sample Source
MFSS .        Calculated                 :Mud Filtrate Sample Source
MSS  .        AIT bottom nose            :Mud Sample Source
OS1  .        PEx-HRLA                   :Other Services Line 1
OS2  .        MSIP-FMI                   :Other Services Line 2
OS3  .        HNGS                       :Other Services Line 3
OS4  .                                   :Other Services Line 4
OS5  .                                   :Other Services Line 5
R1   .        Tool run as per tool sketch. :Remark Line 1
R2   .                                   :Remark Line 2
R3   .        This is the first log in hole. :Remark Line 3
R4   .                                   :Remark Line 4
R5   .        Data may be affected by hole rugosity. :Remark Line 5
R6   .                                   :Remark Line 6
R7   .        Matrix Limestone 2.71      :Remark Line 7
R8   .                                   :Remark Line 8
TCS  .        11 00                      :Time Circulation Stopped
TLAB .        9 31                       :Time Logger At Bottom
NMT  .        NOBARITE                   :HILT Nuclear Mud Type
EPD  .F         8534.000000              :Elevation of Permanent Datum above Mean Sea Level
APD  .F          15.000000               :Elevation of Depth Reference (LMF) above Permanent Datum
#-----------------------------------------------------------------------------
~CURVE INFORMATION
#MNEM.UNIT   API CODE                                  DESCRIPTION
#---- -----  --------                                  -----------------------
DEPT .F                                                :DEPTH (BOREHOLE) {F12.4}
CDF  .LBF                                              :Calibrated Downhole Force {F11.4}
CFTC .HZ                                               :Corrected Far Thermal Counting Rate {F11.4}
CNTC .HZ                                               :Corrected Near Thermal Counting Rate {F11.4}
CTEM .DEGF                                             :Cartridge Temperature {F11.4}
DNPH .CFCF                                             :Delta Thermal Neutron Porosity {F11.4}
DWAL_WALK2.                                            :Dry Weight Fraction Pseudo Aluminum (SpectroLith WALK2 Model) {F11.4}
DWCA_WALK2.                                            :Dry Weight Fraction Calcium (SpectroLith WALK2 Model) {F11.4}
DWFE_WALK2.                                            :Dry Weight Fraction Iron + 0.14 Aluminum (SpectroLith WALK2 Model) {F11.4}
DWGD_WALK2.PPM                                         :Dry Weight Fraction Gadolinium (SpectroLith WALK2 Model) {F11.4}
DWSI_WALK2.                                            :Dry Weight Fraction Silicon (SpectroLith WALK2 Model) {F11.4}
DWSU_WALK2.                                            :Dry Weight Fraction Sulfur (SpectroLith WALK2 Model) {F11.4}
DWTI_WALK2.                                            :Dry Weight Fraction Titanium (SpectroLith WALK2 Model) {F11.4}
ECGR .GAPI                                             :Environmentally Corrected Gamma-Ray {F11.4}
ECST .DEGF                                             :ECS Temperature {F11.4}
ESUF_WALK2.                                            :Elemental Statistical Uncertainty Factor (SpectroLith WALK2 Model) {F11.4}
GDEV .DEG                                              :HGNS Deviation {F11.4}
GR   .GAPI                                             :Gamma-Ray {F11.4}
GR_EDTC.GAPI                                           :EDTC Gamma Ray {F11.4}
GTEM .DEGF                                             :Generalized Borehole Temperature {F11.4}
HGR  .GAPI                                             :HiRes Gamma-Ray {F11.4}
HNPO .CFCF                                             :HiRes Enhanced Thermal Neutron Porosity {F11.4}
HTNP .CFCF                                             :HiRes Thermal Neutron Porosity {F11.4}
NPHI .CFCF                                             :Thermal Neutron Porosity (Ratio Method) {F11.4}
NPOR .CFCF                                             :Enhanced Thermal Neutron Porosity {F11.4}
QCPMT.                                                 :Photomultiplier Tube Quality Control {F11.4}
RHGE_WALK2.G/C3                                        :Matrix Density from Elemental Concentrations (SpectroLith WALK2 Model) {F11.4}
TENS .LBF                                              :Cable Tension {F11.4}
TNPH .CFCF                                             :Thermal Neutron Porosity {F11.4}
WANH_WALK2.                                            :Dry Weight Fraction Anhydrite/Gypsum (SpectroLith WALK2 Model) {F11.4}
WCAR_WALK2.                                            :Dry Weight Fraction Carbonate (SpectroLith WALK2 Model) {F11.4}
WCLA_WALK2.                                            :Dry Weight Fraction Clay (SpectroLith WALK2 Model) {F11.4}
WCOA_WALK2.                                            :Dry Weight Fraction Coal (SpectroLith WALK2 Model) {F11.4}
WEVA_WALK2.                                            :Dry Weight Fraction Salt (SpectroLith WALK2 Model) {F11.4}
WPYR_WALK2.                                            :Dry Weight Fraction Pyrite (SpectroLith WALK2 Model) {F11.4}
WQFM_WALK2.                                            :Dry Weight Fraction Quartz+Feldspar+Mica (QFM) (SpectroLith WALK2 Model) {F11.4}
WSID_WALK2.                                            :Dry Weight Fraction Siderite (SpectroLith WALK2 Model) {F11.4}
#-----------------------------------------------------------------------------
# 
#      DEPT        CDF        CFTC       CNTC       CTEM       DNPH    DWAL_WALK2 DWCA_WALK2 DWFE_WALK2 DWGD_WALK2 DWSI_WALK2 DWSU_WALK2 DWTI_WALK2    ECGR       ECST    ESUF_WALK2    GDEV        GR      GR_EDTC      GTEM       HGR        HNPO       HTNP       NPHI       NPOR      QCPMT    RHGE_WALK2    TENS       TNPH    WANH_WALK2 WCAR_WALK2 WCLA_WALK2 WCOA_WALK2 WEVA_WALK2 WPYR_WALK2 WQFM_WALK2 WSID_WALK2
#
~A  
# ...
   8896.0000  1384.6726    30.6146    37.3806   224.8472     0.0088     0.0382     0.2599     0.0219     2.4061     0.0968     0.0067     0.0014   177.7391    54.9656     0.4504     5.8187   199.7933   169.2474   226.2181   210.2541     0.0659     0.0863     0.0848     0.0663     0.1942     2.7354  2975.0000     0.0862     0.0000     0.6240     0.1509     0.0000     0.0000     0.0125     0.2126     0.0000
   8896.5000  1384.6726    30.3976    37.1179   224.8472     0.0088     0.0383     0.2598     0.0226     1.8597     0.0960     0.0033     0.0009   179.0040    55.3557     0.4461     5.7991   201.2152   171.1651   226.2181   193.1041     0.0487     0.0876     0.0773     0.0787     0.2001     2.7328  2961.0000     0.0863     0.0000     0.6239     0.1519     0.0000     0.0000     0.0063     0.2179     0.0000
   8897.0000  1384.6726    31.4004    37.2427   224.8472     0.0086     0.0400     0.2611     0.0233     0.6994     0.0919     0.0055     0.0010   180.1848    55.3557     0.4657     5.8531   202.5425   180.8695   226.2181   200.9462     0.0938     0.0826     0.0785     0.0834     0.4818     2.7369  3000.0000     0.0808     0.0000     0.6273     0.1666     0.0000     0.0000     0.0103     0.1958     0.0000
   8897.5000  1384.6726    31.4004    36.5279   224.8472     0.0085     0.0398     0.2609     0.0225     0.7000     0.0931     0.0102     0.0011   188.7805    54.1852     0.4636     5.8762   212.2048   191.3960   226.2181   214.2941     0.0566     0.0787     0.0735     0.1038     0.1136     2.7408  2998.0000     0.0774     0.0000     0.6268     0.1646     0.0000     0.0000     0.0191     0.1895     0.0000
   8898.0000  1384.6726    32.4856    35.4836   224.8472     0.0082     0.0407     0.2572     0.0225     1.2557     0.0964     0.0136     0.0013   194.4995    54.9656     0.4777     5.8516   218.6334   194.7139   226.2181   221.8147     0.1219     0.0672     0.0634     0.0561     0.2598     2.7442  2990.0000     0.0669     0.0000     0.6167     0.1724     0.0000     0.0000     0.0255     0.1854     0.0000
   8898.5000  1389.6495    31.4828    33.8507   224.8472     0.0082     0.0394     0.2581     0.0219     2.6722     0.0974     0.0128     0.0010   193.4422    54.7705     0.4747     5.8210   217.4449   192.3193   226.2181   219.9202     0.0375     0.0652     0.0623     0.0449     0.0000     2.7424  2990.0000     0.0645     0.0000     0.6192     0.1615     0.0000     0.0000     0.0239     0.1954     0.0000
   8899.0000  1389.6495    32.7650    35.6740   224.8472     0.0082     0.0392     0.2602     0.0224     3.9692     0.0946     0.0085     0.0010   189.6404    54.5754     0.4698     5.8338   213.1714   185.7160   226.2181   210.7523     0.0925     0.0667     0.0534     0.0816     0.1685     2.7386  3001.0000     0.0663     0.0000     0.6250     0.1599     0.0000     0.0000     0.0159     0.1991     0.0000
   8899.5000  1389.6495    30.4336    32.6785   224.8472     0.0082     0.0367     0.2674     0.0210     3.8565     0.0908     0.0074     0.0009   182.5900    55.3557     0.4579     5.8480   205.2461   179.3724   226.2181   209.3032     0.0345     0.0651     0.0742     0.0931     0.1107     2.7360  3011.0000     0.0645     0.0000     0.6442     0.1371     0.0000     0.0000     0.0139     0.2047     0.0000
   8900.0000  1384.6726    30.4336    33.1354   224.8472     0.0082     0.0342     0.2698     0.0195     2.5196     0.0923     0.0072     0.0010   175.4859    54.1852     0.4662     5.8845   197.2605   171.5318   226.2181   195.9962    -0.0108     0.0663     0.0420     0.0241     0.1934     2.7334  2957.0000     0.0667     0.0000     0.6508     0.1158     0.0000     0.0000     0.0135     0.2199     0.0000
   8900.5000  1384.6726    30.8158    31.4870   224.8472     0.0080     0.0334     0.2650     0.0185     0.2866     0.0999     0.0104     0.0012   172.5486    54.9656     0.4675     5.9057   193.9588   167.4700   226.2181   186.7913     0.1588     0.0565     0.0477     0.1351     0.1390     2.7344  2978.0000     0.0570     0.0000     0.6379     0.1082     0.0000     0.0000     0.0195     0.2344     0.0000
   8901.0000  1389.6495    34.6667    32.9176   224.8472     0.0077     0.0342     0.2632     0.0187     0.0000     0.1007     0.0114     0.0016   171.5499    54.9656     0.4574     5.8640   192.8362   169.9239   226.2181   199.3820     0.0073     0.0454     0.0310     0.0138     0.2042     2.7357  2973.0000     0.0462     0.0000     0.6330     0.1160     0.0000     0.0000     0.0214     0.2296     0.0000
   8901.5000  1389.6495    35.0453    30.9491   224.8472     0.0075     0.0339     0.2625     0.0186     0.1239     0.1021     0.0100     0.0019   168.3375    54.1852     0.4576     5.8820   189.2252   171.0198   226.2181   192.6285     0.1241     0.0365     0.0455     0.0796     0.0933     2.7337  3030.0000     0.0369     0.0000     0.6310     0.1132     0.0000     0.0000     0.0187     0.2372     0.0000
   8902.0000  1384.6726    33.5811    32.1869   224.8472     0.0077     0.0314     0.2677     0.0175     2.0564     0.1001     0.0067     0.0018   157.2343    54.1852     0.4445     5.8808   176.7443   161.4628   226.2181   176.4891     0.0295     0.0478     0.0537     0.0284     0.2264     2.7287  2978.0000     0.0476     0.0000     0.6451     0.0909     0.0000     0.0000     0.0125     0.2515     0.0000
   8902.5000  1384.6726    30.3543    30.3569   224.8472     0.0079     0.0285     0.2680     0.0165     2.9537     0.1042     0.0013     0.0017   149.5652    55.3557     0.4379     5.9086   168.1236   151.9482   226.2181   161.6463     0.0259     0.0547     0.0490     0.0450     0.2161     2.7206  2951.0000     0.0540     0.0000     0.6459     0.0652     0.0000     0.0000     0.0024     0.2864     0.0000
   8903.0000  1394.6266    31.4916    31.7448   224.8472     0.0079     0.0291     0.2682     0.0172     3.7328     0.1026     0.0000     0.0017   144.2153    55.3557     0.4316     5.9027   162.1099   140.4499   226.2181   167.0919     0.0533     0.0554     0.0468     0.0760     0.1518     2.7202  2999.0000     0.0549     0.0000     0.6465     0.0711     0.0000     0.0000     0.0000     0.2823     0.0000
   8903.5000  1389.6495    33.3719    31.1981   224.8472     0.0076     0.0308     0.2680     0.0180     3.2373     0.1001     0.0010     0.0017   140.6730    55.3557     0.4495     5.9219   158.1280   134.6061   226.2181   158.0437     0.1037     0.0441     0.0498     0.0481     0.0000     2.7229  3029.0000     0.0443     0.0000     0.6458     0.0853     0.0000     0.0000     0.0019     0.2669     0.0000
   8904.0000  1389.6495    33.5630    31.3454   224.8472     0.0076     0.0334     0.2688     0.0187     3.0089     0.0953     0.0076     0.0017   136.4251    55.3557     0.4500     5.9545   153.3531   124.5451   226.2181   149.7027     0.0397     0.0438     0.0482     0.0410     0.0000     2.7320  2983.0000     0.0442     0.0000     0.6480     0.1082     0.0000     0.0000     0.0142     0.2296     0.0000
   8904.5000  1384.6726    31.6095    30.8227   224.8472     0.0078     0.0353     0.2694     0.0188     2.3672     0.0921     0.0144     0.0020   134.7577    55.3557     0.4559     5.9710   151.4787   128.3118   226.2181   152.4415     0.0243     0.0501     0.0527     0.0372     0.0000     2.7404  2978.0000     0.0502     0.0000     0.6496     0.1252     0.0000     0.0000     0.0270     0.1981     0.0000
   8905.0000  1389.6495    30.3611    31.0724   224.8472     0.0080     0.0371     0.2710     0.0195     2.0476     0.0873     0.0164     0.0022   140.7633    54.5754     0.4425     5.8903   158.2295   133.3246   226.2181   151.9154     0.1116     0.0573     0.0425     0.0483     0.0000     2.7444  3001.0000     0.0573     0.0000     0.6541     0.1412     0.0000     0.0000     0.0307     0.1740     0.0000
   8905.5000  1389.6495    33.4989    32.0560   224.8472     0.0077     0.0370     0.2706     0.0196     1.4809     0.0878     0.0155     0.0022   142.1635    54.1852     0.4344     5.9673   159.8034   134.8918   226.2181   169.9532     0.1271     0.0476     0.0479     0.0906     0.0185     2.7434  2991.0000     0.0474     0.0000     0.6529     0.1404     0.0000     0.0000     0.0290     0.1777     0.0000
