~VERSION INFORMATION
VERS.           1.2   :CWLS Log ASCII Standard - VERSION 1.2
WRAP.           NO    :One Line per depth step
PROD.  Schlumberger   :LAS Producer
PROG.  DLIS to ASCII 17C0-152                          :LAS Program name and version
CREA.        2010/11/19 02:18                          :LAS Creation date {YYYY/MM/DD hh:mm}
DLIS_CREA.  2010-Nov-18 22:49                          :DLIS Creation date and time {YYYY-MMM-DD hh:mm}
SOURCE.     d476e3e6-e07a-4d20-b90c-cbd099bd9e21       :DLIS File Name
#--------------------------------------------------
~WELL INFORMATION
#MNEM.UNIT      DATA             DESCRIPTION
#---- ------ --------------   -----------------------------
STRT .F      8456.0000       :START DEPTH     
STOP .F      9128.5000       :STOP DEPTH     
STEP .F       0.5000         :STEP       
NULL .          -999.25      :NULL VALUE
COMP .                 COMPANY:  Wellstar Corporation               
WELL .                    WELL:  Silver Spur Minerals 35-2          
FLD  .                   FIELD:  Wildcat                            
LOC  .                LOCATION:  Sec.35, T8N, R78W                  
CNTY .                  COUNTY:  Jackson                            
STAT .                   STATE:  Colorado                           
CTRY .                 COUNTRY:                                     
SRVC .         SERVICE COMPANY:  Schlumberger                       
API  .              API NUMBER:  05-057-06490-0100                  
DATE .                LOG DATE:  18-Nov-2010
UWI  .          UNIQUE WELL ID:                                     
#-----------------------------------------------------------------------------
~PARAMETER INFORMATION
#MNEM.UNIT    VALUE                      DESCRIPTION
#---- -----   --------------------       ------------------------
CN   .        Wellstar Corporation       :Company Name
WN   .        Silver Spur Minerals 35-2  :Well Name
FN   .        Wildcat                    :Field Name
FL   .        Sec.35  T8N  R78W          :Field Location
FL1  .        SHL  1996' FSL X 655' FEL NESE :Field Location Line 1
COUN .        Jackson                    :County or Rig Name
STAT .        Colorado                   :State or Province
NATI .                                   :Nation
DATE .        18-Nov-2010                :Date as Month-Day-Year
APIN .        05-057-06490-0100          :API Serial Number
SECT .        35                         :Section
TOWN .        8N                         :Township
RANG .        78W                        :Range
DMF  .        Kelly Bushing              :Drilling Measured From
LMF  .        Kelly Bushing              :Log Measured From
PDAT .        Ground Level               :Permanent Datum
ENGI .        Philip Grant               :Engineer's Name
WITN .        Jacky Burch                :Witness's Name
LATI .                                   :Latitude
LONG .                                   :Longitude
LUL  .        Fort Morgan  CO            :Logging Unit Location
LUN  .              3021                 :Logging Unit Number
RUN  .        1                          :Run Number
SON  .        BE0K-00102                 :Service Order Number
BHT  .DEGF     211.99986                 :Bottom Hole Temperature (used in calculations)
BS   .IN         6.12500                 :Bit Size
DFD  .LB/G       8.80000                 :Drilling Fluid Density
DFV  .S         28.00000                 :Drilling Fluid Viscosity
DFL  .                                   :Drilling Fluid Loss
RMFS .OHMM       0.64200                 :Resistivity of Mud Filtrate Sample
EKB  .F       8549.00000                 :Elevation of Kelly Bushing
EGL  .F       8534.00000                 :Elevation of Ground Level
BLI  .F       9108.00000                 :Bottom Log Interval
BSAL .PPM     38000.00000                :Borehole Salinity
FLEV .                                   :Fluid Level
MCST .DEGF      83.57200                 :Mud Cake Sample Temperature
MFST .DEGF      83.57200                 :Mud Filtrate Sample Temperature
MRT  .DEGF     217.00000                 :Maximum Recorded Temperature
MST  .DEGF      83.57200                 :Mud Sample Temperature
RMCS .OHMM       1.28400                 :Resistivity of Mud Cake Sample
RMS  .OHMM       0.85600                 :Resistivity of Mud Sample
RW   .OHMM       1.00000                 :Resistivity of Connate Water
TDD  .F       8610.00000                 :Total Depth - Driller
TDL  .F       9116.00000                 :Total Depth - Logger
TLI  .F       8482.00000                 :Top Log Interval
HIDE .        Elemental Capture Spectroscopy :Header Identifier
MATR .        LIME                       :Rock Matrix for Neutron Porosity Corrections
FNUM .           1.00000                 :Form Factor Numerator
FEXP .           2.00000                 :Form Factor Exponent
DFT  .        KCl  Mud                   :Drilling Fluid Type
DFPH .           9.80000                 :Drilling Fluid PH
MCSS .        Calculated                 :Mud Cake Sample Source
MFSS .        Calculated                 :Mud Filtrate Sample Source
MSS  .        AIT bottom nose            :Mud Sample Source
OS1  .        PEx-HRLA                   :Other Services Line 1
OS2  .        MSIP-FMI                   :Other Services Line 2
OS3  .        HNGS                       :Other Services Line 3
OS4  .                                   :Other Services Line 4
OS5  .                                   :Other Services Line 5
R1   .        Tool run as per tool sketch. :Remark Line 1
R2   .                                   :Remark Line 2
R3   .        This is the first log in hole. :Remark Line 3
R4   .                                   :Remark Line 4
R5   .        Data may be affected by hole rugosity. :Remark Line 5
R6   .                                   :Remark Line 6
R7   .        Matrix Limestone 2.71      :Remark Line 7
R8   .                                   :Remark Line 8
TCS  .        11 00                      :Time Circulation Stopped
TLAB .        9 31                       :Time Logger At Bottom
NMT  .        NOBARITE                   :HILT Nuclear Mud Type
EPD  .F         8534.000000              :Elevation of Permanent Datum above Mean Sea Level
APD  .F          15.000000               :Elevation of Depth Reference (LMF) above Permanent Datum
#-----------------------------------------------------------------------------
~CURVE INFORMATION
#MNEM.UNIT   API CODE                                  DESCRIPTION
#---- -----  --------                                  -----------------------
DEPT .F                                                :DEPTH (BOREHOLE) {F12.4}
CDF  .LBF                                              :Calibrated Downhole Force {F11.4}
CFTC .HZ                                               :Corrected Far Thermal Counting Rate {F11.4}
CNTC .HZ                                               :Corrected Near Thermal Counting Rate {F11.4}
CTEM .DEGF                                             :Cartridge Temperature {F11.4}
DNPH .CFCF                                             :Delta Thermal Neutron Porosity {F11.4}
DWAL_WALK2.                                            :Dry Weight Fraction Pseudo Aluminum (SpectroLith WALK2 Model) {F11.4}
DWCA_WALK2.                                            :Dry Weight Fraction Calcium (SpectroLith WALK2 Model) {F11.4}
DWFE_WALK2.                                            :Dry Weight Fraction Iron + 0.14 Aluminum (SpectroLith WALK2 Model) {F11.4}
DWGD_WALK2.PPM                                         :Dry Weight Fraction Gadolinium (SpectroLith WALK2 Model) {F11.4}
DWSI_WALK2.                                            :Dry Weight Fraction Silicon (SpectroLith WALK2 Model) {F11.4}
DWSU_WALK2.                                            :Dry Weight Fraction Sulfur (SpectroLith WALK2 Model) {F11.4}
DWTI_WALK2.                                            :Dry Weight Fraction Titanium (SpectroLith WALK2 Model) {F11.4}
ECGR .GAPI                                             :Environmentally Corrected Gamma-Ray {F11.4}
ECST .DEGF                                             :ECS Temperature {F11.4}
ESUF_WALK2.                                            :Elemental Statistical Uncertainty Factor (SpectroLith WALK2 Model) {F11.4}
GDEV .DEG                                              :HGNS Deviation {F11.4}
GR   .GAPI                                             :Gamma-Ray {F11.4}
GR_EDTC.GAPI                                           :EDTC Gamma Ray {F11.4}
GTEM .DEGF                                             :Generalized Borehole Temperature {F11.4}
HGR  .GAPI                                             :HiRes Gamma-Ray {F11.4}
HNPO .CFCF                                             :HiRes Enhanced Thermal Neutron Porosity {F11.4}
HTNP .CFCF                                             :HiRes Thermal Neutron Porosity {F11.4}
NPHI .CFCF                                             :Thermal Neutron Porosity (Ratio Method) {F11.4}
NPOR .CFCF                                             :Enhanced Thermal Neutron Porosity {F11.4}
QCPMT.                                                 :Photomultiplier Tube Quality Control {F11.4}
RHGE_WALK2.G/C3                                        :Matrix Density from Elemental Concentrations (SpectroLith WALK2 Model) {F11.4}
TENS .LBF                                              :Cable Tension {F11.4}
TNPH .CFCF                                             :Thermal Neutron Porosity {F11.4}
WANH_WALK2.                                            :Dry Weight Fraction Anhydrite/Gypsum (SpectroLith WALK2 Model) {F11.4}
WCAR_WALK2.                                            :Dry Weight Fraction Carbonate (SpectroLith WALK2 Model) {F11.4}
WCLA_WALK2.                                            :Dry Weight Fraction Clay (SpectroLith WALK2 Model) {F11.4}
WCOA_WALK2.                                            :Dry Weight Fraction Coal (SpectroLith WALK2 Model) {F11.4}
WEVA_WALK2.                                            :Dry Weight Fraction Salt (SpectroLith WALK2 Model) {F11.4}
WPYR_WALK2.                                            :Dry Weight Fraction Pyrite (SpectroLith WALK2 Model) {F11.4}
WQFM_WALK2.                                            :Dry Weight Fraction Quartz+Feldspar+Mica (QFM) (SpectroLith WALK2 Model) {F11.4}
WSID_WALK2.                                            :Dry Weight Fraction Siderite (SpectroLith WALK2 Model) {F11.4}
#-----------------------------------------------------------------------------
# 
#      DEPT        CDF        CFTC       CNTC       CTEM       DNPH    DWAL_WALK2 DWCA_WALK2 DWFE_WALK2 DWGD_WALK2 DWSI_WALK2 DWSU_WALK2 DWTI_WALK2    ECGR       ECST    ESUF_WALK2    GDEV        GR      GR_EDTC      GTEM       HGR        HNPO       HTNP       NPHI       NPOR      QCPMT    RHGE_WALK2    TENS       TNPH    WANH_WALK2 WCAR_WALK2 WCLA_WALK2 WCOA_WALK2 WEVA_WALK2 WPYR_WALK2 WQFM_WALK2 WSID_WALK2
#
~A  
# ...
   8496.0000  1307.1736    30.1825    30.6505   220.8943     0.0080     0.0657     0.2077     0.0358     8.6164     0.1109     0.0283     0.0011   191.5234    58.8674     0.7003     3.6138   215.2881   188.6842   217.2354   213.0760     0.0148     0.0555     0.0452     0.0433     0.5279     2.7778  2793.0000     0.0562     0.0000     0.4838     0.3924     0.0000     0.0000     0.0530     0.0708     0.0000
   8496.5000  1302.1965    28.8119    28.0653   220.8943     0.0078     0.0676     0.2203     0.0369     7.1886     0.0928     0.0307     0.0005   193.3914    58.4772     0.7132     3.6079   217.3879   196.2127   217.2354   233.2173     0.1356     0.0501     0.0560     0.0979     0.4775     2.7847  2843.0000     0.0505     0.0000     0.5177     0.4094     0.0000     0.0000     0.0574     0.0156     0.0000
   8497.0000  1302.1965    29.2657    28.8821   220.8943     0.0079     0.0684     0.2178     0.0379     8.4347     0.0939     0.0278     0.0000   192.5926    57.6968     0.6948     3.7095   216.4899   196.9153   217.2354   206.2396     0.0749     0.0519     0.0414     0.0196     0.3097     2.7828  2842.0000     0.0523     0.0000     0.5108     0.4158     0.0000     0.0000     0.0520     0.0213     0.0000
   8497.5000  1307.1736    31.7623    28.9915   220.8943     0.0076     0.0696     0.2103     0.0410    11.4521     0.0939     0.0253     0.0004   186.0060    57.6968     0.6428     3.7692   209.0861   196.6122   217.2354   209.1264     0.0830     0.0414     0.0729     0.0635     1.0354     2.7843  2805.0000     0.0415     0.0000     0.5214     0.4269     0.0000     0.0000     0.0473     0.0043     0.0000
   8498.0000  1307.1736    31.5324    32.2591   220.8943     0.0080     0.0733     0.2028     0.0417    11.8312     0.1011     0.0220     0.0010   194.6480    57.6968     0.6453     3.6917   218.8004   197.1332   217.2354   211.1700     0.2268     0.0575     0.1333     0.0823     0.6469     2.7804  2800.0000     0.0570     0.0000     0.4755     0.4594     0.0000     0.0000     0.0411     0.0239     0.0000
   8498.5000  1307.1736    28.9393    33.9128   220.8943     0.0086     0.0741     0.1981     0.0429     9.8265     0.1025     0.0196     0.0024   201.6923    57.6968     0.6770     3.6074   226.7187   202.4651   217.2354   235.5162     0.0349     0.0805     0.1782     0.0829     0.3352     2.7789  2829.0000     0.0792     0.0000     0.4766     0.4661     0.0000     0.0000     0.0366     0.0207     0.0000
   8499.0000  1302.1965    23.2659    35.9534   220.8943     0.0104     0.0719     0.2044     0.0411     6.1945     0.1023     0.0139     0.0023   207.8666    57.6968     0.7251     3.7517   233.6591   208.4939   217.2354   234.7503     0.0885     0.1433     0.1755     0.1192     0.0000     2.7699  2865.0000     0.1392     0.0000     0.4748     0.4465     0.0000     0.0000     0.0260     0.0527     0.0000
   8499.5000  1302.1965    20.9970    35.8172   220.8943     0.0113     0.0726     0.2019     0.0408     3.3183     0.1045     0.0178     0.0027   206.0511    57.6968     0.7371     3.8005   231.6183   205.6564   217.2354   231.9801     0.0492     0.1714     0.1023     0.1170     0.3116     2.7736  2830.0000     0.1670     0.0000     0.4681     0.4531     0.0000     0.0000     0.0333     0.0455     0.0000
   8500.0000  1307.1736    25.6326    34.5919   220.8943     0.0094     0.0723     0.2058     0.0395     1.5656     0.1016     0.0275     0.0021   200.3866    57.6968     0.7072     3.7895   225.2510   202.2061   217.2354   228.1748     0.1695     0.1104     0.0777     0.0971     0.0765     2.7834  2783.0000     0.1071     0.0000     0.4786     0.4502     0.0000     0.0000     0.0515     0.0197     0.0000
   8500.5000  1307.1736    25.7525    32.2519   220.8943     0.0089     0.0738     0.2017     0.0397     0.0000     0.1021     0.0394     0.0028   194.9165    57.6968     0.6937     3.6629   219.1022   193.7309   217.2354   214.9670     0.1344     0.0950     0.0661     0.1276     0.0000     2.7969  2824.0000     0.0921     0.0000     0.4733     0.4545     0.0000     0.0000     0.0722     0.0000     0.0000
   8501.0000  1307.1736    28.0213    30.1897   220.8943     0.0082     0.0688     0.2148     0.0379     0.0000     0.0924     0.0394     0.0022   184.8246    57.6968     0.6967     3.7227   207.7581   189.0979   217.2354   213.5235     0.0704     0.0674     0.0903     0.0878     0.2438     2.7960  2859.0000     0.0655     0.0000     0.5200     0.4082     0.0000     0.0000     0.0718     0.0000     0.0000
   8501.5000  1302.1965    24.3904    28.6920   220.8943     0.0086     0.0676     0.2201     0.0372     0.0000     0.0901     0.0341     0.0020   182.1376    57.6968     0.7048     3.8913   204.7377   186.9482   217.2354   194.2573     0.0884     0.0811     0.0897     0.0938     0.0000     2.7892  2851.0000     0.0809     0.0000     0.5312     0.4056     0.0000     0.0000     0.0632     0.0000     0.0000
   8502.0000  1307.1736    27.4510    30.6008   220.8943     0.0083     0.0679     0.2183     0.0368     2.0937     0.0949     0.0305     0.0012   183.2996    57.6968     0.6806     3.8077   206.0438   184.6152   217.2354   206.0475     0.0607     0.0708     0.0957     0.0577     0.1012     2.7840  2777.0000     0.0711     0.0000     0.5122     0.4118     0.0000     0.0000     0.0570     0.0191     0.0000
   8502.5000  1307.1736    26.7703    31.6900   220.8943     0.0086     0.0691     0.2042     0.0367     2.1136     0.1100     0.0367     0.0012   189.3973    57.6968     0.6616     3.7315   212.8981   188.2074   217.2354   216.3139     0.1840     0.0812     0.0755     0.1052     0.0000     2.7887  2796.0000     0.0815     0.0000     0.4743     0.4224     0.0000     0.0000     0.0686     0.0346     0.0000
   8503.0000  1302.1965    28.1318    31.0345   220.8943     0.0083     0.0700     0.2035     0.0364     2.2855     0.1100     0.0424     0.0013   195.7154    57.6968     0.6479     3.7453   220.0002   190.6466   217.2354   214.5766     0.0276     0.0693     0.0547     0.0332     0.1339     2.7947  2822.0000     0.0692     0.0000     0.4725     0.4302     0.0000     0.0000     0.0781     0.0192     0.0000
   8503.5000  1297.2196    28.8090    30.0815   220.8943     0.0081     0.0678     0.2158     0.0352     1.1816     0.0994     0.0417     0.0009   192.9768    57.6968     0.6209     3.8131   216.9218   192.4254   217.4749   226.5046     0.0345     0.0598     0.0674     0.0446     0.0136     2.7939  2819.0000     0.0605     0.0000     0.5055     0.4108     0.0000     0.0000     0.0756     0.0080     0.0000
   8504.0000  1297.2196    28.2374    31.3532   220.8943     0.0083     0.0604     0.2360     0.0357     0.8069     0.0762     0.0368     0.0006   192.3958    57.6968     0.6102     3.8937   216.2687   185.5032   217.5947   208.7227     0.1373     0.0695     0.1062     0.1357     0.0124     2.7924  2809.0000     0.0703     0.0000     0.5985     0.3349     0.0000     0.0000     0.0666     0.0000     0.0000
   8504.5000  1297.2196    27.5566    31.7592   220.8943     0.0085     0.0564     0.2456     0.0351     0.0000     0.0683     0.0319     0.0004   183.5360    57.6968     0.5954     3.7939   206.3095   178.6797   217.5947   213.0105     0.0893     0.0765     0.1368     0.1062     0.2347     2.7872  2782.0000     0.0766     0.0000     0.6409     0.3011     0.0000     0.0000     0.0580     0.0000     0.0000
   8505.0000  1302.1965    25.0603    32.3038   220.8943     0.0091     0.0551     0.2504     0.0341     0.0000     0.0659     0.0280     0.0012   176.9790    57.6968     0.5956     3.7444   198.9390   171.1798   217.5947   196.6838     0.0596     0.0983     0.1234     0.0801     0.6294     2.7815  2791.0000     0.0979     0.0000     0.6547     0.2940     0.0000     0.0000     0.0513     0.0000     0.0000
   8505.5000  1297.2196    26.5396    34.7545   220.8943     0.0092     0.0577     0.2485     0.0329     0.0000     0.0709     0.0288     0.0022   164.5607    57.6968     0.5981     3.7647   184.9798   165.1166   217.5947   186.1006     0.0466     0.1011     0.1057     0.0721     0.5190     2.7798  2807.0000     0.1006     0.0000     0.6259     0.3206     0.0000     0.0000     0.0535     0.0000     0.0000
