~VERSION INFORMATION
VERS.           1.2   :CWLS Log ASCII Standard - VERSION 1.2
WRAP.           NO    :One Line per depth step
PROD.  Schlumberger   :LAS Producer
PROG.  DLIS to ASCII 17C0-152                          :LAS Program name and version
CREA.        2010/11/19 02:18                          :LAS Creation date {YYYY/MM/DD hh:mm}
DLIS_CREA.  2010-Nov-18 22:49                          :DLIS Creation date and time {YYYY-MMM-DD hh:mm}
SOURCE.     d476e3e6-e07a-4d20-b90c-cbd099bd9e21       :DLIS File Name
#--------------------------------------------------
~WELL INFORMATION
#MNEM.UNIT      DATA             DESCRIPTION
#---- ------ --------------   -----------------------------
STRT .F      8456.0000       :START DEPTH     
STOP .F      9128.5000       :STOP DEPTH     
STEP .F       0.5000         :STEP       
NULL .          -999.25      :NULL VALUE
COMP .                 COMPANY:  Wellstar Corporation               
WELL .                    WELL:  Silver Spur Minerals 35-2          
FLD  .                   FIELD:  Wildcat                            
LOC  .                LOCATION:  Sec.35, T8N, R78W                  
CNTY .                  COUNTY:  Jackson                            
STAT .                   STATE:  Colorado                           
CTRY .                 COUNTRY:                                     
SRVC .         SERVICE COMPANY:  Schlumberger                       
API  .              API NUMBER:  05-057-06490-0100                  
DATE .                LOG DATE:  18-Nov-2010
UWI  .          UNIQUE WELL ID:                                     
#-----------------------------------------------------------------------------
~PARAMETER INFORMATION
#MNEM.UNIT    VALUE                      DESCRIPTION
#---- -----   --------------------       ------------------------
CN   .        Wellstar Corporation       :Company Name
WN   .        Silver Spur Minerals 35-2  :Well Name
FN   .        Wildcat                    :Field Name
FL   .        Sec.35  T8N  R78W          :Field Location
FL1  .        SHL  1996' FSL X 655' FEL NESE :Field Location Line 1
COUN .        Jackson                    :County or Rig Name
STAT .        Colorado                   :State or Province
NATI .                                   :Nation
DATE .        18-Nov-2010                :Date as Month-Day-Year
APIN .        05-057-06490-0100          :API Serial Number
SECT .        35                         :Section
TOWN .        8N                         :Township
RANG .        78W                        :Range
DMF  .        Kelly Bushing              :Drilling Measured From
LMF  .        Kelly Bushing              :Log Measured From
PDAT .        Ground Level               :Permanent Datum
ENGI .        Philip Grant               :Engineer's Name
WITN .        Jacky Burch                :Witness's Name
LATI .                                   :Latitude
LONG .                                   :Longitude
LUL  .        Fort Morgan  CO            :Logging Unit Location
LUN  .              3021                 :Logging Unit Number
RUN  .        1                          :Run Number
SON  .        BE0K-00102                 :Service Order Number
BHT  .DEGF     211.99986                 :Bottom Hole Temperature (used in calculations)
BS   .IN         6.12500                 :Bit Size
DFD  .LB/G       8.80000                 :Drilling Fluid Density
DFV  .S         28.00000                 :Drilling Fluid Viscosity
DFL  .                                   :Drilling Fluid Loss
RMFS .OHMM       0.64200                 :Resistivity of Mud Filtrate Sample
EKB  .F       8549.00000                 :Elevation of Kelly Bushing
EGL  .F       8534.00000                 :Elevation of Ground Level
BLI  .F       9108.00000                 :Bottom Log Interval
BSAL .PPM     38000.00000                :Borehole Salinity
FLEV .                                   :Fluid Level
MCST .DEGF      83.57200                 :Mud Cake Sample Temperature
MFST .DEGF      83.57200                 :Mud Filtrate Sample Temperature
MRT  .DEGF     217.00000                 :Maximum Recorded Temperature
MST  .DEGF      83.57200                 :Mud Sample Temperature
RMCS .OHMM       1.28400                 :Resistivity of Mud Cake Sample
RMS  .OHMM       0.85600                 :Resistivity of Mud Sample
RW   .OHMM       1.00000                 :Resistivity of Connate Water
TDD  .F       8610.00000                 :Total Depth - Driller
TDL  .F       9116.00000                 :Total Depth - Logger
TLI  .F       8482.00000                 :Top Log Interval
HIDE .        Elemental Capture Spectroscopy :Header Identifier
MATR .        LIME                       :Rock Matrix for Neutron Porosity Corrections
FNUM .           1.00000                 :Form Factor Numerator
FEXP .           2.00000                 :Form Factor Exponent
DFT  .        KCl  Mud                   :Drilling Fluid Type
DFPH .           9.80000                 :Drilling Fluid PH
MCSS .        Calculated                 :Mud Cake Sample Source
MFSS .        Calculated                 :Mud Filtrate Sample Source
MSS  .        AIT bottom nose            :Mud Sample Source
OS1  .        PEx-HRLA                   :Other Services Line 1
OS2  .        MSIP-FMI                   :Other Services Line 2
OS3  .        HNGS                       :Other Services Line 3
OS4  .                                   :Other Services Line 4
OS5  .                                   :Other Services Line 5
R1   .        Tool run as per tool sketch. :Remark Line 1
R2   .                                   :Remark Line 2
R3   .        This is the first log in hole. :Remark Line 3
R4   .                                   :Remark Line 4
R5   .        Data may be affected by hole rugosity. :Remark Line 5
R6   .                                   :Remark Line 6
R7   .        Matrix Limestone 2.71      :Remark Line 7
R8   .                                   :Remark Line 8
TCS  .        11 00                      :Time Circulation Stopped
TLAB .        9 31                       :Time Logger At Bottom
NMT  .        NOBARITE                   :HILT Nuclear Mud Type
EPD  .F         8534.000000              :Elevation of Permanent Datum above Mean Sea Level
APD  .F          15.000000               :Elevation of Depth Reference (LMF) above Permanent Datum
#-----------------------------------------------------------------------------
~CURVE INFORMATION
#MNEM.UNIT   API CODE                                  DESCRIPTION
#---- -----  --------                                  -----------------------
DEPT .F                                                :DEPTH (BOREHOLE) {F12.4}
CDF  .LBF                                              :Calibrated Downhole Force {F11.4}
CFTC .HZ                                               :Corrected Far Thermal Counting Rate {F11.4}
CNTC .HZ                                               :Corrected Near Thermal Counting Rate {F11.4}
CTEM .DEGF                                             :Cartridge Temperature {F11.4}
DNPH .CFCF                                             :Delta Thermal Neutron Porosity {F11.4}
DWAL_WALK2.                                            :Dry Weight Fraction Pseudo Aluminum (SpectroLith WALK2 Model) {F11.4}
DWCA_WALK2.                                            :Dry Weight Fraction Calcium (SpectroLith WALK2 Model) {F11.4}
DWFE_WALK2.                                            :Dry Weight Fraction Iron + 0.14 Aluminum (SpectroLith WALK2 Model) {F11.4}
DWGD_WALK2.PPM                                         :Dry Weight Fraction Gadolinium (SpectroLith WALK2 Model) {F11.4}
DWSI_WALK2.                                            :Dry Weight Fraction Silicon (SpectroLith WALK2 Model) {F11.4}
DWSU_WALK2.                                            :Dry Weight Fraction Sulfur (SpectroLith WALK2 Model) {F11.4}
DWTI_WALK2.                                            :Dry Weight Fraction Titanium (SpectroLith WALK2 Model) {F11.4}
ECGR .GAPI                                             :Environmentally Corrected Gamma-Ray {F11.4}
ECST .DEGF                                             :ECS Temperature {F11.4}
ESUF_WALK2.                                            :Elemental Statistical Uncertainty Factor (SpectroLith WALK2 Model) {F11.4}
GDEV .DEG                                              :HGNS Deviation {F11.4}
GR   .GAPI                                             :Gamma-Ray {F11.4}
GR_EDTC.GAPI                                           :EDTC Gamma Ray {F11.4}
GTEM .DEGF                                             :Generalized Borehole Temperature {F11.4}
HGR  .GAPI                                             :HiRes Gamma-Ray {F11.4}
HNPO .CFCF                                             :HiRes Enhanced Thermal Neutron Porosity {F11.4}
HTNP .CFCF                                             :HiRes Thermal Neutron Porosity {F11.4}
NPHI .CFCF                                             :Thermal Neutron Porosity (Ratio Method) {F11.4}
NPOR .CFCF                                             :Enhanced Thermal Neutron Porosity {F11.4}
QCPMT.                                                 :Photomultiplier Tube Quality Control {F11.4}
RHGE_WALK2.G/C3                                        :Matrix Density from Elemental Concentrations (SpectroLith WALK2 Model) {F11.4}
TENS .LBF                                              :Cable Tension {F11.4}
TNPH .CFCF                                             :Thermal Neutron Porosity {F11.4}
WANH_WALK2.                                            :Dry Weight Fraction Anhydrite/Gypsum (SpectroLith WALK2 Model) {F11.4}
WCAR_WALK2.                                            :Dry Weight Fraction Carbonate (SpectroLith WALK2 Model) {F11.4}
WCLA_WALK2.                                            :Dry Weight Fraction Clay (SpectroLith WALK2 Model) {F11.4}
WCOA_WALK2.                                            :Dry Weight Fraction Coal (SpectroLith WALK2 Model) {F11.4}
WEVA_WALK2.                                            :Dry Weight Fraction Salt (SpectroLith WALK2 Model) {F11.4}
WPYR_WALK2.                                            :Dry Weight Fraction Pyrite (SpectroLith WALK2 Model) {F11.4}
WQFM_WALK2.                                            :Dry Weight Fraction Quartz+Feldspar+Mica (QFM) (SpectroLith WALK2 Model) {F11.4}
WSID_WALK2.                                            :Dry Weight Fraction Siderite (SpectroLith WALK2 Model) {F11.4}
#-----------------------------------------------------------------------------
# 
#      DEPT        CDF        CFTC       CNTC       CTEM       DNPH    DWAL_WALK2 DWCA_WALK2 DWFE_WALK2 DWGD_WALK2 DWSI_WALK2 DWSU_WALK2 DWTI_WALK2    ECGR       ECST    ESUF_WALK2    GDEV        GR      GR_EDTC      GTEM       HGR        HNPO       HTNP       NPHI       NPOR      QCPMT    RHGE_WALK2    TENS       TNPH    WANH_WALK2 WCAR_WALK2 WCLA_WALK2 WCOA_WALK2 WEVA_WALK2 WPYR_WALK2 WQFM_WALK2 WSID_WALK2
#
~A  
   8456.0000  1321.7490    26.8977    27.5649   218.9178     0.0080     0.0579     0.1750     0.0617    13.8618     0.0712     0.0003     0.0018   139.8127    57.6968     0.9195     3.0927   157.1609   130.1520   215.9778   159.4172     0.1162     0.0577     0.0849     0.0958     0.4713     2.7867  2759.0000     0.0581     0.0000     0.6411     0.3066     0.0000     0.0000     0.0006     0.0000     0.0517
   8456.5000  1321.7490    27.3516    27.1564   218.9178     0.0079     0.0638     0.1720     0.0601     7.7840     0.0827     0.0163     0.0028   142.1366    58.4772     0.9486     3.0927   159.7732   131.8835   216.1575   157.4221     0.0477     0.0525     0.0749     0.0234     0.0804     2.8024  2790.0000     0.0534     0.0000     0.5973     0.3595     0.0000     0.0000     0.0292     0.0000     0.0140
   8457.0000  1316.7721    28.8093    29.6907   218.9178     0.0080     0.0676     0.1676     0.0601     6.5869     0.0900     0.0214     0.0034   140.0305    58.4772     0.9662     3.0927   157.4058   136.8330   216.1575   162.8779     0.0561     0.0578     0.0291     0.0713     0.0900     2.8078  2806.0000     0.0586     0.0000     0.5680     0.3930     0.0000     0.0000     0.0385     0.0000     0.0004
   8457.5000  1316.7721    32.8938    28.6017   218.9178     0.0074     0.0690     0.1630     0.0590     7.1433     0.0927     0.0106     0.0025   130.6063    57.6968     0.8938     3.0927   146.8122   130.1731   216.1575   151.6854     0.0273     0.0357     0.0255     0.0164     0.3045     2.7919  2773.0000     0.0353     0.0000     0.5585     0.4068     0.0000     0.0000     0.0191     0.0000     0.0156
   8458.0000  1316.7721    34.2604    28.7198   218.9178     0.0073     0.0658     0.1780     0.0583     8.4869     0.0866     0.0000     0.0017   118.1880    57.6968     0.8862     3.0927   132.8531   117.5773   216.1575   125.9883     0.0135     0.0310     0.0176     0.0066     0.9180     2.7810  2767.0000     0.0309     0.0000     0.5844     0.3791     0.0000     0.0000     0.0000     0.0000     0.0365
   8458.5000  1321.7490    34.7142    28.9921   218.9178     0.0073     0.0696     0.1831     0.0540     7.8327     0.0940     0.0000     0.0009   114.2079    57.6968     0.8744     3.0927   128.3791   113.3335   216.1575   120.6780     0.0352     0.0302     0.0659     0.1385     0.7919     2.7739  2770.0000     0.0304     0.0000     0.5595     0.4170     0.0000     0.0000     0.0000     0.0000     0.0236
   8459.0000  1321.7490    32.8987    30.6261   218.9178     0.0076     0.0766     0.1815     0.0504     4.6755     0.1073     0.0000     0.0000   120.8277    57.6968     0.8583     3.0927   135.8203   118.5740   216.1575   138.3328     0.0248     0.0424     0.0775     0.0322     0.8948     2.7669  2800.0000     0.0438     0.0000     0.4653     0.4878     0.0000     0.0000     0.0000     0.0391     0.0077
   8459.5000  1316.7721    28.3129    29.3756   218.9178     0.0080     0.0788     0.1690     0.0481     5.4697     0.1284     0.0000     0.0000   129.4252    57.6968     0.8519     3.2979   145.4845   125.3925   216.1575   148.3107     0.0399     0.0578     0.0853     0.0604     1.1515     2.7607  2846.0000     0.0597     0.0000     0.3797     0.5078     0.0000     0.0000     0.0000     0.1123     0.0001
   8460.0000  1316.7721    27.6322    31.9621   218.9178     0.0085     0.0793     0.1634     0.0478     6.2665     0.1348     0.0045     0.0000   132.0588    57.6968     0.8524     3.3353   148.4450   125.1797   216.1575   149.3825     0.0377     0.0748     0.0894     0.0328     1.1903     2.7643  2827.0000     0.0772     0.0000     0.3646     0.5116     0.0000     0.0000     0.0083     0.1155     0.0000
   8460.5000  1316.7721    25.1362    31.6875   218.9178     0.0090     0.0826     0.1627     0.0494     7.4817     0.1301     0.0076     0.0000   127.8757    57.6968     0.8643     3.1715   143.7428   124.8617   216.1575   147.5363     0.1456     0.0926     0.1044     0.1323     0.1648     2.7708  2743.0000     0.0935     0.0000     0.3627     0.5406     0.0000     0.0000     0.0143     0.0824     0.0000
   8461.0000  1321.7490    24.6607    32.2524   218.9178     0.0092     0.0781     0.1700     0.0516     6.0521     0.1102     0.0175     0.0025   124.3617    57.6968     0.9242     3.0406   139.7928   122.1099   216.1575   133.7986     0.1035     0.1002     0.1200     0.1135     0.0000     2.7877  2789.0000     0.1009     0.0000     0.4774     0.4906     0.0000     0.0000     0.0320     0.0000     0.0000
   8461.5000  1316.7721    23.7531    31.0269   218.9178     0.0092     0.0673     0.1725     0.0575     6.9402     0.0894     0.0169     0.0040   119.0996    57.6968     1.0077     3.0730   133.8777   118.7324   216.1575   137.6733     0.0794     0.1016     0.0802     0.0988     0.0739     2.7984  2804.0000     0.1009     0.0000     0.5735     0.3924     0.0000     0.0000     0.0306     0.0000     0.0035
   8462.0000  1316.7721    28.7454    31.4605   218.9178     0.0083     0.0570     0.1832     0.0634    12.2930     0.0695     0.0147     0.0048   122.5128    57.6968     1.0612     3.2633   137.7145   114.0109   216.1575   129.9161     0.0517     0.0679     0.0640     0.0638     0.3566     2.8090  2791.0000     0.0678     0.0000     0.6451     0.2978     0.0000     0.0000     0.0259     0.0000     0.0313
   8462.5000  1316.7721    32.2132    32.4136   218.9178     0.0079     0.0599     0.1779     0.0610    11.3726     0.0751     0.0143     0.0031   120.6973    57.6968     1.0105     3.2780   135.6737   113.0097   216.1575   146.0157     0.0722     0.0550     0.0470     0.0453     0.9802     2.8029  2805.0000     0.0545     0.0000     0.6259     0.3247     0.0000     0.0000     0.0254     0.0000     0.0239
   8463.0000  1316.7721    32.4430    31.7348   218.9178     0.0078     0.0608     0.1818     0.0577     8.6709     0.0769     0.0190     0.0030   117.5866    57.6968     0.9762     3.0914   132.1770   111.1276   216.1575   130.9077     0.0087     0.0509     0.0827     0.0667     0.0000     2.8027  2742.0000     0.0505     0.0000     0.6232     0.3347     0.0000     0.0000     0.0340     0.0000     0.0081
   8463.5000  1316.7721    28.8120    32.3953   218.9178     0.0084     0.0608     0.1875     0.0546     3.8251     0.0768     0.0285     0.0029   111.9221    57.6968     0.9445     3.0008   125.8096   113.6774   216.1575   119.5358     0.0895     0.0722     0.1115     0.0543     0.0000     2.8093  2789.0000     0.0722     0.0000     0.6179     0.3315     0.0000     0.0000     0.0507     0.0000     0.0000
   8464.0000  1316.7721    23.5928    31.5784   218.9178     0.0093     0.0514     0.2076     0.0526     7.6858     0.0588     0.0218     0.0036   112.7935    57.6968     0.8858     3.1159   126.7892   116.8373   216.1575   126.9034     0.1012     0.1056     0.1142     0.1376     0.0000     2.8010  2805.0000     0.1060     0.0000     0.7009     0.2555     0.0000     0.0000     0.0391     0.0000     0.0045
   8464.5000  1316.7721    24.2707    31.9868   218.9178     0.0092     0.0483     0.2230     0.0505    12.5874     0.0526     0.0116     0.0034   116.5578    57.6968     0.8551     3.2112   131.0206   118.2984   216.1575   134.1202     0.0848     0.1015     0.0873     0.0795     0.6410     2.7878  2759.0000     0.1026     0.0000     0.7284     0.2289     0.0000     0.0000     0.0208     0.0000     0.0219
   8465.0000  1316.7721    26.5399    31.0337   218.9178     0.0086     0.0539     0.2177     0.0499    15.0807     0.0636     0.0012     0.0031   122.0792    57.6968     0.8365     3.2432   137.2271   120.7596   216.1575   131.8402     0.1216     0.0782     0.0551     0.0873     0.8713     2.7735  2789.0000     0.0794     0.0000     0.6865     0.2792     0.0000     0.0000     0.0021     0.0000     0.0322
   8465.5000  1316.7721    31.5321    31.9849   218.9178     0.0079     0.0622     0.1940     0.0541    13.1493     0.0795     0.0009     0.0026   123.1685    57.6968     0.8593     3.0219   138.4515   121.7731   216.1575   145.2344     0.0442     0.0548     0.0433     0.0601     0.5135     2.7769  2739.0000     0.0558     0.0000     0.6177     0.3497     0.0000     0.0000     0.0017     0.0000     0.0310
