~VERSION INFORMATION
VERS.           1.2   :CWLS Log ASCII Standard - VERSION 1.2
WRAP.           NO    :One Line per depth step
PROD.  Schlumberger   :LAS Producer
PROG.  DLIS to ASCII 17C0-152                          :LAS Program name and version
CREA.        2010/11/19 02:18                          :LAS Creation date {YYYY/MM/DD hh:mm}
DLIS_CREA.  2010-Nov-18 21:51                          :DLIS Creation date and time {YYYY-MMM-DD hh:mm}
SOURCE.     c799ad9c-fb3a-46c4-856c-9f94c6b0213d       :DLIS File Name
#--------------------------------------------------
~WELL INFORMATION
#MNEM.UNIT      DATA             DESCRIPTION
#---- ------ --------------   -----------------------------
STRT .F      8904.0000       :START DEPTH     
STOP .F      9132.5000       :STOP DEPTH     
STEP .F       0.5000         :STEP       
NULL .          -999.25      :NULL VALUE
COMP .                 COMPANY:  Wellstar Corporation               
WELL .                    WELL:  Silver Spur Minerals 35-2          
FLD  .                   FIELD:  Wildcat                            
LOC  .                LOCATION:  Sec.35, T8N, R78W                  
CNTY .                  COUNTY:  Jackson                            
STAT .                   STATE:  Colorado                           
CTRY .                 COUNTRY:                                     
SRVC .         SERVICE COMPANY:  Schlumberger                       
API  .              API NUMBER:  05-057-06490-0100                  
DATE .                LOG DATE:  18-Nov-2010
UWI  .          UNIQUE WELL ID:                                     
#-----------------------------------------------------------------------------
~PARAMETER INFORMATION
#MNEM.UNIT    VALUE                      DESCRIPTION
#---- -----   --------------------       ------------------------
CN   .        Wellstar Corporation       :Company Name
WN   .        Silver Spur Minerals 35-2  :Well Name
FN   .        Wildcat                    :Field Name
FL   .        Sec.35  T8N  R78W          :Field Location
FL1  .        SHL  1996' FSL X 655' FEL NESE :Field Location Line 1
COUN .        Jackson                    :County or Rig Name
STAT .        Colorado                   :State or Province
NATI .                                   :Nation
DATE .        18-Nov-2010                :Date as Month-Day-Year
APIN .        05-057-06490-0100          :API Serial Number
SECT .        35                         :Section
TOWN .        8N                         :Township
RANG .        78W                        :Range
DMF  .        Kelly Bushing              :Drilling Measured From
LMF  .        Kelly Bushing              :Log Measured From
PDAT .        Ground Level               :Permanent Datum
ENGI .        Philip Grant               :Engineer's Name
WITN .        Jacky Burch                :Witness's Name
LATI .                                   :Latitude
LONG .                                   :Longitude
LUL  .        Fort Morgan  CO            :Logging Unit Location
LUN  .              3021                 :Logging Unit Number
RUN  .        1                          :Run Number
SON  .        BE0K-00102                 :Service Order Number
BHT  .DEGF     211.99986                 :Bottom Hole Temperature (used in calculations)
BS   .IN         6.12500                 :Bit Size
DFD  .LB/G       8.80000                 :Drilling Fluid Density
DFV  .S         28.00000                 :Drilling Fluid Viscosity
DFL  .                                   :Drilling Fluid Loss
RMFS .OHMM       0.64200                 :Resistivity of Mud Filtrate Sample
EKB  .F       8549.00000                 :Elevation of Kelly Bushing
EGL  .F       8534.00000                 :Elevation of Ground Level
BLI  .F       9108.00000                 :Bottom Log Interval
BSAL .PPM     38000.00000                :Borehole Salinity
FLEV .                                   :Fluid Level
MCST .DEGF      83.57200                 :Mud Cake Sample Temperature
MFST .DEGF      83.57200                 :Mud Filtrate Sample Temperature
MRT  .DEGF     217.00000                 :Maximum Recorded Temperature
MST  .DEGF      83.57200                 :Mud Sample Temperature
RMCS .OHMM       1.28400                 :Resistivity of Mud Cake Sample
RMS  .OHMM       0.85600                 :Resistivity of Mud Sample
RW   .OHMM       1.00000                 :Resistivity of Connate Water
TDD  .F       8610.00000                 :Total Depth - Driller
TDL  .F       9116.00000                 :Total Depth - Logger
TLI  .F       8482.00000                 :Top Log Interval
HIDE .        Elemental Capture Spectroscopy :Header Identifier
MATR .        LIME                       :Rock Matrix for Neutron Porosity Corrections
FNUM .           1.00000                 :Form Factor Numerator
FEXP .           2.00000                 :Form Factor Exponent
DFT  .        KCl  Mud                   :Drilling Fluid Type
DFPH .           9.80000                 :Drilling Fluid PH
MCSS .        Calculated                 :Mud Cake Sample Source
MFSS .        Calculated                 :Mud Filtrate Sample Source
MSS  .        AIT bottom nose            :Mud Sample Source
OS1  .        None                       :Other Services Line 1
OS2  .                                   :Other Services Line 2
OS3  .                                   :Other Services Line 3
OS4  .                                   :Other Services Line 4
OS5  .                                   :Other Services Line 5
R1   .        Tool run as per tool sketch. :Remark Line 1
R2   .                                   :Remark Line 2
R3   .        This is the first log in hole. :Remark Line 3
R4   .                                   :Remark Line 4
R5   .        Data may be affected by hole rugosity. :Remark Line 5
R6   .                                   :Remark Line 6
R7   .                                   :Remark Line 7
R8   .                                   :Remark Line 8
TCS  .        11 00                      :Time Circulation Stopped
TLAB .                                   :Time Logger At Bottom
NMT  .        NOBARITE                   :HILT Nuclear Mud Type
EPD  .F         8534.000000              :Elevation of Permanent Datum above Mean Sea Level
APD  .F          15.000000               :Elevation of Depth Reference (LMF) above Permanent Datum
#-----------------------------------------------------------------------------
~CURVE INFORMATION
#MNEM.UNIT   API CODE                                  DESCRIPTION
#---- -----  --------                                  -----------------------
DEPT .F                                                :DEPTH (BOREHOLE) {F12.4}
CDF  .LBF                                              :Calibrated Downhole Force {F11.4}
CFTC .HZ                                               :Corrected Far Thermal Counting Rate {F11.4}
CNTC .HZ                                               :Corrected Near Thermal Counting Rate {F11.4}
CTEM .DEGF                                             :Cartridge Temperature {F11.4}
DNPH .CFCF                                             :Delta Thermal Neutron Porosity {F11.4}
DWAL_WALK2.                                            :Dry Weight Fraction Pseudo Aluminum (SpectroLith WALK2 Model) {F11.4}
DWCA_WALK2.                                            :Dry Weight Fraction Calcium (SpectroLith WALK2 Model) {F11.4}
DWFE_WALK2.                                            :Dry Weight Fraction Iron + 0.14 Aluminum (SpectroLith WALK2 Model) {F11.4}
DWGD_WALK2.PPM                                         :Dry Weight Fraction Gadolinium (SpectroLith WALK2 Model) {F11.4}
DWSI_WALK2.                                            :Dry Weight Fraction Silicon (SpectroLith WALK2 Model) {F11.4}
DWSU_WALK2.                                            :Dry Weight Fraction Sulfur (SpectroLith WALK2 Model) {F11.4}
DWTI_WALK2.                                            :Dry Weight Fraction Titanium (SpectroLith WALK2 Model) {F11.4}
ECGR .GAPI                                             :Environmentally Corrected Gamma-Ray {F11.4}
ECST .DEGF                                             :ECS Temperature {F11.4}
ESUF_WALK2.                                            :Elemental Statistical Uncertainty Factor (SpectroLith WALK2 Model) {F11.4}
GDEV .DEG                                              :HGNS Deviation {F11.4}
GR   .GAPI                                             :Gamma-Ray {F11.4}
GR_EDTC.GAPI                                           :EDTC Gamma Ray {F11.4}
GTEM .DEGF                                             :Generalized Borehole Temperature {F11.4}
HGR  .GAPI                                             :HiRes Gamma-Ray {F11.4}
HNPO .CFCF                                             :HiRes Enhanced Thermal Neutron Porosity {F11.4}
HTNP .CFCF                                             :HiRes Thermal Neutron Porosity {F11.4}
NPHI .CFCF                                             :Thermal Neutron Porosity (Ratio Method) {F11.4}
NPOR .CFCF                                             :Enhanced Thermal Neutron Porosity {F11.4}
QCPMT.                                                 :Photomultiplier Tube Quality Control {F11.4}
RHGE_WALK2.G/C3                                        :Matrix Density from Elemental Concentrations (SpectroLith WALK2 Model) {F11.4}
TENS .LBF                                              :Cable Tension {F11.4}
TNPH .CFCF                                             :Thermal Neutron Porosity {F11.4}
WANH_WALK2.                                            :Dry Weight Fraction Anhydrite/Gypsum (SpectroLith WALK2 Model) {F11.4}
WCAR_WALK2.                                            :Dry Weight Fraction Carbonate (SpectroLith WALK2 Model) {F11.4}
WCLA_WALK2.                                            :Dry Weight Fraction Clay (SpectroLith WALK2 Model) {F11.4}
WCOA_WALK2.                                            :Dry Weight Fraction Coal (SpectroLith WALK2 Model) {F11.4}
WEVA_WALK2.                                            :Dry Weight Fraction Salt (SpectroLith WALK2 Model) {F11.4}
WPYR_WALK2.                                            :Dry Weight Fraction Pyrite (SpectroLith WALK2 Model) {F11.4}
WQFM_WALK2.                                            :Dry Weight Fraction Quartz+Feldspar+Mica (QFM) (SpectroLith WALK2 Model) {F11.4}
WSID_WALK2.                                            :Dry Weight Fraction Siderite (SpectroLith WALK2 Model) {F11.4}
#-----------------------------------------------------------------------------
# 
#      DEPT        CDF        CFTC       CNTC       CTEM       DNPH    DWAL_WALK2 DWCA_WALK2 DWFE_WALK2 DWGD_WALK2 DWSI_WALK2 DWSU_WALK2 DWTI_WALK2    ECGR       ECST    ESUF_WALK2    GDEV        GR      GR_EDTC      GTEM       HGR        HNPO       HTNP       NPHI       NPOR      QCPMT    RHGE_WALK2    TENS       TNPH    WANH_WALK2 WCAR_WALK2 WCLA_WALK2 WCOA_WALK2 WEVA_WALK2 WPYR_WALK2 WQFM_WALK2 WSID_WALK2
#
~A  
# ...
   8994.0000  1598.6836    36.8898    31.1154   209.0355     0.0073     0.0473     0.1022     0.0279     5.1562     0.2640     0.0028     0.0017   142.1780    53.0147     0.4924     6.7562   159.8198   117.0382   217.5947   157.0179     0.1053     0.0298     0.0383     0.0507     0.0000     2.7151  3067.0000     0.0313     0.0000     0.2001     0.2310     0.0000     0.0000     0.0053     0.5636     0.0000
   8994.5000  1603.6605    37.3279    32.4205   209.0355     0.0074     0.0472     0.1010     0.0277     4.6069     0.2658     0.0039     0.0016   141.7613    53.0147     0.4892     6.8885   159.3513   118.2840   217.5947   160.2855    -0.0039     0.0345     0.0420     0.0271     0.0000     2.7158  3005.0000     0.0347     0.0000     0.1966     0.2300     0.0000     0.0000     0.0073     0.5661     0.0000
   8995.0000  1598.6836    35.1644    32.0285   209.0355     0.0076     0.0472     0.0876     0.0281     3.1943     0.2811     0.0000     0.0019   140.5234    52.6245     0.5170     6.7889   157.9598   114.6697   217.5947   160.5874     0.1174     0.0408     0.0691     0.0770     0.0000     2.7096  2959.0000     0.0407     0.0000     0.1607     0.2295     0.0000     0.0000     0.0000     0.6098     0.0000
   8995.5000  1598.6836    32.5596    33.4609   209.0355     0.0080     0.0487     0.0692     0.0288     4.9525     0.3000     0.0000     0.0025   141.7333    51.8441     0.5900     6.7389   159.3199   108.1135   217.5947   152.5860     0.0459     0.0577     0.0755     0.0182     0.2963     2.7078  2996.0000     0.0575     0.0000     0.1112     0.2434     0.0000     0.0000     0.0000     0.6454     0.0000
   8996.0000  1598.6836    31.4739    35.0243   209.0355     0.0083     0.0498     0.0647     0.0292     5.5630     0.3035     0.0000     0.0032   141.2680    53.0147     0.6292     6.8554   158.7969   107.1569   217.5947   164.4274     0.0903     0.0708     0.0752     0.1053     0.5727     2.7078  2968.0000     0.0700     0.0000     0.0991     0.2530     0.0000     0.0000     0.0000     0.6479     0.0000
   8996.5000  1603.6605    31.0288    35.4149   209.0355     0.0084     0.0485     0.0752     0.0282     4.9757     0.2938     0.0000     0.0036   143.4091    53.0147     0.6490     6.8309   161.2037   109.6393   217.5947   159.5807     0.0872     0.0757     0.0652     0.0759     0.3313     2.7077  2952.0000     0.0743     0.0000     0.1272     0.2413     0.0000     0.0000     0.0000     0.6315     0.0000
   8997.0000  1603.6605    32.3348    33.8515   209.0355     0.0081     0.0499     0.0853     0.0289     1.3756     0.2797     0.0000     0.0041   144.8136    53.0147     0.6406     6.7789   162.7824   112.1661   217.5947   160.7409     0.0315     0.0600     0.0320     0.0224     0.4938     2.7106  3030.0000     0.0603     0.0000     0.1545     0.2532     0.0000     0.0000     0.0000     0.5923     0.0000
   8997.5000  1603.6605    34.1609    33.2280   209.0355     0.0078     0.0505     0.0892     0.0292     0.9657     0.2742     0.0000     0.0042   144.4607    53.0147     0.6521     6.8358   162.3857   113.0097   217.5947   169.5991     0.0457     0.0489     0.0213     0.0799     0.1243     2.7119  2996.0000     0.0495     0.0000     0.1648     0.2588     0.0000     0.0000     0.0000     0.5764     0.0000
   8998.0000  1603.6605    37.5565    32.1869   209.0355     0.0074     0.0526     0.0850     0.0305     2.6110     0.2752     0.0000     0.0041   142.7783    54.1852     0.6420     6.8938   160.4946   111.3476   217.5947   158.9756    -0.0281     0.0322     0.0215     0.0244     0.1196     2.7137  2901.0000     0.0331     0.0000     0.1537     0.2771     0.0000     0.0000     0.0000     0.5693     0.0000
   8998.5000  1608.2821    37.7698    30.7515   209.0355     0.0072     0.0496     0.0777     0.0288     4.7177     0.2890     0.0000     0.0039   139.3438    53.4048     0.6374     6.9347   156.6339   110.1014   217.5947   154.3110     0.0213     0.0270     0.0468     0.0520     0.1207     2.7092  2942.0000     0.0273     0.0000     0.1341     0.2508     0.0000     0.0000     0.0000     0.6151     0.0000
   8999.0000  1613.2590    36.3781    32.9680   209.0355     0.0075     0.0472     0.0723     0.0274     3.1376     0.2996     0.0000     0.0038   133.1602    53.0147     0.5879     6.7942   149.6830   109.4089   217.5947   157.2186     0.0848     0.0391     0.0439     0.0583     0.0533     2.7057  3067.0000     0.0400     0.0000     0.1194     0.2301     0.0000     0.0000     0.0000     0.6505     0.0000
   8999.5000  1613.2590    36.2384    31.7938   209.0355     0.0074     0.0458     0.0759     0.0265     2.0929     0.2978     0.0000     0.0038   133.0908    53.0147     0.5647     6.8707   149.6050   115.3025   217.4749   137.3533     0.0748     0.0366     0.0518     0.0220     0.1882     2.7047  3037.0000     0.0360     0.0000     0.1292     0.2178     0.0000     0.0000     0.0000     0.6530     0.0000
   9000.0000  1608.2821    36.2422    34.2424   209.0355     0.0077     0.0452     0.0881     0.0264     1.0675     0.2844     0.0000     0.0032   133.5923    53.0147     0.5399     6.9356   150.1687   117.2283   217.2354   153.5319     0.0009     0.0456     0.0448     0.0194     0.1808     2.7066  2931.0000     0.0453     0.0000     0.1621     0.2126     0.0000     0.0000     0.0000     0.6253     0.0000
   9000.5000  1608.2821    35.5872    35.0230   209.0355     0.0078     0.0475     0.0979     0.0279     2.8165     0.2688     0.0000     0.0029   144.1363    53.0147     0.5446     6.7732   162.0211   117.7949   217.2354   159.5848     0.1161     0.0520     0.0714     0.0987     0.4891     2.7110  2984.0000     0.0509     0.0000     0.1883     0.2327     0.0000     0.0000     0.0000     0.5790     0.0000
   9001.0000  1613.2590    32.0957    34.7930   209.0355     0.0082     0.0494     0.0991     0.0290     3.2268     0.2641     0.0000     0.0029   148.1809    53.0147     0.5704     6.8434   166.5676   121.5968   217.2354   173.3772     0.0361     0.0662     0.0589     0.0431     0.4432     2.7133  3011.0000     0.0657     0.0000     0.1916     0.2490     0.0000     0.0000     0.0000     0.5594     0.0000
   9001.5000  1608.2821    31.2271    32.7086   209.0355     0.0081     0.0540     0.0952     0.0317     4.3662     0.2604     0.0000     0.0033   147.1237    53.0147     0.6142     6.9003   165.3792   124.0883   217.2354   167.7636     0.0822     0.0624     0.0534     0.0538     0.3222     2.7176  2944.0000     0.0606     0.0000     0.1811     0.2898     0.0000     0.0000     0.0000     0.5291     0.0000
   9002.0000  1608.2821    31.4442    33.3597   209.0355     0.0081     0.0552     0.0935     0.0324     6.1700     0.2603     0.0000     0.0033   144.6392    53.0147     0.6300     6.8780   162.5864   129.9075   217.2354   155.7415     0.0362     0.0630     0.0299     0.0626     0.0939     2.7187  3008.0000     0.0625     0.0000     0.1766     0.3001     0.0000     0.0000     0.0000     0.5234     0.0000
   9002.5000  1608.2821    32.5515    30.4939   209.0355     0.0077     0.0554     0.0912     0.0327     8.4327     0.2625     0.0000     0.0028   143.5118    53.0147     0.6213     6.7254   161.3190   128.1190   217.2354   164.2008    -0.0019     0.0450     0.0213     0.0523     0.6418     2.7188  2989.0000     0.0447     0.0000     0.1703     0.3019     0.0000     0.0000     0.0000     0.5278     0.0000
   9003.0000  1608.2821    33.6333    28.8011   209.0355     0.0074     0.0563     0.0835     0.0332    10.4928     0.2699     0.0000     0.0029   150.9878    52.2343     0.6443     6.8692   169.7227   132.1331   217.2354   163.9822     0.0181     0.0338     0.0367     0.0196     0.6793     2.7185  2984.0000     0.0334     0.0000     0.1496     0.3098     0.0000     0.0000     0.0000     0.5406     0.0000
   9003.5000  1613.2590    31.8969    29.0312   209.0355     0.0076     0.0575     0.0743     0.0340     9.1178     0.2785     0.0000     0.0030   159.4641    52.2343     0.6419     6.9422   179.2508   131.8560   217.2354   181.4472     0.1710     0.0409     0.0626     0.0726     0.5475     2.7182  2972.0000     0.0411     0.0000     0.1247     0.3203     0.0000     0.0000     0.0000     0.5550     0.0000
