~VERSION INFORMATION
VERS.           1.2   :CWLS Log ASCII Standard - VERSION 1.2
WRAP.           NO    :One Line per depth step
PROD.  Schlumberger   :LAS Producer
PROG.  DLIS to ASCII 17C0-152                          :LAS Program name and version
CREA.        2010/11/19 02:18                          :LAS Creation date {YYYY/MM/DD hh:mm}
DLIS_CREA.  2010-Nov-18 21:51                          :DLIS Creation date and time {YYYY-MMM-DD hh:mm}
SOURCE.     c799ad9c-fb3a-46c4-856c-9f94c6b0213d       :DLIS File Name
#--------------------------------------------------
~WELL INFORMATION
#MNEM.UNIT      DATA             DESCRIPTION
#---- ------ --------------   -----------------------------
STRT .F      8904.0000       :START DEPTH     
STOP .F      9132.5000       :STOP DEPTH     
STEP .F       0.5000         :STEP       
NULL .          -999.25      :NULL VALUE
COMP .                 COMPANY:  Wellstar Corporation               
WELL .                    WELL:  Silver Spur Minerals 35-2          
FLD  .                   FIELD:  Wildcat                            
LOC  .                LOCATION:  Sec.35, T8N, R78W                  
CNTY .                  COUNTY:  Jackson                            
STAT .                   STATE:  Colorado                           
CTRY .                 COUNTRY:                                     
SRVC .         SERVICE COMPANY:  Schlumberger                       
API  .              API NUMBER:  05-057-06490-0100                  
DATE .                LOG DATE:  18-Nov-2010
UWI  .          UNIQUE WELL ID:                                     
#-----------------------------------------------------------------------------
~PARAMETER INFORMATION
#MNEM.UNIT    VALUE                      DESCRIPTION
#---- -----   --------------------       ------------------------
CN   .        Wellstar Corporation       :Company Name
WN   .        Silver Spur Minerals 35-2  :Well Name
FN   .        Wildcat                    :Field Name
FL   .        Sec.35  T8N  R78W          :Field Location
FL1  .        SHL  1996' FSL X 655' FEL NESE :Field Location Line 1
COUN .        Jackson                    :County or Rig Name
STAT .        Colorado                   :State or Province
NATI .                                   :Nation
DATE .        18-Nov-2010                :Date as Month-Day-Year
APIN .        05-057-06490-0100          :API Serial Number
SECT .        35                         :Section
TOWN .        8N                         :Township
RANG .        78W                        :Range
DMF  .        Kelly Bushing              :Drilling Measured From
LMF  .        Kelly Bushing              :Log Measured From
PDAT .        Ground Level               :Permanent Datum
ENGI .        Philip Grant               :Engineer's Name
WITN .        Jacky Burch                :Witness's Name
LATI .                                   :Latitude
LONG .                                   :Longitude
LUL  .        Fort Morgan  CO            :Logging Unit Location
LUN  .              3021                 :Logging Unit Number
RUN  .        1                          :Run Number
SON  .        BE0K-00102                 :Service Order Number
BHT  .DEGF     211.99986                 :Bottom Hole Temperature (used in calculations)
BS   .IN         6.12500                 :Bit Size
DFD  .LB/G       8.80000                 :Drilling Fluid Density
DFV  .S         28.00000                 :Drilling Fluid Viscosity
DFL  .                                   :Drilling Fluid Loss
RMFS .OHMM       0.64200                 :Resistivity of Mud Filtrate Sample
EKB  .F       8549.00000                 :Elevation of Kelly Bushing
EGL  .F       8534.00000                 :Elevation of Ground Level
BLI  .F       9108.00000                 :Bottom Log Interval
BSAL .PPM     38000.00000                :Borehole Salinity
FLEV .                                   :Fluid Level
MCST .DEGF      83.57200                 :Mud Cake Sample Temperature
MFST .DEGF      83.57200                 :Mud Filtrate Sample Temperature
MRT  .DEGF     217.00000                 :Maximum Recorded Temperature
MST  .DEGF      83.57200                 :Mud Sample Temperature
RMCS .OHMM       1.28400                 :Resistivity of Mud Cake Sample
RMS  .OHMM       0.85600                 :Resistivity of Mud Sample
RW   .OHMM       1.00000                 :Resistivity of Connate Water
TDD  .F       8610.00000                 :Total Depth - Driller
TDL  .F       9116.00000                 :Total Depth - Logger
TLI  .F       8482.00000                 :Top Log Interval
HIDE .        Elemental Capture Spectroscopy :Header Identifier
MATR .        LIME                       :Rock Matrix for Neutron Porosity Corrections
FNUM .           1.00000                 :Form Factor Numerator
FEXP .           2.00000                 :Form Factor Exponent
DFT  .        KCl  Mud                   :Drilling Fluid Type
DFPH .           9.80000                 :Drilling Fluid PH
MCSS .        Calculated                 :Mud Cake Sample Source
MFSS .        Calculated                 :Mud Filtrate Sample Source
MSS  .        AIT bottom nose            :Mud Sample Source
OS1  .        None                       :Other Services Line 1
OS2  .                                   :Other Services Line 2
OS3  .                                   :Other Services Line 3
OS4  .                                   :Other Services Line 4
OS5  .                                   :Other Services Line 5
R1   .        Tool run as per tool sketch. :Remark Line 1
R2   .                                   :Remark Line 2
R3   .        This is the first log in hole. :Remark Line 3
R4   .                                   :Remark Line 4
R5   .        Data may be affected by hole rugosity. :Remark Line 5
R6   .                                   :Remark Line 6
R7   .                                   :Remark Line 7
R8   .                                   :Remark Line 8
TCS  .        11 00                      :Time Circulation Stopped
TLAB .                                   :Time Logger At Bottom
NMT  .        NOBARITE                   :HILT Nuclear Mud Type
EPD  .F         8534.000000              :Elevation of Permanent Datum above Mean Sea Level
APD  .F          15.000000               :Elevation of Depth Reference (LMF) above Permanent Datum
#-----------------------------------------------------------------------------
~CURVE INFORMATION
#MNEM.UNIT   API CODE                                  DESCRIPTION
#---- -----  --------                                  -----------------------
DEPT .F                                                :DEPTH (BOREHOLE) {F12.4}
CDF  .LBF                                              :Calibrated Downhole Force {F11.4}
CFTC .HZ                                               :Corrected Far Thermal Counting Rate {F11.4}
CNTC .HZ                                               :Corrected Near Thermal Counting Rate {F11.4}
CTEM .DEGF                                             :Cartridge Temperature {F11.4}
DNPH .CFCF                                             :Delta Thermal Neutron Porosity {F11.4}
DWAL_WALK2.                                            :Dry Weight Fraction Pseudo Aluminum (SpectroLith WALK2 Model) {F11.4}
DWCA_WALK2.                                            :Dry Weight Fraction Calcium (SpectroLith WALK2 Model) {F11.4}
DWFE_WALK2.                                            :Dry Weight Fraction Iron + 0.14 Aluminum (SpectroLith WALK2 Model) {F11.4}
DWGD_WALK2.PPM                                         :Dry Weight Fraction Gadolinium (SpectroLith WALK2 Model) {F11.4}
DWSI_WALK2.                                            :Dry Weight Fraction Silicon (SpectroLith WALK2 Model) {F11.4}
DWSU_WALK2.                                            :Dry Weight Fraction Sulfur (SpectroLith WALK2 Model) {F11.4}
DWTI_WALK2.                                            :Dry Weight Fraction Titanium (SpectroLith WALK2 Model) {F11.4}
ECGR .GAPI                                             :Environmentally Corrected Gamma-Ray {F11.4}
ECST .DEGF                                             :ECS Temperature {F11.4}
ESUF_WALK2.                                            :Elemental Statistical Uncertainty Factor (SpectroLith WALK2 Model) {F11.4}
GDEV .DEG                                              :HGNS Deviation {F11.4}
GR   .GAPI                                             :Gamma-Ray {F11.4}
GR_EDTC.GAPI                                           :EDTC Gamma Ray {F11.4}
GTEM .DEGF                                             :Generalized Borehole Temperature {F11.4}
HGR  .GAPI                                             :HiRes Gamma-Ray {F11.4}
HNPO .CFCF                                             :HiRes Enhanced Thermal Neutron Porosity {F11.4}
HTNP .CFCF                                             :HiRes Thermal Neutron Porosity {F11.4}
NPHI .CFCF                                             :Thermal Neutron Porosity (Ratio Method) {F11.4}
NPOR .CFCF                                             :Enhanced Thermal Neutron Porosity {F11.4}
QCPMT.                                                 :Photomultiplier Tube Quality Control {F11.4}
RHGE_WALK2.G/C3                                        :Matrix Density from Elemental Concentrations (SpectroLith WALK2 Model) {F11.4}
TENS .LBF                                              :Cable Tension {F11.4}
TNPH .CFCF                                             :Thermal Neutron Porosity {F11.4}
WANH_WALK2.                                            :Dry Weight Fraction Anhydrite/Gypsum (SpectroLith WALK2 Model) {F11.4}
WCAR_WALK2.                                            :Dry Weight Fraction Carbonate (SpectroLith WALK2 Model) {F11.4}
WCLA_WALK2.                                            :Dry Weight Fraction Clay (SpectroLith WALK2 Model) {F11.4}
WCOA_WALK2.                                            :Dry Weight Fraction Coal (SpectroLith WALK2 Model) {F11.4}
WEVA_WALK2.                                            :Dry Weight Fraction Salt (SpectroLith WALK2 Model) {F11.4}
WPYR_WALK2.                                            :Dry Weight Fraction Pyrite (SpectroLith WALK2 Model) {F11.4}
WQFM_WALK2.                                            :Dry Weight Fraction Quartz+Feldspar+Mica (QFM) (SpectroLith WALK2 Model) {F11.4}
WSID_WALK2.                                            :Dry Weight Fraction Siderite (SpectroLith WALK2 Model) {F11.4}
#-----------------------------------------------------------------------------
# 
#      DEPT        CDF        CFTC       CNTC       CTEM       DNPH    DWAL_WALK2 DWCA_WALK2 DWFE_WALK2 DWGD_WALK2 DWSI_WALK2 DWSU_WALK2 DWTI_WALK2    ECGR       ECST    ESUF_WALK2    GDEV        GR      GR_EDTC      GTEM       HGR        HNPO       HTNP       NPHI       NPOR      QCPMT    RHGE_WALK2    TENS       TNPH    WANH_WALK2 WCAR_WALK2 WCLA_WALK2 WCOA_WALK2 WEVA_WALK2 WPYR_WALK2 WQFM_WALK2 WSID_WALK2
#
~A  
# ...
   9004.0000  1608.2821    31.6798    30.7247   209.0355     0.0078     0.0591     0.0662     0.0349     7.0501     0.2851     0.0000     0.0030   163.4926    53.0147     0.6458     6.8029   183.7791   135.4451   217.2354   193.4570     0.0427     0.0501     0.0652     0.0892     0.2697     2.7185  2882.0000     0.0495     0.0000     0.1031     0.3340     0.0000     0.0000     0.0000     0.5628     0.0000
   9004.5000  1613.2590    32.9049    30.4649   209.0355     0.0076     0.0585     0.0618     0.0347     5.2451     0.2911     0.0000     0.0026   162.7710    53.0147     0.6239     6.8074   182.9680   137.8295   217.2354   176.7485     0.0488     0.0444     0.0452     0.0214     0.2764     2.7175  2963.0000     0.0431     0.0000     0.0911     0.3293     0.0000     0.0000     0.0000     0.5795     0.0000
   9005.0000  1618.2361    36.1607    32.2863   209.0355     0.0075     0.0611     0.0411     0.0362     5.5544     0.3107     0.0000     0.0027   160.0436    53.0147     0.6518     7.0568   179.9021   140.1697   217.2354   177.7049     0.0424     0.0390     0.0225     0.0118     0.1619     2.7168  3011.0000     0.0381     0.0000     0.0356     0.3516     0.0000     0.0000     0.0000     0.6128     0.0000
   9005.5000  1618.2361    36.8121    32.5485   209.0355     0.0075     0.0668     0.0159     0.0392     6.7721     0.3303     0.0022     0.0032   167.7033    53.0147     0.6917     6.7965   188.5123   143.0324   216.9958   183.9292     0.0796     0.0367     0.0232     0.0524     0.0000     2.7207  2963.0000     0.0369     0.0000     0.0000     0.4022     0.0000     0.0000     0.0042     0.5936     0.0000
   9006.0000  1613.2590    36.2382    31.5067   209.0355     0.0074     0.0721     0.0000     0.0422     7.2261     0.3396     0.0120     0.0041   180.1187    53.0147     0.7380     6.8182   202.4683   152.4674   216.8761   203.4656     0.0329     0.0346     0.0167     0.0226     0.1292     2.7351  2890.0000     0.0349     0.0000     0.0000     0.4485     0.0000     0.0000     0.0225     0.5290     0.0000
   9006.5000  1613.2590    34.5052    28.6410   209.0355     0.0073     0.0771     0.0000     0.0451     5.7843     0.3307     0.0194     0.0045   189.7037    51.8441     0.7553     6.8623   213.2425   155.6531   216.8761   220.0348     0.0951     0.0294     0.0184     0.0423     0.1845     2.7491  2966.0000     0.0298     0.0000     0.0000     0.4929     0.0000     0.0000     0.0362     0.4709     0.0000
   9007.0000  1618.2361    33.4164    27.7288   209.0355     0.0073     0.0779     0.0169     0.0435     3.5146     0.3115     0.0220     0.0045   187.4803    51.8441     0.7474     6.8018   210.7433   154.5757   216.8761   216.8101    -0.0029     0.0290     0.0294     0.0206     0.0415     2.7520  2966.0000     0.0298     0.0000     0.0000     0.5001     0.0000     0.0000     0.0412     0.4587     0.0000
   9007.5000  1618.2361    32.6861    28.1969   209.0355     0.0074     0.0693     0.0518     0.0389     2.8242     0.2857     0.0137     0.0038   182.5490    51.8441     0.6803     6.9490   205.2001   144.5866   216.8761   195.4447     0.1197     0.0337     0.0361     0.0700     0.0000     2.7397  2931.0000     0.0344     0.0000     0.0642     0.4237     0.0000     0.0000     0.0257     0.4863     0.0000
   9008.0000  1618.2361    33.9890    28.9785   209.0355     0.0074     0.0586     0.0753     0.0338     3.4954     0.2760     0.0047     0.0034   172.0091    51.8441     0.6563     6.8713   193.3524   141.8011   216.8761   204.2222     0.0158     0.0322     0.0484     0.0576     0.0194     2.7237  2957.0000     0.0329     0.0000     0.1276     0.3301     0.0000     0.0000     0.0088     0.5334     0.0000
   9008.5000  1618.2361    32.1748    28.2925   209.0355     0.0075     0.0528     0.0909     0.0312     5.1848     0.2675     0.0000     0.0026   166.9894    53.0147     0.6394     6.7422   187.7099   134.9790   216.8761   180.5606    -0.0086     0.0361     0.0266    -0.0027     0.1144     2.7159  2985.0000     0.0368     0.0000     0.1695     0.2789     0.0000     0.0000     0.0000     0.5517     0.0000
   9009.0000  1618.2361    34.8589    29.2024   209.0355     0.0073     0.0519     0.0916     0.0309     5.2492     0.2680     0.0000     0.0020   159.2275    53.7950     0.6199     6.9315   178.9848   130.9622   216.8761   179.1482     0.0639     0.0301     0.0245     0.0228     0.0918     2.7156  2969.0000     0.0308     0.0000     0.1713     0.2712     0.0000     0.0000     0.0000     0.5575     0.0000
   9009.5000  1618.2361    35.7275    30.3764   209.0355     0.0073     0.0527     0.0904     0.0314     6.1121     0.2678     0.0007     0.0018   156.1540    53.0147     0.5988     6.9909   175.5299   131.1161   216.8761   177.9652     0.0606     0.0323     0.0275     0.0627     0.0000     2.7171  2921.0000     0.0324     0.0000     0.1682     0.2786     0.0000     0.0000     0.0013     0.5519     0.0000
   9010.0000  1622.8575    40.3635    31.7316   209.0355     0.0071     0.0544     0.0880     0.0319     5.6773     0.2682     0.0045     0.0017   151.9608    51.8441     0.5880     6.8437   170.8165   136.8155   216.8761   170.1420     0.0115     0.0234     0.0378     0.0454     0.0000     2.7221  2966.0000     0.0233     0.0000     0.1616     0.2928     0.0000     0.0000     0.0084     0.5372     0.0000
   9010.5000  1622.8575    39.4995    32.3829   209.0355     0.0072     0.0562     0.0900     0.0324     6.5996     0.2632     0.0074     0.0022   149.5635    51.8441     0.5760     6.8663   168.1216   132.2574   216.8761   164.6184     0.0019     0.0290     0.0332     0.0340     0.0000     2.7268  3009.0000     0.0278     0.0000     0.1671     0.3087     0.0000     0.0000     0.0138     0.5104     0.0000
   9011.0000  1622.8575    39.0611    32.6782   208.9531     0.0073     0.0582     0.0920     0.0339     5.8788     0.2570     0.0052     0.0024   152.8848    51.8441     0.5674     6.9888   171.8551   125.6091   216.8761   169.2799    -0.0264     0.0315     0.0240    -0.0118     0.0261     2.7273  2952.0000     0.0302     0.0000     0.1725     0.3268     0.0000     0.0000     0.0097     0.4911     0.0000
   9011.5000  1622.8575    37.9795    33.7221   208.0043     0.0075     0.0570     0.0955     0.0337     7.2306     0.2545     0.0000     0.0030   159.5964    52.6245     0.5838     6.8419   179.3995   122.9791   216.5168   181.8037     0.0289     0.0382     0.0162     0.0365     0.0364     2.7213  2929.0000     0.0373     0.0000     0.1819     0.3162     0.0000     0.0000     0.0000     0.5018     0.0000
   9012.0000  1618.2361    37.4635    32.3712   207.0590     0.0074     0.0537     0.0951     0.0316     9.2288     0.2610     0.0000     0.0029   160.9348    53.0147     0.6048     6.7847   180.9040   122.5704   216.5168   187.0406     0.0364     0.0335     0.0340     0.0663     0.7746     2.7175  2913.0000     0.0341     0.0000     0.1808     0.2867     0.0000     0.0000     0.0000     0.5324     0.0000
   9012.5000  1622.8575    35.4816    30.8889   207.0590     0.0074     0.0498     0.0960     0.0294    12.9841     0.2668     0.0000     0.0027   153.4612    53.0147     0.6329     6.9419   172.5031   124.5095   216.5168   173.1894     0.0296     0.0347     0.0341     0.0227     1.2014     2.7134  2949.0000     0.0352     0.0000     0.1832     0.2530     0.0000     0.0000     0.0000     0.5638     0.0000
   9013.0000  1627.8346    34.8302    30.3679   207.0590     0.0074     0.0527     0.0830     0.0310    13.6851     0.2769     0.0000     0.0029   147.5485    51.8441     0.6478     6.9505   165.8566   127.6496   216.5168   156.0855     0.0787     0.0349     0.0391     0.0776     1.6378     2.7143  2995.0000     0.0354     0.0000     0.1483     0.2783     0.0000     0.0000     0.0000     0.5734     0.0000
   9013.5000  1627.8346    35.5589    30.7585   207.0590     0.0074     0.0606     0.0714     0.0358    11.6172     0.2764     0.0000     0.0030   143.3811    51.8441     0.6406     6.8480   161.1722   128.4741   216.5168   166.5696    -0.0264     0.0348     0.0268     0.0104     1.0604     2.7211  2927.0000     0.0344     0.0000     0.1170     0.3473     0.0000     0.0000     0.0000     0.5358     0.0000
