~VERSION INFORMATION
VERS.           1.2   :CWLS Log ASCII Standard - VERSION 1.2
WRAP.           NO    :One Line per depth step
PROD.  Schlumberger   :LAS Producer
PROG.  DLIS to ASCII 17C0-152                          :LAS Program name and version
CREA.        2010/11/19 02:18                          :LAS Creation date {YYYY/MM/DD hh:mm}
DLIS_CREA.  2010-Nov-18 22:49                          :DLIS Creation date and time {YYYY-MMM-DD hh:mm}
SOURCE.     d476e3e6-e07a-4d20-b90c-cbd099bd9e21       :DLIS File Name
#--------------------------------------------------
~WELL INFORMATION
#MNEM.UNIT      DATA             DESCRIPTION
#---- ------ --------------   -----------------------------
STRT .F      8456.0000       :START DEPTH     
STOP .F      9128.5000       :STOP DEPTH     
STEP .F       0.5000         :STEP       
NULL .          -999.25      :NULL VALUE
COMP .                 COMPANY:  Wellstar Corporation               
WELL .                    WELL:  Silver Spur Minerals 35-2          
FLD  .                   FIELD:  Wildcat                            
LOC  .                LOCATION:  Sec.35, T8N, R78W                  
CNTY .                  COUNTY:  Jackson                            
STAT .                   STATE:  Colorado                           
CTRY .                 COUNTRY:                                     
SRVC .         SERVICE COMPANY:  Schlumberger                       
API  .              API NUMBER:  05-057-06490-0100                  
DATE .                LOG DATE:  18-Nov-2010
UWI  .          UNIQUE WELL ID:                                     
#-----------------------------------------------------------------------------
~PARAMETER INFORMATION
#MNEM.UNIT    VALUE                      DESCRIPTION
#---- -----   --------------------       ------------------------
CN   .        Wellstar Corporation       :Company Name
WN   .        Silver Spur Minerals 35-2  :Well Name
FN   .        Wildcat                    :Field Name
FL   .        Sec.35  T8N  R78W          :Field Location
FL1  .        SHL  1996' FSL X 655' FEL NESE :Field Location Line 1
COUN .        Jackson                    :County or Rig Name
STAT .        Colorado                   :State or Province
NATI .                                   :Nation
DATE .        18-Nov-2010                :Date as Month-Day-Year
APIN .        05-057-06490-0100          :API Serial Number
SECT .        35                         :Section
TOWN .        8N                         :Township
RANG .        78W                        :Range
DMF  .        Kelly Bushing              :Drilling Measured From
LMF  .        Kelly Bushing              :Log Measured From
PDAT .        Ground Level               :Permanent Datum
ENGI .        Philip Grant               :Engineer's Name
WITN .        Jacky Burch                :Witness's Name
LATI .                                   :Latitude
LONG .                                   :Longitude
LUL  .        Fort Morgan  CO            :Logging Unit Location
LUN  .              3021                 :Logging Unit Number
RUN  .        1                          :Run Number
SON  .        BE0K-00102                 :Service Order Number
BHT  .DEGF     211.99986                 :Bottom Hole Temperature (used in calculations)
BS   .IN         6.12500                 :Bit Size
DFD  .LB/G       8.80000                 :Drilling Fluid Density
DFV  .S         28.00000                 :Drilling Fluid Viscosity
DFL  .                                   :Drilling Fluid Loss
RMFS .OHMM       0.64200                 :Resistivity of Mud Filtrate Sample
EKB  .F       8549.00000                 :Elevation of Kelly Bushing
EGL  .F       8534.00000                 :Elevation of Ground Level
BLI  .F       9108.00000                 :Bottom Log Interval
BSAL .PPM     38000.00000                :Borehole Salinity
FLEV .                                   :Fluid Level
MCST .DEGF      83.57200                 :Mud Cake Sample Temperature
MFST .DEGF      83.57200                 :Mud Filtrate Sample Temperature
MRT  .DEGF     217.00000                 :Maximum Recorded Temperature
MST  .DEGF      83.57200                 :Mud Sample Temperature
RMCS .OHMM       1.28400                 :Resistivity of Mud Cake Sample
RMS  .OHMM       0.85600                 :Resistivity of Mud Sample
RW   .OHMM       1.00000                 :Resistivity of Connate Water
TDD  .F       8610.00000                 :Total Depth - Driller
TDL  .F       9116.00000                 :Total Depth - Logger
TLI  .F       8482.00000                 :Top Log Interval
HIDE .        Elemental Capture Spectroscopy :Header Identifier
MATR .        LIME                       :Rock Matrix for Neutron Porosity Corrections
FNUM .           1.00000                 :Form Factor Numerator
FEXP .           2.00000                 :Form Factor Exponent
DFT  .        KCl  Mud                   :Drilling Fluid Type
DFPH .           9.80000                 :Drilling Fluid PH
MCSS .        Calculated                 :Mud Cake Sample Source
MFSS .        Calculated                 :Mud Filtrate Sample Source
MSS  .        AIT bottom nose            :Mud Sample Source
OS1  .        PEx-HRLA                   :Other Services Line 1
OS2  .        MSIP-FMI                   :Other Services Line 2
OS3  .        HNGS                       :Other Services Line 3
OS4  .                                   :Other Services Line 4
OS5  .                                   :Other Services Line 5
R1   .        Tool run as per tool sketch. :Remark Line 1
R2   .                                   :Remark Line 2
R3   .        This is the first log in hole. :Remark Line 3
R4   .                                   :Remark Line 4
R5   .        Data may be affected by hole rugosity. :Remark Line 5
R6   .                                   :Remark Line 6
R7   .        Matrix Limestone 2.71      :Remark Line 7
R8   .                                   :Remark Line 8
TCS  .        11 00                      :Time Circulation Stopped
TLAB .        9 31                       :Time Logger At Bottom
NMT  .        NOBARITE                   :HILT Nuclear Mud Type
EPD  .F         8534.000000              :Elevation of Permanent Datum above Mean Sea Level
APD  .F          15.000000               :Elevation of Depth Reference (LMF) above Permanent Datum
#-----------------------------------------------------------------------------
~CURVE INFORMATION
#MNEM.UNIT   API CODE                                  DESCRIPTION
#---- -----  --------                                  -----------------------
DEPT .F                                                :DEPTH (BOREHOLE) {F12.4}
CDF  .LBF                                              :Calibrated Downhole Force {F11.4}
CFTC .HZ                                               :Corrected Far Thermal Counting Rate {F11.4}
CNTC .HZ                                               :Corrected Near Thermal Counting Rate {F11.4}
CTEM .DEGF                                             :Cartridge Temperature {F11.4}
DNPH .CFCF                                             :Delta Thermal Neutron Porosity {F11.4}
DWAL_WALK2.                                            :Dry Weight Fraction Pseudo Aluminum (SpectroLith WALK2 Model) {F11.4}
DWCA_WALK2.                                            :Dry Weight Fraction Calcium (SpectroLith WALK2 Model) {F11.4}
DWFE_WALK2.                                            :Dry Weight Fraction Iron + 0.14 Aluminum (SpectroLith WALK2 Model) {F11.4}
DWGD_WALK2.PPM                                         :Dry Weight Fraction Gadolinium (SpectroLith WALK2 Model) {F11.4}
DWSI_WALK2.                                            :Dry Weight Fraction Silicon (SpectroLith WALK2 Model) {F11.4}
DWSU_WALK2.                                            :Dry Weight Fraction Sulfur (SpectroLith WALK2 Model) {F11.4}
DWTI_WALK2.                                            :Dry Weight Fraction Titanium (SpectroLith WALK2 Model) {F11.4}
ECGR .GAPI                                             :Environmentally Corrected Gamma-Ray {F11.4}
ECST .DEGF                                             :ECS Temperature {F11.4}
ESUF_WALK2.                                            :Elemental Statistical Uncertainty Factor (SpectroLith WALK2 Model) {F11.4}
GDEV .DEG                                              :HGNS Deviation {F11.4}
GR   .GAPI                                             :Gamma-Ray {F11.4}
GR_EDTC.GAPI                                           :EDTC Gamma Ray {F11.4}
GTEM .DEGF                                             :Generalized Borehole Temperature {F11.4}
HGR  .GAPI                                             :HiRes Gamma-Ray {F11.4}
HNPO .CFCF                                             :HiRes Enhanced Thermal Neutron Porosity {F11.4}
HTNP .CFCF                                             :HiRes Thermal Neutron Porosity {F11.4}
NPHI .CFCF                                             :Thermal Neutron Porosity (Ratio Method) {F11.4}
NPOR .CFCF                                             :Enhanced Thermal Neutron Porosity {F11.4}
QCPMT.                                                 :Photomultiplier Tube Quality Control {F11.4}
RHGE_WALK2.G/C3                                        :Matrix Density from Elemental Concentrations (SpectroLith WALK2 Model) {F11.4}
TENS .LBF                                              :Cable Tension {F11.4}
TNPH .CFCF                                             :Thermal Neutron Porosity {F11.4}
WANH_WALK2.                                            :Dry Weight Fraction Anhydrite/Gypsum (SpectroLith WALK2 Model) {F11.4}
WCAR_WALK2.                                            :Dry Weight Fraction Carbonate (SpectroLith WALK2 Model) {F11.4}
WCLA_WALK2.                                            :Dry Weight Fraction Clay (SpectroLith WALK2 Model) {F11.4}
WCOA_WALK2.                                            :Dry Weight Fraction Coal (SpectroLith WALK2 Model) {F11.4}
WEVA_WALK2.                                            :Dry Weight Fraction Salt (SpectroLith WALK2 Model) {F11.4}
WPYR_WALK2.                                            :Dry Weight Fraction Pyrite (SpectroLith WALK2 Model) {F11.4}
WQFM_WALK2.                                            :Dry Weight Fraction Quartz+Feldspar+Mica (QFM) (SpectroLith WALK2 Model) {F11.4}
WSID_WALK2.                                            :Dry Weight Fraction Siderite (SpectroLith WALK2 Model) {F11.4}
#-----------------------------------------------------------------------------
# 
#      DEPT        CDF        CFTC       CNTC       CTEM       DNPH    DWAL_WALK2 DWCA_WALK2 DWFE_WALK2 DWGD_WALK2 DWSI_WALK2 DWSU_WALK2 DWTI_WALK2    ECGR       ECST    ESUF_WALK2    GDEV        GR      GR_EDTC      GTEM       HGR        HNPO       HTNP       NPHI       NPOR      QCPMT    RHGE_WALK2    TENS       TNPH    WANH_WALK2 WCAR_WALK2 WCLA_WALK2 WCOA_WALK2 WEVA_WALK2 WPYR_WALK2 WQFM_WALK2 WSID_WALK2
#
~A  
# ...
   8636.0000  1331.3475    36.4595    28.1219   222.8708     0.0071     0.0364     0.2509     0.0209     2.3575     0.1104     0.0058     0.0014   175.6731    57.6968     0.4883     4.5798   197.4710   170.3433   221.9064   196.3749    -0.0248     0.0223     0.0231    -0.0010     0.0000     2.7310  2877.0000     0.0216     0.0000     0.5998     0.1349     0.0000     0.0000     0.0108     0.2545     0.0000
   8636.5000  1331.3475    35.8649    29.1762   222.8708     0.0072     0.0318     0.2576     0.0188     4.0967     0.1102     0.0000     0.0015   172.2880    56.9165     0.5107     4.5753   193.6659   162.2098   221.9064   194.8378     0.0244     0.0284     0.0620     0.0527     0.0487     2.7215  2852.0000     0.0274     0.0000     0.6178     0.0944     0.0000     0.0000     0.0000     0.2877     0.0000
   8637.0000  1336.3246    30.6561    29.9558   222.8708     0.0078     0.0300     0.2486     0.0177     3.6559     0.1239     0.0000     0.0017   171.7322    56.5263     0.5358     4.3649   193.0411   164.2520   221.9064   189.5431     0.0661     0.0524     0.0605     0.0427     0.3867     2.7179  2881.0000     0.0507     0.0000     0.5938     0.0790     0.0000     0.0000     0.0000     0.3272     0.0000
   8637.5000  1336.3246    30.2218    29.3045   222.8708     0.0078     0.0316     0.2301     0.0185     3.0726     0.1428     0.0000     0.0020   172.2879    56.5263     0.5465     4.4501   193.6657   162.1744   221.9064   194.9328     0.0472     0.0503     0.0539     0.0374     0.1352     2.7162  2874.0000     0.0497     0.0000     0.5439     0.0929     0.0000     0.0000     0.0000     0.3631     0.0000
   8638.0000  1331.3475    30.1612    29.6951   222.8708     0.0078     0.0346     0.2138     0.0204     1.3979     0.1564     0.0000     0.0019   176.0397    56.5263     0.5322     4.5784   197.8831   164.3315   221.9064   197.2330     0.0936     0.0510     0.0590     0.0545     0.0621     2.7169  2863.0000     0.0518     0.0000     0.5001     0.1193     0.0000     0.0000     0.0000     0.3805     0.0000
   8638.5000  1336.3246    29.7294    29.3043   222.8708     0.0078     0.0378     0.2079     0.0223     1.8922     0.1576     0.0000     0.0021   171.2979    56.5263     0.5157     4.5504   192.5529   158.8092   221.9064   201.7631     0.0143     0.0517     0.0759     0.0521     0.1845     2.7194  2867.0000     0.0520     0.0000     0.4842     0.1475     0.0000     0.0000     0.0000     0.3683     0.0000
   8639.0000  1336.3246    27.9904    29.7128   222.8708     0.0081     0.0390     0.2107     0.0231     1.7195     0.1520     0.0000     0.0018   169.0936    56.9165     0.4757     4.4674   190.0751   150.6146   221.9064   178.7973     0.1178     0.0639     0.0987     0.0808     0.4278     2.7214  2837.0000     0.0632     0.0000     0.4919     0.1580     0.0000     0.0000     0.0000     0.3501     0.0000
   8639.5000  1336.3246    25.8229    30.3660   222.8708     0.0086     0.0385     0.2150     0.0228     2.5394     0.1480     0.0000     0.0019   166.1569    57.6968     0.4853     4.4727   186.7740   151.6431   221.9064   189.3830     0.0722     0.0814     0.0745     0.0885     0.4412     2.7215  2844.0000     0.0805     0.0000     0.5033     0.1532     0.0000     0.0000     0.0000     0.3435     0.0000
   8640.0000  1340.9460    27.9908    30.1037   222.8708     0.0082     0.0382     0.2101     0.0216     2.0239     0.1552     0.0077     0.0017   167.8417    56.5263     0.5066     4.4986   188.6678   153.1667   221.9064   192.1060     0.1217     0.0649     0.0926     0.0452     0.0000     2.7276  2912.0000     0.0652     0.0000     0.4901     0.1507     0.0000     0.0000     0.0144     0.3448     0.0000
   8640.5000  1336.3246    26.9073    32.1897   222.8708     0.0087     0.0400     0.1967     0.0217     3.0949     0.1684     0.0134     0.0022   172.0602    56.5263     0.5315     4.5399   193.4098   157.0340   221.9064   183.8317     0.0465     0.0829     0.0890     0.0808     0.0000     2.7323  2869.0000     0.0833     0.0000     0.4542     0.1665     0.0000     0.0000     0.0250     0.3542     0.0000
   8641.0000  1331.3475    28.6407    33.7505   222.8708     0.0086     0.0442     0.1771     0.0238     3.7343     0.1842     0.0151     0.0029   181.3889    56.5263     0.5422     4.5461   203.8960   158.3166   221.9064   203.3609     0.0803     0.0795     0.0810     0.1249     0.0000     2.7347  2813.0000     0.0802     0.0000     0.4015     0.2033     0.0000     0.0000     0.0283     0.3668     0.0000
   8641.5000  1340.9460    30.5975    33.0710   222.8708     0.0082     0.0470     0.1662     0.0258     6.3308     0.1916     0.0121     0.0033   191.9961    57.3066     0.5556     4.5053   215.8194   163.6839   221.9064   223.2224     0.0320     0.0647     0.0526     0.0399     0.0000     2.7330  2836.0000     0.0655     0.0000     0.3722     0.2284     0.0000     0.0000     0.0227     0.3767     0.0000
   8642.0000  1336.3246    31.8968    32.2875   222.8708     0.0079     0.0493     0.1565     0.0274     6.7377     0.1987     0.0108     0.0033   197.7130    58.8674     0.5644     4.5114   222.2457   170.4664   221.9064   220.2233     0.0055     0.0552     0.0550     0.0299     0.3045     2.7327  2839.0000     0.0554     0.0000     0.3460     0.2488     0.0000     0.0000     0.0201     0.3852     0.0000
   8642.5000  1336.3246    30.8148    33.5920   222.8708     0.0082     0.0484     0.1586     0.0275     6.5384     0.1972     0.0065     0.0029   200.2613    57.6968     0.5832     4.6481   225.1101   181.9631   221.9064   222.7104     0.1673     0.0666     0.0566     0.0918     0.0000     2.7284  2871.0000     0.0668     0.0000     0.3515     0.2405     0.0000     0.0000     0.0122     0.3958     0.0000
   8643.0000  1336.3246    28.8608    31.1170   222.8708     0.0082     0.0495     0.1635     0.0287     4.2761     0.1890     0.0036     0.0027   200.8176    56.9165     0.5949     4.5323   225.7355   192.3873   221.9064   232.1240     0.0304     0.0650     0.0994     0.0831     0.0000     2.7279  2834.0000     0.0655     0.0000     0.3648     0.2503     0.0000     0.0000     0.0067     0.3783     0.0000
   8643.5000  1340.9460    24.7377    29.6845   222.8708     0.0087     0.0481     0.1831     0.0285     5.4382     0.1681     0.0000     0.0022   194.4950    56.5263     0.5856     4.5294   218.6284   188.8241   221.9064   222.0395     0.0963     0.0835     0.1022     0.0531     0.0000     2.7266  2822.0000     0.0844     0.0000     0.4177     0.2375     0.0000     0.0000     0.0000     0.3449     0.0000
   8644.0000  1345.9231    25.8232    31.6386   222.8708     0.0088     0.0479     0.1961     0.0282     6.5138     0.1534     0.0017     0.0021   179.7009    56.5263     0.5288     4.6154   201.9986   177.2914   221.9064   201.2505     0.1573     0.0892     0.1108     0.1429     0.2795     2.7304  2884.0000     0.0879     0.0000     0.4524     0.2364     0.0000     0.0000     0.0032     0.3079     0.0000
   8644.5000  1336.3246    27.5566    32.9408   222.8708     0.0087     0.0453     0.2058     0.0261     6.8685     0.1473     0.0056     0.0020   168.4679    57.6968     0.4900     4.5992   189.3718   160.0985   221.9064   182.6447     0.0744     0.0825     0.0638     0.1051     0.0220     2.7327  2875.0000     0.0830     0.0000     0.4785     0.2132     0.0000     0.0000     0.0105     0.2978     0.0000
   8645.0000  1336.3246    31.2370    31.0747   222.8708     0.0079     0.0437     0.2078     0.0243     5.2095     0.1485     0.0109     0.0024   163.6560    56.9165     0.4675     4.6204   183.9628   151.5261   222.2657   184.2829    -0.0079     0.0531     0.0499     0.0104     0.0386     2.7359  2839.0000     0.0531     0.0000     0.4840     0.1995     0.0000     0.0000     0.0203     0.2962     0.0000
   8645.5000  1340.9460    32.3227    33.0286   222.8708     0.0080     0.0395     0.2156     0.0214     3.4311     0.1473     0.0132     0.0024   165.4801    56.5263     0.4888     4.6474   186.0132   145.8311   222.2657   184.7327     0.0103     0.0568     0.0424     0.0448     0.0000     2.7346  2847.0000     0.0567     0.0000     0.5050     0.1624     0.0000     0.0000     0.0246     0.3079     0.0000
