~VERSION INFORMATION
VERS.           1.2   :CWLS Log ASCII Standard - VERSION 1.2
WRAP.           NO    :One Line per depth step
PROD.  Schlumberger   :LAS Producer
PROG.  DLIS to ASCII 17C0-152                          :LAS Program name and version
CREA.        2010/11/19 02:18                          :LAS Creation date {YYYY/MM/DD hh:mm}
DLIS_CREA.  2010-Nov-18 21:51                          :DLIS Creation date and time {YYYY-MMM-DD hh:mm}
SOURCE.     c799ad9c-fb3a-46c4-856c-9f94c6b0213d       :DLIS File Name
#--------------------------------------------------
~WELL INFORMATION
#MNEM.UNIT      DATA             DESCRIPTION
#---- ------ --------------   -----------------------------
STRT .F      8904.0000       :START DEPTH     
STOP .F      9132.5000       :STOP DEPTH     
STEP .F       0.5000         :STEP       
NULL .          -999.25      :NULL VALUE
COMP .                 COMPANY:  Wellstar Corporation               
WELL .                    WELL:  Silver Spur Minerals 35-2          
FLD  .                   FIELD:  Wildcat                            
LOC  .                LOCATION:  Sec.35, T8N, R78W                  
CNTY .                  COUNTY:  Jackson                            
STAT .                   STATE:  Colorado                           
CTRY .                 COUNTRY:                                     
SRVC .         SERVICE COMPANY:  Schlumberger                       
API  .              API NUMBER:  05-057-06490-0100                  
DATE .                LOG DATE:  18-Nov-2010
UWI  .          UNIQUE WELL ID:                                     
#-----------------------------------------------------------------------------
~PARAMETER INFORMATION
#MNEM.UNIT    VALUE                      DESCRIPTION
#---- -----   --------------------       ------------------------
CN   .        Wellstar Corporation       :Company Name
WN   .        Silver Spur Minerals 35-2  :Well Name
FN   .        Wildcat                    :Field Name
FL   .        Sec.35  T8N  R78W          :Field Location
FL1  .        SHL  1996' FSL X 655' FEL NESE :Field Location Line 1
COUN .        Jackson                    :County or Rig Name
STAT .        Colorado                   :State or Province
NATI .                                   :Nation
DATE .        18-Nov-2010                :Date as Month-Day-Year
APIN .        05-057-06490-0100          :API Serial Number
SECT .        35                         :Section
TOWN .        8N                         :Township
RANG .        78W                        :Range
DMF  .        Kelly Bushing              :Drilling Measured From
LMF  .        Kelly Bushing              :Log Measured From
PDAT .        Ground Level               :Permanent Datum
ENGI .        Philip Grant               :Engineer's Name
WITN .        Jacky Burch                :Witness's Name
LATI .                                   :Latitude
LONG .                                   :Longitude
LUL  .        Fort Morgan  CO            :Logging Unit Location
LUN  .              3021                 :Logging Unit Number
RUN  .        1                          :Run Number
SON  .        BE0K-00102                 :Service Order Number
BHT  .DEGF     211.99986                 :Bottom Hole Temperature (used in calculations)
BS   .IN         6.12500                 :Bit Size
DFD  .LB/G       8.80000                 :Drilling Fluid Density
DFV  .S         28.00000                 :Drilling Fluid Viscosity
DFL  .                                   :Drilling Fluid Loss
RMFS .OHMM       0.64200                 :Resistivity of Mud Filtrate Sample
EKB  .F       8549.00000                 :Elevation of Kelly Bushing
EGL  .F       8534.00000                 :Elevation of Ground Level
BLI  .F       9108.00000                 :Bottom Log Interval
BSAL .PPM     38000.00000                :Borehole Salinity
FLEV .                                   :Fluid Level
MCST .DEGF      83.57200                 :Mud Cake Sample Temperature
MFST .DEGF      83.57200                 :Mud Filtrate Sample Temperature
MRT  .DEGF     217.00000                 :Maximum Recorded Temperature
MST  .DEGF      83.57200                 :Mud Sample Temperature
RMCS .OHMM       1.28400                 :Resistivity of Mud Cake Sample
RMS  .OHMM       0.85600                 :Resistivity of Mud Sample
RW   .OHMM       1.00000                 :Resistivity of Connate Water
TDD  .F       8610.00000                 :Total Depth - Driller
TDL  .F       9116.00000                 :Total Depth - Logger
TLI  .F       8482.00000                 :Top Log Interval
HIDE .        Elemental Capture Spectroscopy :Header Identifier
MATR .        LIME                       :Rock Matrix for Neutron Porosity Corrections
FNUM .           1.00000                 :Form Factor Numerator
FEXP .           2.00000                 :Form Factor Exponent
DFT  .        KCl  Mud                   :Drilling Fluid Type
DFPH .           9.80000                 :Drilling Fluid PH
MCSS .        Calculated                 :Mud Cake Sample Source
MFSS .        Calculated                 :Mud Filtrate Sample Source
MSS  .        AIT bottom nose            :Mud Sample Source
OS1  .        None                       :Other Services Line 1
OS2  .                                   :Other Services Line 2
OS3  .                                   :Other Services Line 3
OS4  .                                   :Other Services Line 4
OS5  .                                   :Other Services Line 5
R1   .        Tool run as per tool sketch. :Remark Line 1
R2   .                                   :Remark Line 2
R3   .        This is the first log in hole. :Remark Line 3
R4   .                                   :Remark Line 4
R5   .        Data may be affected by hole rugosity. :Remark Line 5
R6   .                                   :Remark Line 6
R7   .                                   :Remark Line 7
R8   .                                   :Remark Line 8
TCS  .        11 00                      :Time Circulation Stopped
TLAB .                                   :Time Logger At Bottom
NMT  .        NOBARITE                   :HILT Nuclear Mud Type
EPD  .F         8534.000000              :Elevation of Permanent Datum above Mean Sea Level
APD  .F          15.000000               :Elevation of Depth Reference (LMF) above Permanent Datum
#-----------------------------------------------------------------------------
~CURVE INFORMATION
#MNEM.UNIT   API CODE                                  DESCRIPTION
#---- -----  --------                                  -----------------------
DEPT .F                                                :DEPTH (BOREHOLE) {F12.4}
CDF  .LBF                                              :Calibrated Downhole Force {F11.4}
CFTC .HZ                                               :Corrected Far Thermal Counting Rate {F11.4}
CNTC .HZ                                               :Corrected Near Thermal Counting Rate {F11.4}
CTEM .DEGF                                             :Cartridge Temperature {F11.4}
DNPH .CFCF                                             :Delta Thermal Neutron Porosity {F11.4}
DWAL_WALK2.                                            :Dry Weight Fraction Pseudo Aluminum (SpectroLith WALK2 Model) {F11.4}
DWCA_WALK2.                                            :Dry Weight Fraction Calcium (SpectroLith WALK2 Model) {F11.4}
DWFE_WALK2.                                            :Dry Weight Fraction Iron + 0.14 Aluminum (SpectroLith WALK2 Model) {F11.4}
DWGD_WALK2.PPM                                         :Dry Weight Fraction Gadolinium (SpectroLith WALK2 Model) {F11.4}
DWSI_WALK2.                                            :Dry Weight Fraction Silicon (SpectroLith WALK2 Model) {F11.4}
DWSU_WALK2.                                            :Dry Weight Fraction Sulfur (SpectroLith WALK2 Model) {F11.4}
DWTI_WALK2.                                            :Dry Weight Fraction Titanium (SpectroLith WALK2 Model) {F11.4}
ECGR .GAPI                                             :Environmentally Corrected Gamma-Ray {F11.4}
ECST .DEGF                                             :ECS Temperature {F11.4}
ESUF_WALK2.                                            :Elemental Statistical Uncertainty Factor (SpectroLith WALK2 Model) {F11.4}
GDEV .DEG                                              :HGNS Deviation {F11.4}
GR   .GAPI                                             :Gamma-Ray {F11.4}
GR_EDTC.GAPI                                           :EDTC Gamma Ray {F11.4}
GTEM .DEGF                                             :Generalized Borehole Temperature {F11.4}
HGR  .GAPI                                             :HiRes Gamma-Ray {F11.4}
HNPO .CFCF                                             :HiRes Enhanced Thermal Neutron Porosity {F11.4}
HTNP .CFCF                                             :HiRes Thermal Neutron Porosity {F11.4}
NPHI .CFCF                                             :Thermal Neutron Porosity (Ratio Method) {F11.4}
NPOR .CFCF                                             :Enhanced Thermal Neutron Porosity {F11.4}
QCPMT.                                                 :Photomultiplier Tube Quality Control {F11.4}
RHGE_WALK2.G/C3                                        :Matrix Density from Elemental Concentrations (SpectroLith WALK2 Model) {F11.4}
TENS .LBF                                              :Cable Tension {F11.4}
TNPH .CFCF                                             :Thermal Neutron Porosity {F11.4}
WANH_WALK2.                                            :Dry Weight Fraction Anhydrite/Gypsum (SpectroLith WALK2 Model) {F11.4}
WCAR_WALK2.                                            :Dry Weight Fraction Carbonate (SpectroLith WALK2 Model) {F11.4}
WCLA_WALK2.                                            :Dry Weight Fraction Clay (SpectroLith WALK2 Model) {F11.4}
WCOA_WALK2.                                            :Dry Weight Fraction Coal (SpectroLith WALK2 Model) {F11.4}
WEVA_WALK2.                                            :Dry Weight Fraction Salt (SpectroLith WALK2 Model) {F11.4}
WPYR_WALK2.                                            :Dry Weight Fraction Pyrite (SpectroLith WALK2 Model) {F11.4}
WQFM_WALK2.                                            :Dry Weight Fraction Quartz+Feldspar+Mica (QFM) (SpectroLith WALK2 Model) {F11.4}
WSID_WALK2.                                            :Dry Weight Fraction Siderite (SpectroLith WALK2 Model) {F11.4}
#-----------------------------------------------------------------------------
# 
#      DEPT        CDF        CFTC       CNTC       CTEM       DNPH    DWAL_WALK2 DWCA_WALK2 DWFE_WALK2 DWGD_WALK2 DWSI_WALK2 DWSU_WALK2 DWTI_WALK2    ECGR       ECST    ESUF_WALK2    GDEV        GR      GR_EDTC      GTEM       HGR        HNPO       HTNP       NPHI       NPOR      QCPMT    RHGE_WALK2    TENS       TNPH    WANH_WALK2 WCAR_WALK2 WCLA_WALK2 WCOA_WALK2 WEVA_WALK2 WPYR_WALK2 WQFM_WALK2 WSID_WALK2
#
~A  
# ...
   9024.0000  1642.4100    34.9358    32.5476   207.0590     0.0076     0.0585     0.0903     0.0340     4.2684     0.2585     0.0000     0.0045   162.7531    52.6245     0.6203     6.9734   182.9478   138.7927   215.7982   182.2294     0.0195     0.0434     0.0283     0.0299     0.0000     2.7209  2982.0000     0.0437     0.0000     0.1680     0.3288     0.0000     0.0000     0.0000     0.5032     0.0000
   9024.5000  1642.4100    36.6726    32.9383   207.0590     0.0075     0.0548     0.1020     0.0322     6.1867     0.2510     0.0000     0.0034   154.3489    53.0147     0.5603     6.9114   173.5009   131.2689   215.7982   188.4417     0.1028     0.0389     0.0149     0.0340     0.0828     2.7196  3036.0000     0.0388     0.0000     0.1995     0.2970     0.0000     0.0000     0.0000     0.5035     0.0000
   9025.0000  1642.4100    41.0196    32.0264   207.0590     0.0071     0.0546     0.1040     0.0325     6.9844     0.2486     0.0007     0.0020   140.0912    53.0147     0.5170     7.0526   157.4741   127.6473   215.7982   150.1631     0.0353     0.0229     0.0161     0.0507     0.0485     2.7214  2959.0000     0.0225     0.0000     0.2048     0.2953     0.0000     0.0000     0.0012     0.4987     0.0000
   9025.5000  1637.4331    42.1013    31.2451   207.0590     0.0070     0.0581     0.0990     0.0347     8.3454     0.2481     0.0017     0.0014   128.0893    54.1852     0.5112     6.9997   143.9829   121.0294   215.7982   134.4049     0.1233     0.0173     0.0169     0.0108     0.0000     2.7259  2991.0000     0.0173     0.0000     0.1912     0.3261     0.0000     0.0000     0.0033     0.4794     0.0000
   9026.0000  1647.3871    42.3004    31.2814   207.0590     0.0069     0.0634     0.0822     0.0379     8.6589     0.2582     0.0021     0.0014   135.0568    53.4048     0.5516     6.9949   151.8149   119.5502   215.7982   147.2646     0.0136     0.0169     0.0419     0.0171     0.8196     2.7294  3075.0000     0.0169     0.0000     0.1462     0.3726     0.0000     0.0000     0.0039     0.4773     0.0000
   9026.5000  1652.0085    37.9571    33.7565   207.0590     0.0075     0.0645     0.0708     0.0387     9.0199     0.2696     0.0000     0.0018   149.7831    52.6245     0.5876     7.0578   168.3685   122.3041   215.7982   173.3414     0.0276     0.0365     0.0401     0.0519     0.3197     2.7264  3081.0000     0.0375     0.0000     0.1153     0.3817     0.0000     0.0000     0.0000     0.5029     0.0000
   9027.0000  1652.0085    36.2206    32.4543   207.0590     0.0075     0.0645     0.0514     0.0384     6.3107     0.2924     0.0000     0.0024   160.3326    51.8441     0.6272     7.1195   180.2270   125.3333   215.7982   183.6727     0.0408     0.0375     0.0626     0.0302     0.4580     2.7226  3021.0000     0.0386     0.0000     0.0633     0.3816     0.0000     0.0000     0.0000     0.5550     0.0000
   9027.5000  1647.3871    31.4661    32.9754   207.0590     0.0081     0.0631     0.0557     0.0373     5.0397     0.2901     0.0000     0.0030   162.8286    53.0147     0.6111     6.9908   183.0328   136.5360   215.7982   183.0815     0.0800     0.0603     0.0545     0.0263     0.0599     2.7213  2977.0000     0.0606     0.0000     0.0750     0.3692     0.0000     0.0000     0.0000     0.5559     0.0000
   9028.0000  1642.4100    31.2454    33.6265   206.9767     0.0082     0.0668     0.0580     0.0392     5.5340     0.2812     0.0000     0.0042   162.6897    53.0147     0.6147     6.9496   182.8766   142.3400   215.7982   181.8118     0.1275     0.0650     0.0433     0.1237     0.2757     2.7250  2947.0000     0.0647     0.0000     0.0810     0.4021     0.0000     0.0000     0.0000     0.5169     0.0000
   9028.5000  1647.3871    35.5789    32.5373   205.9419     0.0076     0.0693     0.0628     0.0404     9.0359     0.2714     0.0000     0.0049   156.5174    53.0147     0.6230     7.0810   175.9384   144.6713   215.7982   183.4470     0.0316     0.0416     0.0270     0.0341     0.8756     2.7281  2959.0000     0.0412     0.0000     0.0940     0.4238     0.0000     0.0000     0.0000     0.4822     0.0000
   9029.0000  1647.3871    41.0077    32.5373   205.0825     0.0071     0.0732     0.0451     0.0424    11.6706     0.2853     0.0000     0.0059   155.1106    53.0147     0.6875     7.1138   174.3571   137.7482   215.6784   161.7948    -0.0053     0.0240     0.0192     0.0146     1.1577     2.7288  2974.0000     0.0242     0.0000     0.0463     0.4586     0.0000     0.0000     0.0000     0.4952     0.0000
   9029.5000  1652.0085    42.0930    33.5790   205.0825     0.0071     0.0711     0.0268     0.0411    12.4088     0.3106     0.0000     0.0059   148.7207    51.8441     0.7444     6.8645   167.1743   126.8373   215.4388   177.1872     0.0164     0.0252     0.0217     0.0538     0.9052     2.7232  2992.0000     0.0246     0.0000     0.0000     0.4398     0.0000     0.0000     0.0000     0.5602     0.0000
   9030.0000  1647.3871    39.4999    32.0159   205.0825     0.0072     0.0665     0.0241     0.0385    11.4541     0.3217     0.0000     0.0053   150.8050    52.6245     0.7479     6.9931   169.5173   125.7478   215.4388   162.1861    -0.0269     0.0272     0.0244    -0.0066     0.4862     2.7181  3008.0000     0.0266     0.0000     0.0000     0.3993     0.0000     0.0000     0.0000     0.6007     0.0000
   9030.5000  1652.0085    37.2366    32.3305   205.0825     0.0074     0.0607     0.0390     0.0352     9.8413     0.3146     0.0000     0.0048   152.7499    53.0147     0.6962     7.0249   171.7034   126.8716   215.4388   169.0449     0.0775     0.0354     0.0192     0.0408     0.7646     2.7144  3012.0000     0.0346     0.0000     0.0299     0.3483     0.0000     0.0000     0.0000     0.6218     0.0000
   9031.0000  1647.3871    39.6247    32.9927   205.0825     0.0073     0.0582     0.0465     0.0339     7.9593     0.3101     0.0000     0.0042   161.1102    53.0147     0.6601     7.3208   181.1011   130.9317   215.4388   183.9598     0.0490     0.0302     0.0233     0.0751     0.6297     2.7133  2974.0000     0.0296     0.0000     0.0500     0.3263     0.0000     0.0000     0.0000     0.6237     0.0000
   9031.5000  1652.0085    39.9478    31.1735   205.0825     0.0071     0.0571     0.0499     0.0333     4.8130     0.3080     0.0000     0.0040   168.1225    53.0147     0.6458     7.2899   188.9836   130.9925   215.4388   189.8861    -0.0111     0.0228     0.0290    -0.0002     0.4838     2.7129  2990.0000     0.0225     0.0000     0.0591     0.3172     0.0000     0.0000     0.0000     0.6236     0.0000
   9032.0000  1656.9856    38.0850    31.8269   205.0825     0.0073     0.0563     0.0474     0.0330     2.7086     0.3121     0.0000     0.0035   168.5393    52.2343     0.6455     7.0280   189.4520   130.8379   215.4388   193.2584     0.0089     0.0304     0.0589     0.0298     0.4522     2.7119  3091.0000     0.0301     0.0000     0.0526     0.3101     0.0000     0.0000     0.0000     0.6373     0.0000
   9032.5000  1656.9856    34.8893    35.0583   205.0825     0.0079     0.0547     0.0599     0.0322     2.7018     0.3003     0.0000     0.0031   173.3756    52.2343     0.6120     7.0270   194.8884   128.4655   215.4388   186.0610     0.0735     0.0538     0.0590     0.0820     0.5724     2.7125  3021.0000     0.0539     0.0000     0.0862     0.2960     0.0000     0.0000     0.0000     0.6178     0.0000
   9033.0000  1656.9856    35.2134    34.2228   205.0825     0.0078     0.0539     0.0707     0.0317     5.0318     0.2891     0.0000     0.0030   175.8123    53.0147     0.5870     7.0786   197.6275   128.9220   215.4388   206.2464     0.0494     0.0494     0.0723     0.0477     0.3531     2.7135  2936.0000     0.0492     0.0000     0.1151     0.2889     0.0000     0.0000     0.0000     0.5959     0.0000
   9033.5000  1656.9856    34.9963    36.0487   205.0825     0.0080     0.0544     0.0765     0.0319     7.9352     0.2817     0.0000     0.0035   182.0634    53.0147     0.5916     7.0783   204.6542   122.6910   215.4388   201.4764     0.0327     0.0574     0.0639     0.0285     0.5544     2.7147  3003.0000     0.0575     0.0000     0.1307     0.2933     0.0000     0.0000     0.0000     0.5760     0.0000
