~VERSION INFORMATION
VERS.           1.2   :CWLS Log ASCII Standard - VERSION 1.2
WRAP.           NO    :One Line per depth step
PROD.  Schlumberger   :LAS Producer
PROG.  DLIS to ASCII 17C0-152                          :LAS Program name and version
CREA.        2010/11/19 02:18                          :LAS Creation date {YYYY/MM/DD hh:mm}
DLIS_CREA.  2010-Nov-18 21:51                          :DLIS Creation date and time {YYYY-MMM-DD hh:mm}
SOURCE.     c799ad9c-fb3a-46c4-856c-9f94c6b0213d       :DLIS File Name
#--------------------------------------------------
~WELL INFORMATION
#MNEM.UNIT      DATA             DESCRIPTION
#---- ------ --------------   -----------------------------
STRT .F      8904.0000       :START DEPTH     
STOP .F      9132.5000       :STOP DEPTH     
STEP .F       0.5000         :STEP       
NULL .          -999.25      :NULL VALUE
COMP .                 COMPANY:  Wellstar Corporation               
WELL .                    WELL:  Silver Spur Minerals 35-2          
FLD  .                   FIELD:  Wildcat                            
LOC  .                LOCATION:  Sec.35, T8N, R78W                  
CNTY .                  COUNTY:  Jackson                            
STAT .                   STATE:  Colorado                           
CTRY .                 COUNTRY:                                     
SRVC .         SERVICE COMPANY:  Schlumberger                       
API  .              API NUMBER:  05-057-06490-0100                  
DATE .                LOG DATE:  18-Nov-2010
UWI  .          UNIQUE WELL ID:                                     
#-----------------------------------------------------------------------------
~PARAMETER INFORMATION
#MNEM.UNIT    VALUE                      DESCRIPTION
#---- -----   --------------------       ------------------------
CN   .        Wellstar Corporation       :Company Name
WN   .        Silver Spur Minerals 35-2  :Well Name
FN   .        Wildcat                    :Field Name
FL   .        Sec.35  T8N  R78W          :Field Location
FL1  .        SHL  1996' FSL X 655' FEL NESE :Field Location Line 1
COUN .        Jackson                    :County or Rig Name
STAT .        Colorado                   :State or Province
NATI .                                   :Nation
DATE .        18-Nov-2010                :Date as Month-Day-Year
APIN .        05-057-06490-0100          :API Serial Number
SECT .        35                         :Section
TOWN .        8N                         :Township
RANG .        78W                        :Range
DMF  .        Kelly Bushing              :Drilling Measured From
LMF  .        Kelly Bushing              :Log Measured From
PDAT .        Ground Level               :Permanent Datum
ENGI .        Philip Grant               :Engineer's Name
WITN .        Jacky Burch                :Witness's Name
LATI .                                   :Latitude
LONG .                                   :Longitude
LUL  .        Fort Morgan  CO            :Logging Unit Location
LUN  .              3021                 :Logging Unit Number
RUN  .        1                          :Run Number
SON  .        BE0K-00102                 :Service Order Number
BHT  .DEGF     211.99986                 :Bottom Hole Temperature (used in calculations)
BS   .IN         6.12500                 :Bit Size
DFD  .LB/G       8.80000                 :Drilling Fluid Density
DFV  .S         28.00000                 :Drilling Fluid Viscosity
DFL  .                                   :Drilling Fluid Loss
RMFS .OHMM       0.64200                 :Resistivity of Mud Filtrate Sample
EKB  .F       8549.00000                 :Elevation of Kelly Bushing
EGL  .F       8534.00000                 :Elevation of Ground Level
BLI  .F       9108.00000                 :Bottom Log Interval
BSAL .PPM     38000.00000                :Borehole Salinity
FLEV .                                   :Fluid Level
MCST .DEGF      83.57200                 :Mud Cake Sample Temperature
MFST .DEGF      83.57200                 :Mud Filtrate Sample Temperature
MRT  .DEGF     217.00000                 :Maximum Recorded Temperature
MST  .DEGF      83.57200                 :Mud Sample Temperature
RMCS .OHMM       1.28400                 :Resistivity of Mud Cake Sample
RMS  .OHMM       0.85600                 :Resistivity of Mud Sample
RW   .OHMM       1.00000                 :Resistivity of Connate Water
TDD  .F       8610.00000                 :Total Depth - Driller
TDL  .F       9116.00000                 :Total Depth - Logger
TLI  .F       8482.00000                 :Top Log Interval
HIDE .        Elemental Capture Spectroscopy :Header Identifier
MATR .        LIME                       :Rock Matrix for Neutron Porosity Corrections
FNUM .           1.00000                 :Form Factor Numerator
FEXP .           2.00000                 :Form Factor Exponent
DFT  .        KCl  Mud                   :Drilling Fluid Type
DFPH .           9.80000                 :Drilling Fluid PH
MCSS .        Calculated                 :Mud Cake Sample Source
MFSS .        Calculated                 :Mud Filtrate Sample Source
MSS  .        AIT bottom nose            :Mud Sample Source
OS1  .        None                       :Other Services Line 1
OS2  .                                   :Other Services Line 2
OS3  .                                   :Other Services Line 3
OS4  .                                   :Other Services Line 4
OS5  .                                   :Other Services Line 5
R1   .        Tool run as per tool sketch. :Remark Line 1
R2   .                                   :Remark Line 2
R3   .        This is the first log in hole. :Remark Line 3
R4   .                                   :Remark Line 4
R5   .        Data may be affected by hole rugosity. :Remark Line 5
R6   .                                   :Remark Line 6
R7   .                                   :Remark Line 7
R8   .                                   :Remark Line 8
TCS  .        11 00                      :Time Circulation Stopped
TLAB .                                   :Time Logger At Bottom
NMT  .        NOBARITE                   :HILT Nuclear Mud Type
EPD  .F         8534.000000              :Elevation of Permanent Datum above Mean Sea Level
APD  .F          15.000000               :Elevation of Depth Reference (LMF) above Permanent Datum
#-----------------------------------------------------------------------------
~CURVE INFORMATION
#MNEM.UNIT   API CODE                                  DESCRIPTION
#---- -----  --------                                  -----------------------
DEPT .F                                                :DEPTH (BOREHOLE) {F12.4}
CDF  .LBF                                              :Calibrated Downhole Force {F11.4}
CFTC .HZ                                               :Corrected Far Thermal Counting Rate {F11.4}
CNTC .HZ                                               :Corrected Near Thermal Counting Rate {F11.4}
CTEM .DEGF                                             :Cartridge Temperature {F11.4}
DNPH .CFCF                                             :Delta Thermal Neutron Porosity {F11.4}
DWAL_WALK2.                                            :Dry Weight Fraction Pseudo Aluminum (SpectroLith WALK2 Model) {F11.4}
DWCA_WALK2.                                            :Dry Weight Fraction Calcium (SpectroLith WALK2 Model) {F11.4}
DWFE_WALK2.                                            :Dry Weight Fraction Iron + 0.14 Aluminum (SpectroLith WALK2 Model) {F11.4}
DWGD_WALK2.PPM                                         :Dry Weight Fraction Gadolinium (SpectroLith WALK2 Model) {F11.4}
DWSI_WALK2.                                            :Dry Weight Fraction Silicon (SpectroLith WALK2 Model) {F11.4}
DWSU_WALK2.                                            :Dry Weight Fraction Sulfur (SpectroLith WALK2 Model) {F11.4}
DWTI_WALK2.                                            :Dry Weight Fraction Titanium (SpectroLith WALK2 Model) {F11.4}
ECGR .GAPI                                             :Environmentally Corrected Gamma-Ray {F11.4}
ECST .DEGF                                             :ECS Temperature {F11.4}
ESUF_WALK2.                                            :Elemental Statistical Uncertainty Factor (SpectroLith WALK2 Model) {F11.4}
GDEV .DEG                                              :HGNS Deviation {F11.4}
GR   .GAPI                                             :Gamma-Ray {F11.4}
GR_EDTC.GAPI                                           :EDTC Gamma Ray {F11.4}
GTEM .DEGF                                             :Generalized Borehole Temperature {F11.4}
HGR  .GAPI                                             :HiRes Gamma-Ray {F11.4}
HNPO .CFCF                                             :HiRes Enhanced Thermal Neutron Porosity {F11.4}
HTNP .CFCF                                             :HiRes Thermal Neutron Porosity {F11.4}
NPHI .CFCF                                             :Thermal Neutron Porosity (Ratio Method) {F11.4}
NPOR .CFCF                                             :Enhanced Thermal Neutron Porosity {F11.4}
QCPMT.                                                 :Photomultiplier Tube Quality Control {F11.4}
RHGE_WALK2.G/C3                                        :Matrix Density from Elemental Concentrations (SpectroLith WALK2 Model) {F11.4}
TENS .LBF                                              :Cable Tension {F11.4}
TNPH .CFCF                                             :Thermal Neutron Porosity {F11.4}
WANH_WALK2.                                            :Dry Weight Fraction Anhydrite/Gypsum (SpectroLith WALK2 Model) {F11.4}
WCAR_WALK2.                                            :Dry Weight Fraction Carbonate (SpectroLith WALK2 Model) {F11.4}
WCLA_WALK2.                                            :Dry Weight Fraction Clay (SpectroLith WALK2 Model) {F11.4}
WCOA_WALK2.                                            :Dry Weight Fraction Coal (SpectroLith WALK2 Model) {F11.4}
WEVA_WALK2.                                            :Dry Weight Fraction Salt (SpectroLith WALK2 Model) {F11.4}
WPYR_WALK2.                                            :Dry Weight Fraction Pyrite (SpectroLith WALK2 Model) {F11.4}
WQFM_WALK2.                                            :Dry Weight Fraction Quartz+Feldspar+Mica (QFM) (SpectroLith WALK2 Model) {F11.4}
WSID_WALK2.                                            :Dry Weight Fraction Siderite (SpectroLith WALK2 Model) {F11.4}
#-----------------------------------------------------------------------------
# 
#      DEPT        CDF        CFTC       CNTC       CTEM       DNPH    DWAL_WALK2 DWCA_WALK2 DWFE_WALK2 DWGD_WALK2 DWSI_WALK2 DWSU_WALK2 DWTI_WALK2    ECGR       ECST    ESUF_WALK2    GDEV        GR      GR_EDTC      GTEM       HGR        HNPO       HTNP       NPHI       NPOR      QCPMT    RHGE_WALK2    TENS       TNPH    WANH_WALK2 WCAR_WALK2 WCLA_WALK2 WCOA_WALK2 WEVA_WALK2 WPYR_WALK2 WQFM_WALK2 WSID_WALK2
#
~A  
# ...
   9084.0000  1739.4615    34.1382    28.2400   198.2671     0.0073     0.0543     0.0993     0.0320    12.2082     0.2550     0.0000     0.0031   161.9931    52.7220     0.5956     7.1952   182.0936   140.0198   211.1271   178.9336     0.0870     0.0305     0.0220     0.0765     1.3369     2.7188  3003.0000     0.0294     0.0000     0.1921     0.2926     0.0000     0.0000     0.0000     0.5153     0.0000
   9084.5000  1739.4615    34.7894    26.4148   197.1766     0.0070     0.0520     0.0924     0.0306     9.9156     0.2673     0.0000     0.0030   172.0853    52.1368     0.6424     7.0694   193.4381   143.2717   211.1271   178.7211    -0.0076     0.0207     0.0112    -0.0142     1.2673     2.7150  3069.0000     0.0202     0.0000     0.1734     0.2717     0.0000     0.0000     0.0000     0.5548     0.0000
   9085.0000  1744.4386    36.6727    26.4557   197.1766     0.0069     0.0524     0.0808     0.0310     6.8731     0.2798     0.0000     0.0027   190.1476    53.0147     0.4676     6.9700   213.7415   149.5945   211.1271   221.4576    -0.0036     0.0154     0.0152     0.0098     0.1084     2.7138  3099.0000     0.0150     0.0000     0.1424     0.2760     0.0000     0.0000     0.0000     0.5816     0.0000
   9085.5000  1739.4615    36.0820    28.1571   197.1766     0.0071     0.0565     0.0670     0.0327     4.1946     0.2893     0.0052     0.0028   214.8045    51.8441     0.4709     6.9806   241.4579   148.5679   211.1271   239.6909     0.1672     0.0239     0.0162     0.0509     0.2340     2.7208  2998.0000     0.0229     0.0000     0.1052     0.3118     0.0000     0.0000     0.0097     0.5733     0.0000
   9086.0000  1739.4615    36.7332    26.8245   197.1766     0.0069     0.0583     0.0646     0.0331     2.9892     0.2896     0.0097     0.0029   204.2258    51.8441     0.4703     7.0031   229.5665   150.4017   211.1271   262.5184     0.0232     0.0159     0.0300     0.0252     0.3516     2.7265  2996.0000     0.0162     0.0000     0.0987     0.3273     0.0000     0.0000     0.0181     0.5560     0.0000
   9086.5000  1739.4615    32.3920    26.5623   197.1766     0.0072     0.0582     0.0616     0.0335     2.7992     0.2929     0.0060     0.0031   186.1845    51.8441     0.4711     7.0255   209.2867   144.2807   211.1271   187.7372     0.0439     0.0283     0.0255     0.0057     0.3468     2.7223  2995.0000     0.0286     0.0000     0.0907     0.3263     0.0000     0.0000     0.0113     0.5717     0.0000
   9087.0000  1739.4615    34.9371    28.5177   197.1766     0.0072     0.0611     0.0656     0.0353     3.2091     0.2830     0.0051     0.0034   164.3500    52.5464     0.4690     7.0276   184.7429   144.2692   211.1271   178.3139     0.0322     0.0274     0.0489     0.0395     0.6913     2.7251  3004.0000     0.0278     0.0000     0.1014     0.3518     0.0000     0.0000     0.0095     0.5374     0.0000
   9087.5000  1744.4386    34.2859    31.2524   197.1766     0.0076     0.0651     0.0657     0.0378     5.5658     0.2754     0.0032     0.0038   166.7247    53.0147     0.5579     7.0092   187.4122   136.7476   210.7678   188.8977     0.0391     0.0415     0.0353     0.0773     0.6619     2.7277  3053.0000     0.0410     0.0000     0.1018     0.3875     0.0000     0.0000     0.0060     0.5047     0.0000
   9088.0000  1744.4386    36.2899    30.0250   197.1766     0.0073     0.0696     0.0668     0.0404     7.5099     0.2663     0.0035     0.0041   170.8239    51.8441     0.5819     6.9932   192.0201   140.2860   210.7678   193.7662     0.0297     0.0288     0.0379     0.0096     0.0210     2.7329  3013.0000     0.0292     0.0000     0.1047     0.4267     0.0000     0.0000     0.0065     0.4621     0.0000
   9088.5000  1744.4386    34.1183    30.6780   197.1766     0.0075     0.0711     0.0634     0.0417     8.7458     0.2673     0.0011     0.0041   167.8562    51.8441     0.5931     7.0043   188.6842   137.1633   210.7678   193.0400    -0.0352     0.0389     0.0145    -0.0000     0.0000     2.7319  2952.0000     0.0393     0.0000     0.0956     0.4396     0.0000     0.0000     0.0021     0.4627     0.0000
   9089.0000  1744.4386    34.9866    30.1572   197.1766     0.0074     0.0728     0.0605     0.0428     6.6999     0.2675     0.0000     0.0041   158.4824    53.0147     0.5655     7.0127   178.1472   138.0524   210.7678   179.0495     0.1646     0.0336     0.0101     0.0745     0.1486     2.7323  3003.0000     0.0340     0.0000     0.0877     0.4545     0.0000     0.0000     0.0000     0.4578     0.0000
   9089.5000  1754.0371    35.1567    27.2918   197.1766     0.0071     0.0734     0.0610     0.0433     5.5273     0.2658     0.0000     0.0040   151.3183    52.1042     0.5229     7.0859   170.0942   136.4282   210.7678   163.1619    -0.0007     0.0226     0.0090     0.0076     0.3995     2.7331  3108.0000     0.0224     0.0000     0.0890     0.4602     0.0000     0.0000     0.0000     0.4508     0.0000
   9090.0000  1754.0371    35.5870    25.3383   197.1766     0.0069     0.0727     0.0665     0.0429     5.3341     0.2605     0.0000     0.0037   152.9443    51.8441     0.5624     7.0315   171.9220   139.5608   210.7678   168.4914     0.0629     0.0136     0.0065     0.0267     0.4323     2.7335  3014.0000     0.0138     0.0000     0.1040     0.4536     0.0000     0.0000     0.0000     0.4424     0.0000
   9090.5000  1754.0371    37.9798    25.1262   197.1766     0.0067     0.0688     0.0727     0.0407     6.3200     0.2601     0.0000     0.0034   163.7622    51.8441     0.5600     7.0120   184.0822   141.0728   210.7678   184.2130     0.1850     0.0066     0.0159     0.0501     0.1130     2.7304  3047.0000     0.0070     0.0000     0.1207     0.4197     0.0000     0.0000     0.0000     0.4597     0.0000
   9091.0000  1754.0371    39.7127    26.2963   196.8943     0.0067     0.0658     0.0865     0.0390     8.2231     0.2494     0.0000     0.0031   171.9657    51.8441     0.5315     6.9642   193.3036   136.2504   210.7678   200.0035    -0.0118     0.0071     0.0155    -0.0086     0.5533     2.7295  3021.0000     0.0070     0.0000     0.1576     0.3933     0.0000     0.0000     0.0000     0.4491     0.0000
   9091.5000  1749.4155    39.8129    27.4629   195.3164     0.0068     0.0633     0.0924     0.0375     7.8458     0.2469     0.0000     0.0031   177.2018    51.8441     0.5261     6.9944   199.1894   133.1108   210.7678   194.8039     0.4812     0.0108     0.0197     0.0371     0.9753     2.7278  2996.0000     0.0106     0.0000     0.1735     0.3714     0.0000     0.0000     0.0000     0.4551     0.0000
   9092.0000  1754.0371    38.7270    28.8955   195.2002     0.0070     0.0615     0.1042     0.0366     6.8383     0.2362     0.0000     0.0024   170.4880    51.8441     0.5058     7.0652   191.6426   131.9845   210.4412   201.9162    -0.0410     0.0177     0.0251    -0.0135     0.2076     2.7283  3083.0000     0.0181     0.0000     0.2052     0.3556     0.0000     0.0000     0.0000     0.4393     0.0000
   9092.5000  1754.0371    34.3859    28.5049   195.2002     0.0073     0.0592     0.0994     0.0352     3.9388     0.2460     0.0018     0.0019   166.5779    51.8441     0.5139     7.0219   187.2472   132.0279   210.4085   176.6720     0.0580     0.0286     0.0538     0.0252     0.0000     2.7269  3008.0000     0.0296     0.0000     0.1923     0.3353     0.0000     0.0000     0.0034     0.4690     0.0000
   9093.0000  1754.0371    30.3817    30.1982   195.2002     0.0079     0.0575     0.0957     0.0344     3.2910     0.2531     0.0000     0.0018   163.0860    51.8441     0.5126     6.8955   183.3221   132.4140   210.4085   181.0432     0.0822     0.0523     0.0671     0.0784     0.0000     2.7227  3007.0000     0.0531     0.0000     0.1824     0.3202     0.0000     0.0000     0.0000     0.4974     0.0000
   9093.5000  1754.0371    30.5944    30.3284   195.2002     0.0079     0.0581     0.0841     0.0345     2.4010     0.2657     0.0000     0.0025   159.7270    51.8441     0.5218     7.0542   179.5463   135.1432   210.4085   190.4165     0.0427     0.0515     0.0444     0.0738     0.2927     2.7209  3029.0000     0.0527     0.0000     0.1513     0.3256     0.0000     0.0000     0.0000     0.5231     0.0000
