~VERSION INFORMATION
VERS.           1.2   :CWLS Log ASCII Standard - VERSION 1.2
WRAP.           NO    :One Line per depth step
PROD.  Schlumberger   :LAS Producer
PROG.  DLIS to ASCII 17C0-152                          :LAS Program name and version
CREA.        2010/11/19 02:18                          :LAS Creation date {YYYY/MM/DD hh:mm}
DLIS_CREA.  2010-Nov-18 22:49                          :DLIS Creation date and time {YYYY-MMM-DD hh:mm}
SOURCE.     d476e3e6-e07a-4d20-b90c-cbd099bd9e21       :DLIS File Name
#--------------------------------------------------
~WELL INFORMATION
#MNEM.UNIT      DATA             DESCRIPTION
#---- ------ --------------   -----------------------------
STRT .F      8456.0000       :START DEPTH     
STOP .F      9128.5000       :STOP DEPTH     
STEP .F       0.5000         :STEP       
NULL .          -999.25      :NULL VALUE
COMP .                 COMPANY:  Wellstar Corporation               
WELL .                    WELL:  Silver Spur Minerals 35-2          
FLD  .                   FIELD:  Wildcat                            
LOC  .                LOCATION:  Sec.35, T8N, R78W                  
CNTY .                  COUNTY:  Jackson                            
STAT .                   STATE:  Colorado                           
CTRY .                 COUNTRY:                                     
SRVC .         SERVICE COMPANY:  Schlumberger                       
API  .              API NUMBER:  05-057-06490-0100                  
DATE .                LOG DATE:  18-Nov-2010
UWI  .          UNIQUE WELL ID:                                     
#-----------------------------------------------------------------------------
~PARAMETER INFORMATION
#MNEM.UNIT    VALUE                      DESCRIPTION
#---- -----   --------------------       ------------------------
CN   .        Wellstar Corporation       :Company Name
WN   .        Silver Spur Minerals 35-2  :Well Name
FN   .        Wildcat                    :Field Name
FL   .        Sec.35  T8N  R78W          :Field Location
FL1  .        SHL  1996' FSL X 655' FEL NESE :Field Location Line 1
COUN .        Jackson                    :County or Rig Name
STAT .        Colorado                   :State or Province
NATI .                                   :Nation
DATE .        18-Nov-2010                :Date as Month-Day-Year
APIN .        05-057-06490-0100          :API Serial Number
SECT .        35                         :Section
TOWN .        8N                         :Township
RANG .        78W                        :Range
DMF  .        Kelly Bushing              :Drilling Measured From
LMF  .        Kelly Bushing              :Log Measured From
PDAT .        Ground Level               :Permanent Datum
ENGI .        Philip Grant               :Engineer's Name
WITN .        Jacky Burch                :Witness's Name
LATI .                                   :Latitude
LONG .                                   :Longitude
LUL  .        Fort Morgan  CO            :Logging Unit Location
LUN  .              3021                 :Logging Unit Number
RUN  .        1                          :Run Number
SON  .        BE0K-00102                 :Service Order Number
BHT  .DEGF     211.99986                 :Bottom Hole Temperature (used in calculations)
BS   .IN         6.12500                 :Bit Size
DFD  .LB/G       8.80000                 :Drilling Fluid Density
DFV  .S         28.00000                 :Drilling Fluid Viscosity
DFL  .                                   :Drilling Fluid Loss
RMFS .OHMM       0.64200                 :Resistivity of Mud Filtrate Sample
EKB  .F       8549.00000                 :Elevation of Kelly Bushing
EGL  .F       8534.00000                 :Elevation of Ground Level
BLI  .F       9108.00000                 :Bottom Log Interval
BSAL .PPM     38000.00000                :Borehole Salinity
FLEV .                                   :Fluid Level
MCST .DEGF      83.57200                 :Mud Cake Sample Temperature
MFST .DEGF      83.57200                 :Mud Filtrate Sample Temperature
MRT  .DEGF     217.00000                 :Maximum Recorded Temperature
MST  .DEGF      83.57200                 :Mud Sample Temperature
RMCS .OHMM       1.28400                 :Resistivity of Mud Cake Sample
RMS  .OHMM       0.85600                 :Resistivity of Mud Sample
RW   .OHMM       1.00000                 :Resistivity of Connate Water
TDD  .F       8610.00000                 :Total Depth - Driller
TDL  .F       9116.00000                 :Total Depth - Logger
TLI  .F       8482.00000                 :Top Log Interval
HIDE .        Elemental Capture Spectroscopy :Header Identifier
MATR .        LIME                       :Rock Matrix for Neutron Porosity Corrections
FNUM .           1.00000                 :Form Factor Numerator
FEXP .           2.00000                 :Form Factor Exponent
DFT  .        KCl  Mud                   :Drilling Fluid Type
DFPH .           9.80000                 :Drilling Fluid PH
MCSS .        Calculated                 :Mud Cake Sample Source
MFSS .        Calculated                 :Mud Filtrate Sample Source
MSS  .        AIT bottom nose            :Mud Sample Source
OS1  .        PEx-HRLA                   :Other Services Line 1
OS2  .        MSIP-FMI                   :Other Services Line 2
OS3  .        HNGS                       :Other Services Line 3
OS4  .                                   :Other Services Line 4
OS5  .                                   :Other Services Line 5
R1   .        Tool run as per tool sketch. :Remark Line 1
R2   .                                   :Remark Line 2
R3   .        This is the first log in hole. :Remark Line 3
R4   .                                   :Remark Line 4
R5   .        Data may be affected by hole rugosity. :Remark Line 5
R6   .                                   :Remark Line 6
R7   .        Matrix Limestone 2.71      :Remark Line 7
R8   .                                   :Remark Line 8
TCS  .        11 00                      :Time Circulation Stopped
TLAB .        9 31                       :Time Logger At Bottom
NMT  .        NOBARITE                   :HILT Nuclear Mud Type
EPD  .F         8534.000000              :Elevation of Permanent Datum above Mean Sea Level
APD  .F          15.000000               :Elevation of Depth Reference (LMF) above Permanent Datum
#-----------------------------------------------------------------------------
~CURVE INFORMATION
#MNEM.UNIT   API CODE                                  DESCRIPTION
#---- -----  --------                                  -----------------------
DEPT .F                                                :DEPTH (BOREHOLE) {F12.4}
CDF  .LBF                                              :Calibrated Downhole Force {F11.4}
CFTC .HZ                                               :Corrected Far Thermal Counting Rate {F11.4}
CNTC .HZ                                               :Corrected Near Thermal Counting Rate {F11.4}
CTEM .DEGF                                             :Cartridge Temperature {F11.4}
DNPH .CFCF                                             :Delta Thermal Neutron Porosity {F11.4}
DWAL_WALK2.                                            :Dry Weight Fraction Pseudo Aluminum (SpectroLith WALK2 Model) {F11.4}
DWCA_WALK2.                                            :Dry Weight Fraction Calcium (SpectroLith WALK2 Model) {F11.4}
DWFE_WALK2.                                            :Dry Weight Fraction Iron + 0.14 Aluminum (SpectroLith WALK2 Model) {F11.4}
DWGD_WALK2.PPM                                         :Dry Weight Fraction Gadolinium (SpectroLith WALK2 Model) {F11.4}
DWSI_WALK2.                                            :Dry Weight Fraction Silicon (SpectroLith WALK2 Model) {F11.4}
DWSU_WALK2.                                            :Dry Weight Fraction Sulfur (SpectroLith WALK2 Model) {F11.4}
DWTI_WALK2.                                            :Dry Weight Fraction Titanium (SpectroLith WALK2 Model) {F11.4}
ECGR .GAPI                                             :Environmentally Corrected Gamma-Ray {F11.4}
ECST .DEGF                                             :ECS Temperature {F11.4}
ESUF_WALK2.                                            :Elemental Statistical Uncertainty Factor (SpectroLith WALK2 Model) {F11.4}
GDEV .DEG                                              :HGNS Deviation {F11.4}
GR   .GAPI                                             :Gamma-Ray {F11.4}
GR_EDTC.GAPI                                           :EDTC Gamma Ray {F11.4}
GTEM .DEGF                                             :Generalized Borehole Temperature {F11.4}
HGR  .GAPI                                             :HiRes Gamma-Ray {F11.4}
HNPO .CFCF                                             :HiRes Enhanced Thermal Neutron Porosity {F11.4}
HTNP .CFCF                                             :HiRes Thermal Neutron Porosity {F11.4}
NPHI .CFCF                                             :Thermal Neutron Porosity (Ratio Method) {F11.4}
NPOR .CFCF                                             :Enhanced Thermal Neutron Porosity {F11.4}
QCPMT.                                                 :Photomultiplier Tube Quality Control {F11.4}
RHGE_WALK2.G/C3                                        :Matrix Density from Elemental Concentrations (SpectroLith WALK2 Model) {F11.4}
TENS .LBF                                              :Cable Tension {F11.4}
TNPH .CFCF                                             :Thermal Neutron Porosity {F11.4}
WANH_WALK2.                                            :Dry Weight Fraction Anhydrite/Gypsum (SpectroLith WALK2 Model) {F11.4}
WCAR_WALK2.                                            :Dry Weight Fraction Carbonate (SpectroLith WALK2 Model) {F11.4}
WCLA_WALK2.                                            :Dry Weight Fraction Clay (SpectroLith WALK2 Model) {F11.4}
WCOA_WALK2.                                            :Dry Weight Fraction Coal (SpectroLith WALK2 Model) {F11.4}
WEVA_WALK2.                                            :Dry Weight Fraction Salt (SpectroLith WALK2 Model) {F11.4}
WPYR_WALK2.                                            :Dry Weight Fraction Pyrite (SpectroLith WALK2 Model) {F11.4}
WQFM_WALK2.                                            :Dry Weight Fraction Quartz+Feldspar+Mica (QFM) (SpectroLith WALK2 Model) {F11.4}
WSID_WALK2.                                            :Dry Weight Fraction Siderite (SpectroLith WALK2 Model) {F11.4}
#-----------------------------------------------------------------------------
# 
#      DEPT        CDF        CFTC       CNTC       CTEM       DNPH    DWAL_WALK2 DWCA_WALK2 DWFE_WALK2 DWGD_WALK2 DWSI_WALK2 DWSU_WALK2 DWTI_WALK2    ECGR       ECST    ESUF_WALK2    GDEV        GR      GR_EDTC      GTEM       HGR        HNPO       HTNP       NPHI       NPOR      QCPMT    RHGE_WALK2    TENS       TNPH    WANH_WALK2 WCAR_WALK2 WCLA_WALK2 WCOA_WALK2 WEVA_WALK2 WPYR_WALK2 WQFM_WALK2 WSID_WALK2
#
~A  
# ...
   9076.0000  1477.1025    38.7534    35.5260   220.8943     0.0076     0.0705     0.0849     0.0415     2.1337     0.2430     0.0018     0.0034   167.4861    54.1852     0.5423     7.1518   188.2682   145.7275   225.4995   177.3831     0.0901     0.0404     0.0320     0.0531     0.5972     2.7361  3012.0000     0.0411     0.0000     0.1533     0.4351     0.0000     0.0000     0.0034     0.4082     0.0000
   9076.5000  1482.0796    38.4598    33.9999   220.8943     0.0075     0.0663     0.0806     0.0388     3.2473     0.2558     0.0051     0.0025   162.2551    53.4048     0.5330     7.2000   182.3880   139.0029   225.4995   184.3093     0.0748     0.0361     0.0255     0.0173     0.6826     2.7342  3027.0000     0.0367     0.0000     0.1417     0.3975     0.0000     0.0000     0.0095     0.4513     0.0000
   9077.0000  1482.0796    36.6441    32.6383   220.8943     0.0075     0.0637     0.0671     0.0371     4.2797     0.2762     0.0062     0.0023   165.7409    53.4048     0.5455     7.3529   186.3064   133.3584   225.4995   186.4236     0.0528     0.0370     0.0473     0.0539     0.2903     2.7302  3018.0000     0.0378     0.0000     0.1056     0.3749     0.0000     0.0000     0.0116     0.5080     0.0000
   9077.5000  1482.0796    33.0539    32.7745   220.8943     0.0079     0.0604     0.0539     0.0354     6.8111     0.2973     0.0028     0.0028   166.9570    54.1852     0.5734     7.3540   187.6733   133.6324   225.4995   189.8233     0.0841     0.0510     0.0354     0.0498     0.4867     2.7207  3026.0000     0.0523     0.0000     0.0700     0.3459     0.0000     0.0000     0.0052     0.5790     0.0000
   9078.0000  1482.0796    35.5760    31.5693   220.8943     0.0075     0.0603     0.0505     0.0355     7.7377     0.3014     0.0000     0.0035   162.2915    54.1852     0.6019     7.2171   182.4290   134.0815   225.4995   187.0261    -0.0109     0.0368     0.0356     0.0562     0.5234     2.7170  3062.0000     0.0375     0.0000     0.0607     0.3452     0.0000     0.0000     0.0000     0.5940     0.0000
   9078.5000  1477.1025    37.1648    32.1131   220.8943     0.0074     0.0617     0.0468     0.0360     8.0764     0.3035     0.0000     0.0042   161.4687    53.4048     0.6173     7.2051   181.5041   140.3174   225.4995   170.6351    -0.0118     0.0340     0.0182     0.0241     0.3882     2.7173  3012.0000     0.0341     0.0000     0.0508     0.3572     0.0000     0.0000     0.0000     0.5920     0.0000
   9079.0000  1477.1025    38.2995    30.5076   220.8943     0.0072     0.0617     0.0388     0.0361     7.2613     0.3128     0.0000     0.0041   160.6817    53.4048     0.6398     7.4130   180.6194   142.4561   225.4995   186.2885     0.0064     0.0251     0.0197     0.0165     0.5125     2.7160  2958.0000     0.0248     0.0000     0.0294     0.3569     0.0000     0.0000     0.0000     0.6137     0.0000
   9079.5000  1482.0796    35.6172    30.2353   220.8943     0.0073     0.0619     0.0343     0.0361     7.5161     0.3177     0.0000     0.0043   165.6376    54.1852     0.6388     7.5074   186.1902   143.7453   225.4995   184.9387     0.0327     0.0316     0.0186     0.0191     0.5972     2.7154  3082.0000     0.0322     0.0000     0.0172     0.3590     0.0000     0.0000     0.0000     0.6238     0.0000
   9080.0000  1482.0796    35.2729    29.5618   220.8943     0.0073     0.0600     0.0416     0.0352     8.2576     0.3124     0.0000     0.0037   165.6541    54.1852     0.6382     7.2703   186.2089   146.7831   225.4995   186.6751     0.0409     0.0302     0.0312     0.0608     0.6656     2.7149  3021.0000     0.0308     0.0000     0.0370     0.3421     0.0000     0.0000     0.0000     0.6209     0.0000
   9080.5000  1482.0796    35.1082    29.9873   220.8943     0.0074     0.0580     0.0487     0.0340     7.5277     0.3076     0.0000     0.0036   169.0361    53.4048     0.6060     7.2688   190.0104   148.6000   225.4995   186.3424     0.0613     0.0322     0.0388     0.0507     0.5401     2.7139  3023.0000     0.0330     0.0000     0.0561     0.3248     0.0000     0.0000     0.0000     0.6191     0.0000
   9081.0000  1482.0796    35.9199    30.2255   220.8943     0.0073     0.0562     0.0493     0.0330     5.9610     0.3101     0.0000     0.0034   165.3324    53.4048     0.6028     7.2640   185.8472   153.5701   225.4995   196.5363     0.1011     0.0305     0.0466     0.0287     0.0269     2.7122  3005.0000     0.0311     0.0000     0.0576     0.3090     0.0000     0.0000     0.0000     0.6334     0.0000
   9081.5000  1482.0796    34.4485    31.4508   220.8943     0.0076     0.0561     0.0424     0.0327     3.3858     0.3185     0.0012     0.0036   168.0010    54.1852     0.6040     7.2937   188.8469   143.0099   225.4995   175.5148     0.0643     0.0404     0.0587     0.0263     0.0000     2.7119  2993.0000     0.0411     0.0000     0.0391     0.3085     0.0000     0.0000     0.0023     0.6501     0.0000
   9082.0000  1482.0796    31.8899    32.4039   220.8943     0.0079     0.0580     0.0369     0.0336     2.8430     0.3217     0.0016     0.0041   171.0915    54.1852     0.6324     7.2156   192.3209   137.4387   225.4995   195.7581     0.0048     0.0540     0.0979     0.0475     0.0000     2.7131  3005.0000     0.0560     0.0000     0.0243     0.3252     0.0000     0.0000     0.0031     0.6475     0.0000
   9082.5000  1482.0796    27.4475    33.6221   220.8943     0.0088     0.0584     0.0409     0.0336     4.3709     0.3167     0.0029     0.0043   180.3870    54.9656     0.6399     7.3828   202.7698   135.1099   225.4995   206.4742     0.1141     0.0870     0.0967     0.1041     0.0307     2.7152  3044.0000     0.0875     0.0000     0.0350     0.3280     0.0000     0.0000     0.0054     0.6316     0.0000
   9083.0000  1482.0796    28.5823    33.5847   220.8943     0.0086     0.0607     0.0523     0.0341     6.3963     0.3000     0.0087     0.0044   176.9996    54.9656     0.6401     7.2645   198.9621   139.0715   225.4995   205.6984     0.1050     0.0787     0.0790     0.0906     0.0216     2.7250  2975.0000     0.0798     0.0000     0.0657     0.3484     0.0000     0.0000     0.0163     0.5696     0.0000
   9083.5000  1477.1025    32.2176    33.6211   220.8943     0.0080     0.0624     0.0657     0.0347     7.9718     0.2818     0.0122     0.0044   162.9628    54.1852     0.6767     7.2171   183.1835   142.7190   225.4995   184.2047     0.0156     0.0587     0.0405     0.0428     0.0101     2.7325  2886.0000     0.0599     0.0000     0.1017     0.3635     0.0000     0.0000     0.0228     0.5120     0.0000
   9084.0000  1487.0565    36.8615    34.3457   220.8943     0.0076     0.0665     0.0689     0.0365     7.0958     0.2714     0.0152     0.0051   144.4443    54.1852     0.7244     7.4187   162.3672   140.6832   225.4995   159.5460     0.0986     0.0421     0.0414     0.0452     0.0332     2.7399  3024.0000     0.0434     0.0000     0.1103     0.3993     0.0000     0.0000     0.0285     0.4620     0.0000
   9084.5000  1496.6550    36.7225    34.7940   220.8943     0.0077     0.0679     0.0637     0.0375     6.3354     0.2747     0.0117     0.0059   133.1153    54.7705     0.7578     7.3134   149.6325   139.3334   225.4995   143.3478     0.0323     0.0451     0.0510     0.0498     0.0000     2.7367  3119.0000     0.0456     0.0000     0.0964     0.4117     0.0000     0.0000     0.0219     0.4700     0.0000
   9085.0000  1491.6781    34.2231    33.8611   220.8943     0.0078     0.0662     0.0620     0.0366     3.5697     0.2796     0.0112     0.0060   135.0761    55.3557     0.7306     7.3263   151.8366   137.5761   225.4995   145.3741     0.0041     0.0520     0.0594     0.0460     0.0000     2.7340  3077.0000     0.0519     0.0000     0.0918     0.3971     0.0000     0.0000     0.0209     0.4903     0.0000
   9085.5000  1487.0565    32.7153    34.0853   220.8943     0.0080     0.0624     0.0637     0.0350     2.5540     0.2837     0.0082     0.0052   146.6229    54.1852     0.6511     7.2856   164.8162   138.9949   225.4995   165.9611     0.0105     0.0593     0.0554     0.0587     0.3163     2.7279  3037.0000     0.0595     0.0000     0.0965     0.3639     0.0000     0.0000     0.0153     0.5244     0.0000
