~VERSION INFORMATION
VERS.           1.2   :CWLS Log ASCII Standard - VERSION 1.2
WRAP.           NO    :One Line per depth step
PROD.  Schlumberger   :LAS Producer
PROG.  DLIS to ASCII 17C0-152                          :LAS Program name and version
CREA.        2010/11/19 02:18                          :LAS Creation date {YYYY/MM/DD hh:mm}
DLIS_CREA.  2010-Nov-18 21:51                          :DLIS Creation date and time {YYYY-MMM-DD hh:mm}
SOURCE.     c799ad9c-fb3a-46c4-856c-9f94c6b0213d       :DLIS File Name
#--------------------------------------------------
~WELL INFORMATION
#MNEM.UNIT      DATA             DESCRIPTION
#---- ------ --------------   -----------------------------
STRT .F      8904.0000       :START DEPTH     
STOP .F      9132.5000       :STOP DEPTH     
STEP .F       0.5000         :STEP       
NULL .          -999.25      :NULL VALUE
COMP .                 COMPANY:  Wellstar Corporation               
WELL .                    WELL:  Silver Spur Minerals 35-2          
FLD  .                   FIELD:  Wildcat                            
LOC  .                LOCATION:  Sec.35, T8N, R78W                  
CNTY .                  COUNTY:  Jackson                            
STAT .                   STATE:  Colorado                           
CTRY .                 COUNTRY:                                     
SRVC .         SERVICE COMPANY:  Schlumberger                       
API  .              API NUMBER:  05-057-06490-0100                  
DATE .                LOG DATE:  18-Nov-2010
UWI  .          UNIQUE WELL ID:                                     
#-----------------------------------------------------------------------------
~PARAMETER INFORMATION
#MNEM.UNIT    VALUE                      DESCRIPTION
#---- -----   --------------------       ------------------------
CN   .        Wellstar Corporation       :Company Name
WN   .        Silver Spur Minerals 35-2  :Well Name
FN   .        Wildcat                    :Field Name
FL   .        Sec.35  T8N  R78W          :Field Location
FL1  .        SHL  1996' FSL X 655' FEL NESE :Field Location Line 1
COUN .        Jackson                    :County or Rig Name
STAT .        Colorado                   :State or Province
NATI .                                   :Nation
DATE .        18-Nov-2010                :Date as Month-Day-Year
APIN .        05-057-06490-0100          :API Serial Number
SECT .        35                         :Section
TOWN .        8N                         :Township
RANG .        78W                        :Range
DMF  .        Kelly Bushing              :Drilling Measured From
LMF  .        Kelly Bushing              :Log Measured From
PDAT .        Ground Level               :Permanent Datum
ENGI .        Philip Grant               :Engineer's Name
WITN .        Jacky Burch                :Witness's Name
LATI .                                   :Latitude
LONG .                                   :Longitude
LUL  .        Fort Morgan  CO            :Logging Unit Location
LUN  .              3021                 :Logging Unit Number
RUN  .        1                          :Run Number
SON  .        BE0K-00102                 :Service Order Number
BHT  .DEGF     211.99986                 :Bottom Hole Temperature (used in calculations)
BS   .IN         6.12500                 :Bit Size
DFD  .LB/G       8.80000                 :Drilling Fluid Density
DFV  .S         28.00000                 :Drilling Fluid Viscosity
DFL  .                                   :Drilling Fluid Loss
RMFS .OHMM       0.64200                 :Resistivity of Mud Filtrate Sample
EKB  .F       8549.00000                 :Elevation of Kelly Bushing
EGL  .F       8534.00000                 :Elevation of Ground Level
BLI  .F       9108.00000                 :Bottom Log Interval
BSAL .PPM     38000.00000                :Borehole Salinity
FLEV .                                   :Fluid Level
MCST .DEGF      83.57200                 :Mud Cake Sample Temperature
MFST .DEGF      83.57200                 :Mud Filtrate Sample Temperature
MRT  .DEGF     217.00000                 :Maximum Recorded Temperature
MST  .DEGF      83.57200                 :Mud Sample Temperature
RMCS .OHMM       1.28400                 :Resistivity of Mud Cake Sample
RMS  .OHMM       0.85600                 :Resistivity of Mud Sample
RW   .OHMM       1.00000                 :Resistivity of Connate Water
TDD  .F       8610.00000                 :Total Depth - Driller
TDL  .F       9116.00000                 :Total Depth - Logger
TLI  .F       8482.00000                 :Top Log Interval
HIDE .        Elemental Capture Spectroscopy :Header Identifier
MATR .        LIME                       :Rock Matrix for Neutron Porosity Corrections
FNUM .           1.00000                 :Form Factor Numerator
FEXP .           2.00000                 :Form Factor Exponent
DFT  .        KCl  Mud                   :Drilling Fluid Type
DFPH .           9.80000                 :Drilling Fluid PH
MCSS .        Calculated                 :Mud Cake Sample Source
MFSS .        Calculated                 :Mud Filtrate Sample Source
MSS  .        AIT bottom nose            :Mud Sample Source
OS1  .        None                       :Other Services Line 1
OS2  .                                   :Other Services Line 2
OS3  .                                   :Other Services Line 3
OS4  .                                   :Other Services Line 4
OS5  .                                   :Other Services Line 5
R1   .        Tool run as per tool sketch. :Remark Line 1
R2   .                                   :Remark Line 2
R3   .        This is the first log in hole. :Remark Line 3
R4   .                                   :Remark Line 4
R5   .        Data may be affected by hole rugosity. :Remark Line 5
R6   .                                   :Remark Line 6
R7   .                                   :Remark Line 7
R8   .                                   :Remark Line 8
TCS  .        11 00                      :Time Circulation Stopped
TLAB .                                   :Time Logger At Bottom
NMT  .        NOBARITE                   :HILT Nuclear Mud Type
EPD  .F         8534.000000              :Elevation of Permanent Datum above Mean Sea Level
APD  .F          15.000000               :Elevation of Depth Reference (LMF) above Permanent Datum
#-----------------------------------------------------------------------------
~CURVE INFORMATION
#MNEM.UNIT   API CODE                                  DESCRIPTION
#---- -----  --------                                  -----------------------
DEPT .F                                                :DEPTH (BOREHOLE) {F12.4}
CDF  .LBF                                              :Calibrated Downhole Force {F11.4}
CFTC .HZ                                               :Corrected Far Thermal Counting Rate {F11.4}
CNTC .HZ                                               :Corrected Near Thermal Counting Rate {F11.4}
CTEM .DEGF                                             :Cartridge Temperature {F11.4}
DNPH .CFCF                                             :Delta Thermal Neutron Porosity {F11.4}
DWAL_WALK2.                                            :Dry Weight Fraction Pseudo Aluminum (SpectroLith WALK2 Model) {F11.4}
DWCA_WALK2.                                            :Dry Weight Fraction Calcium (SpectroLith WALK2 Model) {F11.4}
DWFE_WALK2.                                            :Dry Weight Fraction Iron + 0.14 Aluminum (SpectroLith WALK2 Model) {F11.4}
DWGD_WALK2.PPM                                         :Dry Weight Fraction Gadolinium (SpectroLith WALK2 Model) {F11.4}
DWSI_WALK2.                                            :Dry Weight Fraction Silicon (SpectroLith WALK2 Model) {F11.4}
DWSU_WALK2.                                            :Dry Weight Fraction Sulfur (SpectroLith WALK2 Model) {F11.4}
DWTI_WALK2.                                            :Dry Weight Fraction Titanium (SpectroLith WALK2 Model) {F11.4}
ECGR .GAPI                                             :Environmentally Corrected Gamma-Ray {F11.4}
ECST .DEGF                                             :ECS Temperature {F11.4}
ESUF_WALK2.                                            :Elemental Statistical Uncertainty Factor (SpectroLith WALK2 Model) {F11.4}
GDEV .DEG                                              :HGNS Deviation {F11.4}
GR   .GAPI                                             :Gamma-Ray {F11.4}
GR_EDTC.GAPI                                           :EDTC Gamma Ray {F11.4}
GTEM .DEGF                                             :Generalized Borehole Temperature {F11.4}
HGR  .GAPI                                             :HiRes Gamma-Ray {F11.4}
HNPO .CFCF                                             :HiRes Enhanced Thermal Neutron Porosity {F11.4}
HTNP .CFCF                                             :HiRes Thermal Neutron Porosity {F11.4}
NPHI .CFCF                                             :Thermal Neutron Porosity (Ratio Method) {F11.4}
NPOR .CFCF                                             :Enhanced Thermal Neutron Porosity {F11.4}
QCPMT.                                                 :Photomultiplier Tube Quality Control {F11.4}
RHGE_WALK2.G/C3                                        :Matrix Density from Elemental Concentrations (SpectroLith WALK2 Model) {F11.4}
TENS .LBF                                              :Cable Tension {F11.4}
TNPH .CFCF                                             :Thermal Neutron Porosity {F11.4}
WANH_WALK2.                                            :Dry Weight Fraction Anhydrite/Gypsum (SpectroLith WALK2 Model) {F11.4}
WCAR_WALK2.                                            :Dry Weight Fraction Carbonate (SpectroLith WALK2 Model) {F11.4}
WCLA_WALK2.                                            :Dry Weight Fraction Clay (SpectroLith WALK2 Model) {F11.4}
WCOA_WALK2.                                            :Dry Weight Fraction Coal (SpectroLith WALK2 Model) {F11.4}
WEVA_WALK2.                                            :Dry Weight Fraction Salt (SpectroLith WALK2 Model) {F11.4}
WPYR_WALK2.                                            :Dry Weight Fraction Pyrite (SpectroLith WALK2 Model) {F11.4}
WQFM_WALK2.                                            :Dry Weight Fraction Quartz+Feldspar+Mica (QFM) (SpectroLith WALK2 Model) {F11.4}
WSID_WALK2.                                            :Dry Weight Fraction Siderite (SpectroLith WALK2 Model) {F11.4}
#-----------------------------------------------------------------------------
# 
#      DEPT        CDF        CFTC       CNTC       CTEM       DNPH    DWAL_WALK2 DWCA_WALK2 DWFE_WALK2 DWGD_WALK2 DWSI_WALK2 DWSU_WALK2 DWTI_WALK2    ECGR       ECST    ESUF_WALK2    GDEV        GR      GR_EDTC      GTEM       HGR        HNPO       HTNP       NPHI       NPOR      QCPMT    RHGE_WALK2    TENS       TNPH    WANH_WALK2 WCAR_WALK2 WCLA_WALK2 WCOA_WALK2 WEVA_WALK2 WPYR_WALK2 WQFM_WALK2 WSID_WALK2
#
~A  
# ...
   9054.0000  1691.1135    35.6594    32.6800   203.1061     0.0076     0.0693     0.0073     0.0403     6.9784     0.3362     0.0000     0.0052   173.6067    51.8441     0.6908     7.5015   195.1482   138.1345   214.0016   208.4915     0.2025     0.0414     0.0729     0.0770     0.1585     2.7185  2930.0000     0.0415     0.0000     0.0000     0.4244     0.0000     0.0000     0.0000     0.5756     0.0000
   9054.5000  1686.1366    33.9538    33.7692   203.1061     0.0079     0.0674     0.0239     0.0393     7.3223     0.3201     0.0000     0.0047   168.8655    51.8441     0.6389     7.4281   189.8187   134.9769   213.8219   188.3569     0.0088     0.0512     0.0773     0.0274     0.0000     2.7195  2942.0000     0.0526     0.0000     0.0000     0.4074     0.0000     0.0000     0.0000     0.5926     0.0000
   9055.0000  1691.1135    32.9792    35.7233   203.1061     0.0082     0.0666     0.0355     0.0392     6.7182     0.3077     0.0000     0.0039   158.9502    52.6245     0.6008     7.2201   178.6731   129.6699   213.6423   172.7368     0.0360     0.0641     0.0554     0.0497     0.4402     2.7212  2984.0000     0.0655     0.0000     0.0205     0.4006     0.0000     0.0000     0.0000     0.5789     0.0000
   9055.5000  1691.1135    34.9668    36.6348   203.1061     0.0081     0.0644     0.0408     0.0379     6.4785     0.3054     0.0000     0.0037   155.3204    53.0147     0.6012     6.9049   174.5928   137.1147   213.6423   174.8184     0.0454     0.0590     0.0626     0.0671     0.4328     2.7198  2998.0000     0.0600     0.0000     0.0348     0.3810     0.0000     0.0000     0.0000     0.5842     0.0000
   9056.0000  1691.1135    35.5908    37.2108   203.1061     0.0080     0.0622     0.0432     0.0367     4.8422     0.3063     0.0000     0.0032   155.8928    53.0147     0.6133     6.9643   175.2364   132.7091   213.6423   176.5179     0.0632     0.0589     0.0626     0.0533     0.7270     2.7181  2926.0000     0.0596     0.0000     0.0413     0.3619     0.0000     0.0000     0.0000     0.5967     0.0000
   9056.5000  1691.1135    35.8845    37.3691   203.1061     0.0080     0.0590     0.0499     0.0347     5.7723     0.3043     0.0000     0.0033   162.9604    53.0147     0.6460     7.2503   183.1809   132.5706   213.6423   174.9814     0.1844     0.0569     0.0634     0.0930     0.1730     2.7155  2955.0000     0.0590     0.0000     0.0594     0.3334     0.0000     0.0000     0.0000     0.6072     0.0000
   9057.0000  1695.7351    32.8456    35.2374   203.1061     0.0082     0.0587     0.0482     0.0345     5.8216     0.3069     0.0000     0.0035   169.4047    53.0147     0.6380     7.2678   190.4248   129.2832   213.6423   198.7426     0.0825     0.0624     0.0436     0.0323     0.2409     2.7148  3044.0000     0.0640     0.0000     0.0547     0.3312     0.0000     0.0000     0.0000     0.6141     0.0000
   9057.5000  1695.7351    34.0373    34.2234   203.1061     0.0079     0.0583     0.0391     0.0340     7.1335     0.3186     0.0000     0.0042   175.6678    53.7950     0.6498     7.2124   197.4651   134.8920   213.6423   197.9010     0.0286     0.0536     0.0218     0.0281     0.1153     2.7122  3021.0000     0.0542     0.0000     0.0302     0.3272     0.0000     0.0000     0.0000     0.6426     0.0000
   9058.0000  1695.7351    36.5667    33.9650   203.1061     0.0076     0.0600     0.0316     0.0351     4.7852     0.3241     0.0000     0.0041   165.1263    53.4048     0.6453     7.1325   185.6156   130.4612   213.6423   195.9482     0.0531     0.0426     0.0136     0.1110     0.6647     2.7129  2952.0000     0.0431     0.0000     0.0101     0.3426     0.0000     0.0000     0.0000     0.6473     0.0000
   9058.5000  1700.7120    40.4739    30.5764   203.1061     0.0070     0.0614     0.0302     0.0360     5.3219     0.3233     0.0000     0.0039   151.3120    51.8441     0.6699     7.1987   170.0871   133.2461   213.6423   164.2043    -0.0033     0.0196     0.0200     0.0056     0.5243     2.7144  3026.0000     0.0192     0.0000     0.0062     0.3545     0.0000     0.0000     0.0000     0.6393     0.0000
   9059.0000  1700.7120    39.4994    30.1043   202.1178     0.0070     0.0630     0.0398     0.0372     5.4521     0.3090     0.0000     0.0033   142.4200    51.8441     0.6597     7.1352   160.0918   135.0467   213.6423   151.0470     0.0772     0.0212     0.0329     0.0175     0.0319     2.7183  3006.0000     0.0201     0.0000     0.0322     0.3684     0.0000     0.0000     0.0000     0.5994     0.0000
   9059.5000  1695.7351    36.0622    31.5551   201.1296     0.0074     0.0611     0.0484     0.0362     8.6792     0.3021     0.0000     0.0028   144.2960    52.6245     0.6645     7.1452   162.2005   143.4772   213.4027   165.6877     0.0471     0.0368     0.0362     0.0843     0.0000     2.7180  2957.0000     0.0357     0.0000     0.0552     0.3520     0.0000     0.0000     0.0000     0.5928     0.0000
   9060.0000  1695.7351    35.2869    30.0012   201.1296     0.0073     0.0598     0.0471     0.0354     9.7981     0.3059     0.0000     0.0028   156.5280    52.6245     0.6652     7.2702   175.9503   146.3737   213.2830   169.9443    -0.0196     0.0333     0.0154    -0.0015     0.4433     2.7163  2916.0000     0.0324     0.0000     0.0517     0.3409     0.0000     0.0000     0.0000     0.6074     0.0000
   9060.5000  1695.7351    35.0661    28.0462   201.1296     0.0072     0.0596     0.0402     0.0352    10.1498     0.3145     0.0000     0.0033   167.4942    51.8441     0.6814     7.0675   188.2772   144.8502   213.2830   192.9353     0.0529     0.0257     0.0042     0.0047     0.5843     2.7146  2959.0000     0.0256     0.0000     0.0331     0.3393     0.0000     0.0000     0.0000     0.6276     0.0000
   9061.0000  1700.7120    37.6346    27.5268   201.1296     0.0069     0.0629     0.0325     0.0367     8.4137     0.3181     0.0000     0.0043   178.5907    51.8441     0.6974     7.1703   200.7507   140.4208   213.2830   201.9547    -0.0038     0.0171     0.0038     0.0284     0.4348     2.7161  2985.0000     0.0162     0.0000     0.0123     0.3677     0.0000     0.0000     0.0000     0.6200     0.0000
   9061.5000  1700.7120    37.4443    25.0035   201.1296     0.0067     0.0652     0.0426     0.0380     6.6968     0.3021     0.0000     0.0047   183.2644    51.8441     0.6669     7.2540   206.0042   135.6571   213.2830   207.3358    -0.0063     0.0085     0.0072     0.0383     0.0000     2.7203  2973.0000     0.0079     0.0000     0.0396     0.3884     0.0000     0.0000     0.0000     0.5720     0.0000
   9062.0000  1700.7120    38.8449    24.3441   201.1296     0.0066     0.0649     0.0543     0.0375     6.2326     0.2894     0.0006     0.0052   182.2794    51.8441     0.6395     7.0473   204.8971   131.4884   213.2830   208.0515     0.0082     0.0029     0.0141     0.0172     0.0476     2.7220  2951.0000     0.0025     0.0000     0.0710     0.3852     0.0000     0.0000     0.0011     0.5428     0.0000
   9062.5000  1700.7120    37.8693    25.2193   201.1296     0.0067     0.0613     0.0691     0.0356     8.0618     0.2784     0.0000     0.0048   175.0560    51.8441     0.6026     7.2132   196.7774   129.6890   213.2830   200.3036    -0.0076     0.0078     0.0154     0.0121     0.2636     2.7202  2955.0000     0.0076     0.0000     0.1109     0.3536     0.0000     0.0000     0.0000     0.5356     0.0000
   9063.0000  1710.3105    38.3233    26.4982   201.1296     0.0068     0.0580     0.0779     0.0337     9.6766     0.2739     0.0000     0.0045   167.8997    51.8441     0.5691     7.2327   188.7331   124.9198   213.2830   182.0728     0.0549     0.0109     0.0153    -0.0010     0.8506     2.7182  3097.0000     0.0109     0.0000     0.1346     0.3245     0.0000     0.0000     0.0000     0.5409     0.0000
   9063.5000  1715.2876    37.6642    27.5154   201.1296     0.0069     0.0576     0.0824     0.0338     9.6544     0.2690     0.0000     0.0036   163.7254    52.6245     0.5554     7.2259   184.0408   126.8087   213.1033   184.0261     0.0013     0.0148     0.0208     0.0030     0.7047     2.7192  3076.0000     0.0161     0.0000     0.1467     0.3215     0.0000     0.0000     0.0000     0.5318     0.0000
