~VERSION INFORMATION
VERS.           1.2   :CWLS Log ASCII Standard - VERSION 1.2
WRAP.           NO    :One Line per depth step
PROD.  Schlumberger   :LAS Producer
PROG.  DLIS to ASCII 17C0-152                          :LAS Program name and version
CREA.        2010/11/19 02:18                          :LAS Creation date {YYYY/MM/DD hh:mm}
DLIS_CREA.  2010-Nov-18 22:49                          :DLIS Creation date and time {YYYY-MMM-DD hh:mm}
SOURCE.     d476e3e6-e07a-4d20-b90c-cbd099bd9e21       :DLIS File Name
#--------------------------------------------------
~WELL INFORMATION
#MNEM.UNIT      DATA             DESCRIPTION
#---- ------ --------------   -----------------------------
STRT .F      8456.0000       :START DEPTH     
STOP .F      9128.5000       :STOP DEPTH     
STEP .F       0.5000         :STEP       
NULL .          -999.25      :NULL VALUE
COMP .                 COMPANY:  Wellstar Corporation               
WELL .                    WELL:  Silver Spur Minerals 35-2          
FLD  .                   FIELD:  Wildcat                            
LOC  .                LOCATION:  Sec.35, T8N, R78W                  
CNTY .                  COUNTY:  Jackson                            
STAT .                   STATE:  Colorado                           
CTRY .                 COUNTRY:                                     
SRVC .         SERVICE COMPANY:  Schlumberger                       
API  .              API NUMBER:  05-057-06490-0100                  
DATE .                LOG DATE:  18-Nov-2010
UWI  .          UNIQUE WELL ID:                                     
#-----------------------------------------------------------------------------
~PARAMETER INFORMATION
#MNEM.UNIT    VALUE                      DESCRIPTION
#---- -----   --------------------       ------------------------
CN   .        Wellstar Corporation       :Company Name
WN   .        Silver Spur Minerals 35-2  :Well Name
FN   .        Wildcat                    :Field Name
FL   .        Sec.35  T8N  R78W          :Field Location
FL1  .        SHL  1996' FSL X 655' FEL NESE :Field Location Line 1
COUN .        Jackson                    :County or Rig Name
STAT .        Colorado                   :State or Province
NATI .                                   :Nation
DATE .        18-Nov-2010                :Date as Month-Day-Year
APIN .        05-057-06490-0100          :API Serial Number
SECT .        35                         :Section
TOWN .        8N                         :Township
RANG .        78W                        :Range
DMF  .        Kelly Bushing              :Drilling Measured From
LMF  .        Kelly Bushing              :Log Measured From
PDAT .        Ground Level               :Permanent Datum
ENGI .        Philip Grant               :Engineer's Name
WITN .        Jacky Burch                :Witness's Name
LATI .                                   :Latitude
LONG .                                   :Longitude
LUL  .        Fort Morgan  CO            :Logging Unit Location
LUN  .              3021                 :Logging Unit Number
RUN  .        1                          :Run Number
SON  .        BE0K-00102                 :Service Order Number
BHT  .DEGF     211.99986                 :Bottom Hole Temperature (used in calculations)
BS   .IN         6.12500                 :Bit Size
DFD  .LB/G       8.80000                 :Drilling Fluid Density
DFV  .S         28.00000                 :Drilling Fluid Viscosity
DFL  .                                   :Drilling Fluid Loss
RMFS .OHMM       0.64200                 :Resistivity of Mud Filtrate Sample
EKB  .F       8549.00000                 :Elevation of Kelly Bushing
EGL  .F       8534.00000                 :Elevation of Ground Level
BLI  .F       9108.00000                 :Bottom Log Interval
BSAL .PPM     38000.00000                :Borehole Salinity
FLEV .                                   :Fluid Level
MCST .DEGF      83.57200                 :Mud Cake Sample Temperature
MFST .DEGF      83.57200                 :Mud Filtrate Sample Temperature
MRT  .DEGF     217.00000                 :Maximum Recorded Temperature
MST  .DEGF      83.57200                 :Mud Sample Temperature
RMCS .OHMM       1.28400                 :Resistivity of Mud Cake Sample
RMS  .OHMM       0.85600                 :Resistivity of Mud Sample
RW   .OHMM       1.00000                 :Resistivity of Connate Water
TDD  .F       8610.00000                 :Total Depth - Driller
TDL  .F       9116.00000                 :Total Depth - Logger
TLI  .F       8482.00000                 :Top Log Interval
HIDE .        Elemental Capture Spectroscopy :Header Identifier
MATR .        LIME                       :Rock Matrix for Neutron Porosity Corrections
FNUM .           1.00000                 :Form Factor Numerator
FEXP .           2.00000                 :Form Factor Exponent
DFT  .        KCl  Mud                   :Drilling Fluid Type
DFPH .           9.80000                 :Drilling Fluid PH
MCSS .        Calculated                 :Mud Cake Sample Source
MFSS .        Calculated                 :Mud Filtrate Sample Source
MSS  .        AIT bottom nose            :Mud Sample Source
OS1  .        PEx-HRLA                   :Other Services Line 1
OS2  .        MSIP-FMI                   :Other Services Line 2
OS3  .        HNGS                       :Other Services Line 3
OS4  .                                   :Other Services Line 4
OS5  .                                   :Other Services Line 5
R1   .        Tool run as per tool sketch. :Remark Line 1
R2   .                                   :Remark Line 2
R3   .        This is the first log in hole. :Remark Line 3
R4   .                                   :Remark Line 4
R5   .        Data may be affected by hole rugosity. :Remark Line 5
R6   .                                   :Remark Line 6
R7   .        Matrix Limestone 2.71      :Remark Line 7
R8   .                                   :Remark Line 8
TCS  .        11 00                      :Time Circulation Stopped
TLAB .        9 31                       :Time Logger At Bottom
NMT  .        NOBARITE                   :HILT Nuclear Mud Type
EPD  .F         8534.000000              :Elevation of Permanent Datum above Mean Sea Level
APD  .F          15.000000               :Elevation of Depth Reference (LMF) above Permanent Datum
#-----------------------------------------------------------------------------
~CURVE INFORMATION
#MNEM.UNIT   API CODE                                  DESCRIPTION
#---- -----  --------                                  -----------------------
DEPT .F                                                :DEPTH (BOREHOLE) {F12.4}
CDF  .LBF                                              :Calibrated Downhole Force {F11.4}
CFTC .HZ                                               :Corrected Far Thermal Counting Rate {F11.4}
CNTC .HZ                                               :Corrected Near Thermal Counting Rate {F11.4}
CTEM .DEGF                                             :Cartridge Temperature {F11.4}
DNPH .CFCF                                             :Delta Thermal Neutron Porosity {F11.4}
DWAL_WALK2.                                            :Dry Weight Fraction Pseudo Aluminum (SpectroLith WALK2 Model) {F11.4}
DWCA_WALK2.                                            :Dry Weight Fraction Calcium (SpectroLith WALK2 Model) {F11.4}
DWFE_WALK2.                                            :Dry Weight Fraction Iron + 0.14 Aluminum (SpectroLith WALK2 Model) {F11.4}
DWGD_WALK2.PPM                                         :Dry Weight Fraction Gadolinium (SpectroLith WALK2 Model) {F11.4}
DWSI_WALK2.                                            :Dry Weight Fraction Silicon (SpectroLith WALK2 Model) {F11.4}
DWSU_WALK2.                                            :Dry Weight Fraction Sulfur (SpectroLith WALK2 Model) {F11.4}
DWTI_WALK2.                                            :Dry Weight Fraction Titanium (SpectroLith WALK2 Model) {F11.4}
ECGR .GAPI                                             :Environmentally Corrected Gamma-Ray {F11.4}
ECST .DEGF                                             :ECS Temperature {F11.4}
ESUF_WALK2.                                            :Elemental Statistical Uncertainty Factor (SpectroLith WALK2 Model) {F11.4}
GDEV .DEG                                              :HGNS Deviation {F11.4}
GR   .GAPI                                             :Gamma-Ray {F11.4}
GR_EDTC.GAPI                                           :EDTC Gamma Ray {F11.4}
GTEM .DEGF                                             :Generalized Borehole Temperature {F11.4}
HGR  .GAPI                                             :HiRes Gamma-Ray {F11.4}
HNPO .CFCF                                             :HiRes Enhanced Thermal Neutron Porosity {F11.4}
HTNP .CFCF                                             :HiRes Thermal Neutron Porosity {F11.4}
NPHI .CFCF                                             :Thermal Neutron Porosity (Ratio Method) {F11.4}
NPOR .CFCF                                             :Enhanced Thermal Neutron Porosity {F11.4}
QCPMT.                                                 :Photomultiplier Tube Quality Control {F11.4}
RHGE_WALK2.G/C3                                        :Matrix Density from Elemental Concentrations (SpectroLith WALK2 Model) {F11.4}
TENS .LBF                                              :Cable Tension {F11.4}
TNPH .CFCF                                             :Thermal Neutron Porosity {F11.4}
WANH_WALK2.                                            :Dry Weight Fraction Anhydrite/Gypsum (SpectroLith WALK2 Model) {F11.4}
WCAR_WALK2.                                            :Dry Weight Fraction Carbonate (SpectroLith WALK2 Model) {F11.4}
WCLA_WALK2.                                            :Dry Weight Fraction Clay (SpectroLith WALK2 Model) {F11.4}
WCOA_WALK2.                                            :Dry Weight Fraction Coal (SpectroLith WALK2 Model) {F11.4}
WEVA_WALK2.                                            :Dry Weight Fraction Salt (SpectroLith WALK2 Model) {F11.4}
WPYR_WALK2.                                            :Dry Weight Fraction Pyrite (SpectroLith WALK2 Model) {F11.4}
WQFM_WALK2.                                            :Dry Weight Fraction Quartz+Feldspar+Mica (QFM) (SpectroLith WALK2 Model) {F11.4}
WSID_WALK2.                                            :Dry Weight Fraction Siderite (SpectroLith WALK2 Model) {F11.4}
#-----------------------------------------------------------------------------
# 
#      DEPT        CDF        CFTC       CNTC       CTEM       DNPH    DWAL_WALK2 DWCA_WALK2 DWFE_WALK2 DWGD_WALK2 DWSI_WALK2 DWSU_WALK2 DWTI_WALK2    ECGR       ECST    ESUF_WALK2    GDEV        GR      GR_EDTC      GTEM       HGR        HNPO       HTNP       NPHI       NPOR      QCPMT    RHGE_WALK2    TENS       TNPH    WANH_WALK2 WCAR_WALK2 WCLA_WALK2 WCOA_WALK2 WEVA_WALK2 WPYR_WALK2 WQFM_WALK2 WSID_WALK2
#
~A  
# ...
   8806.0000  1360.4985    35.6173    34.2858   224.8472     0.0077     0.0539     0.0973     0.0304     7.0600     0.2594     0.0057     0.0045   166.3122    55.3557     0.6043     4.1395   186.9486   134.5982   225.1402   200.7759     0.0625     0.0480     0.0448     0.0799     0.0000     2.7222  2968.0000     0.0479     0.0000     0.1867     0.2889     0.0000     0.0000     0.0106     0.5138     0.0000
   8806.5000  1360.4985    36.4855    33.6346   224.8472     0.0076     0.0538     0.0916     0.0305     7.2951     0.2660     0.0051     0.0043   175.3944    56.1361     0.6096     4.7464   197.1578   137.8135   225.1402   188.8985    -0.0046     0.0424     0.0504     0.0129     0.0295     2.7207  2888.0000     0.0421     0.0000     0.1714     0.2881     0.0000     0.0000     0.0096     0.5309     0.0000
   8807.0000  1355.5216    33.2028    33.5044   224.8472     0.0079     0.0499     0.0927     0.0291     7.6310     0.2709     0.0000     0.0035   171.1427    56.1361     0.5869     4.7967   192.3785   139.1836   225.1402   202.9705     0.0655     0.0558     0.0636     0.0733     0.0000     2.7124  2835.0000     0.0548     0.0000     0.1743     0.2535     0.0000     0.0000     0.0000     0.5723     0.0000
   8807.5000  1360.4985    32.7651    34.9368   224.8472     0.0081     0.0479     0.0966     0.0281     6.4152     0.2697     0.0009     0.0026   168.0162    55.3557     0.5908     4.7244   188.8640   131.7692   225.1402   185.2197     0.0831     0.0631     0.1008     0.0696     0.1613     2.7122  2991.0000     0.0630     0.0000     0.1849     0.2359     0.0000     0.0000     0.0016     0.5776     0.0000
   8808.0000  1380.0510    29.7293    34.8944   224.8472     0.0086     0.0498     0.1044     0.0292     6.0373     0.2572     0.0040     0.0017   158.0394    55.3557     0.5636     4.7446   177.6493   128.6924   225.1402   178.9565     0.0141     0.0781     0.1156     0.0860     0.0000     2.7193  3069.0000     0.0793     0.0000     0.2058     0.2526     0.0000     0.0000     0.0074     0.5342     0.0000
   8808.5000  1375.0741    27.5553    35.5435   224.8472     0.0091     0.0528     0.1065     0.0302     6.7170     0.2501     0.0109     0.0013   148.0526    55.3557     0.5697     4.7076   166.4233   127.7378   225.1402   168.7511     0.2469     0.0955     0.1166     0.0915     0.0000     2.7297  3020.0000     0.0973     0.0000     0.2116     0.2787     0.0000     0.0000     0.0204     0.4894     0.0000
   8809.0000  1370.0970    29.0787    37.2394   224.8472     0.0090     0.0553     0.1075     0.0320     9.2021     0.2442     0.0089     0.0015   145.6209    55.3557     0.5824     4.7562   163.6898   130.3356   225.1402   152.0840     0.0870     0.0937     0.0691     0.0810     0.1773     2.7308  2951.0000     0.0956     0.0000     0.2141     0.3013     0.0000     0.0000     0.0166     0.4679     0.0000
   8809.5000  1375.0741    31.6838    35.9368   224.8472     0.0084     0.0553     0.1095     0.0326    10.7545     0.2414     0.0037     0.0017   146.1517    55.3557     0.5949     4.7581   164.2865   129.7680   225.1402   171.8709     0.1700     0.0715     0.0534     0.0862     0.5626     2.7261  3006.0000     0.0731     0.0000     0.2195     0.3010     0.0000     0.0000     0.0070     0.4725     0.0000
   8810.0000  1375.0741    32.3349    34.3741   224.8472     0.0081     0.0541     0.1159     0.0323    11.5409     0.2356     0.0000     0.0018   155.4070    55.3557     0.5889     4.7369   174.6902   132.2303   225.1402   170.0128     0.0293     0.0623     0.0468     0.0242     0.5027     2.7223  3029.0000     0.0627     0.0000     0.2368     0.2904     0.0000     0.0000     0.0000     0.4728     0.0000
   8810.5000  1375.0741    29.7294    32.4200   224.8472     0.0082     0.0530     0.1176     0.0318    10.4404     0.2356     0.0000     0.0015   159.3494    55.3557     0.5725     4.8287   179.1219   132.2584   225.1402   182.9033     0.0846     0.0671     0.0605     0.1051     0.5776     2.7216  2972.0000     0.0671     0.0000     0.2412     0.2805     0.0000     0.0000     0.0000     0.4783     0.0000
   8811.0000  1365.4756    29.4897    32.3867   224.8472     0.0083     0.0530     0.1089     0.0316     8.4972     0.2458     0.0011     0.0016   167.2169    55.3557     0.5648     4.5719   187.9656   138.4855   225.1402   184.1214     0.0695     0.0678     0.0593     0.0953     0.1171     2.7211  2961.0000     0.0683     0.0000     0.2178     0.2811     0.0000     0.0000     0.0021     0.4990     0.0000
   8811.5000  1360.4985    31.2298    30.5628   224.8472     0.0078     0.0559     0.0968     0.0327     7.0394     0.2553     0.0044     0.0020   171.1441    55.3557     0.5708     4.5609   192.3800   138.3449   225.1402   196.0521     0.0668     0.0504     0.0643     0.0547     0.1045     2.7250  2929.0000     0.0508     0.0000     0.1853     0.3063     0.0000     0.0000     0.0082     0.5001     0.0000
   8812.0000  1360.4985    32.3153    32.2562   224.8472     0.0079     0.0592     0.0815     0.0340     5.8139     0.2679     0.0097     0.0023   173.9918    54.1852     0.5993     4.8741   195.5810   142.3548   225.1402   195.9962     0.0447     0.0530     0.0559     0.0452     0.0262     2.7309  2967.0000     0.0534     0.0000     0.1443     0.3357     0.0000     0.0000     0.0181     0.5019     0.0000
   8812.5000  1360.4985    33.6369    33.1677   224.8472     0.0078     0.0608     0.0801     0.0348     7.4338     0.2669     0.0118     0.0017   170.5178    55.3557     0.5951     4.7240   191.6761   141.7998   225.1402   194.6023     0.0247     0.0511     0.0592     0.0512     0.0000     2.7347  2911.0000     0.0515     0.0000     0.1403     0.3493     0.0000     0.0000     0.0220     0.4884     0.0000
   8813.0000  1355.5216    33.2026    33.9493   224.8472     0.0080     0.0637     0.0711     0.0365     7.8956     0.2722     0.0141     0.0012   168.2400    55.3557     0.6239     4.8582   189.1156   142.2610   225.1402   185.5345     0.0446     0.0570     0.0613     0.0464     0.0869     2.7390  2875.0000     0.0567     0.0000     0.1163     0.3747     0.0000     0.0000     0.0264     0.4826     0.0000
   8813.5000  1365.4756    32.1140    33.8524   224.8472     0.0081     0.0649     0.0686     0.0377     8.3996     0.2726     0.0099     0.0015   163.8121    55.3557     0.6438     4.6484   184.1383   143.7634   225.1402   188.5442    -0.0014     0.0619     0.0553     0.0654     0.0000     2.7359  2998.0000     0.0614     0.0000     0.1095     0.3854     0.0000     0.0000     0.0186     0.4865     0.0000
   8814.0000  1370.0970    32.9864    33.5918   224.8472     0.0080     0.0688     0.0616     0.0404     6.0269     0.2734     0.0051     0.0024   158.7934    55.3557     0.6434     4.6865   178.4968   140.6932   225.1402   180.3408     0.0285     0.0566     0.0487     0.0546     0.0233     2.7339  3034.0000     0.0561     0.0000     0.0908     0.4195     0.0000     0.0000     0.0095     0.4802     0.0000
   8814.5000  1365.4756    34.2852    33.1988   224.8472     0.0078     0.0675     0.0763     0.0403     5.7943     0.2579     0.0000     0.0025   154.7124    56.5263     0.6018     4.8940   173.9094   143.7605   225.1402   168.4389     0.1194     0.0496     0.0490     0.0489     0.1560     2.7302  3004.0000     0.0489     0.0000     0.1304     0.4083     0.0000     0.0000     0.0000     0.4613     0.0000
   8815.0000  1370.0970    34.0712    33.0707   224.8472     0.0078     0.0658     0.0939     0.0394     7.0155     0.2404     0.0000     0.0020   155.5461    55.7459     0.5744     4.9063   174.8466   145.4226   225.1402   174.3698     0.0217     0.0490     0.0482     0.0562     0.6025     2.7316  2954.0000     0.0492     0.0000     0.1775     0.3932     0.0000     0.0000     0.0000     0.4294     0.0000
   8815.5000  1370.0970    32.1444    31.6072   224.8472     0.0078     0.0609     0.1059     0.0367     8.7885     0.2348     0.0000     0.0012   164.4364    55.3557     0.5662     4.7414   184.8401   149.7114   225.1402   182.1662     0.0271     0.0522     0.0451     0.0385     0.8625     2.7287  2960.0000     0.0513     0.0000     0.2099     0.3503     0.0000     0.0000     0.0000     0.4398     0.0000
