~VERSION INFORMATION
VERS.           1.2   :CWLS Log ASCII Standard - VERSION 1.2
WRAP.           NO    :One Line per depth step
PROD.  Schlumberger   :LAS Producer
PROG.  DLIS to ASCII 17C0-152                          :LAS Program name and version
CREA.        2010/11/19 02:18                          :LAS Creation date {YYYY/MM/DD hh:mm}
DLIS_CREA.  2010-Nov-18 22:49                          :DLIS Creation date and time {YYYY-MMM-DD hh:mm}
SOURCE.     d476e3e6-e07a-4d20-b90c-cbd099bd9e21       :DLIS File Name
#--------------------------------------------------
~WELL INFORMATION
#MNEM.UNIT      DATA             DESCRIPTION
#---- ------ --------------   -----------------------------
STRT .F      8456.0000       :START DEPTH     
STOP .F      9128.5000       :STOP DEPTH     
STEP .F       0.5000         :STEP       
NULL .          -999.25      :NULL VALUE
COMP .                 COMPANY:  Wellstar Corporation               
WELL .                    WELL:  Silver Spur Minerals 35-2          
FLD  .                   FIELD:  Wildcat                            
LOC  .                LOCATION:  Sec.35, T8N, R78W                  
CNTY .                  COUNTY:  Jackson                            
STAT .                   STATE:  Colorado                           
CTRY .                 COUNTRY:                                     
SRVC .         SERVICE COMPANY:  Schlumberger                       
API  .              API NUMBER:  05-057-06490-0100                  
DATE .                LOG DATE:  18-Nov-2010
UWI  .          UNIQUE WELL ID:                                     
#-----------------------------------------------------------------------------
~PARAMETER INFORMATION
#MNEM.UNIT    VALUE                      DESCRIPTION
#---- -----   --------------------       ------------------------
CN   .        Wellstar Corporation       :Company Name
WN   .        Silver Spur Minerals 35-2  :Well Name
FN   .        Wildcat                    :Field Name
FL   .        Sec.35  T8N  R78W          :Field Location
FL1  .        SHL  1996' FSL X 655' FEL NESE :Field Location Line 1
COUN .        Jackson                    :County or Rig Name
STAT .        Colorado                   :State or Province
NATI .                                   :Nation
DATE .        18-Nov-2010                :Date as Month-Day-Year
APIN .        05-057-06490-0100          :API Serial Number
SECT .        35                         :Section
TOWN .        8N                         :Township
RANG .        78W                        :Range
DMF  .        Kelly Bushing              :Drilling Measured From
LMF  .        Kelly Bushing              :Log Measured From
PDAT .        Ground Level               :Permanent Datum
ENGI .        Philip Grant               :Engineer's Name
WITN .        Jacky Burch                :Witness's Name
LATI .                                   :Latitude
LONG .                                   :Longitude
LUL  .        Fort Morgan  CO            :Logging Unit Location
LUN  .              3021                 :Logging Unit Number
RUN  .        1                          :Run Number
SON  .        BE0K-00102                 :Service Order Number
BHT  .DEGF     211.99986                 :Bottom Hole Temperature (used in calculations)
BS   .IN         6.12500                 :Bit Size
DFD  .LB/G       8.80000                 :Drilling Fluid Density
DFV  .S         28.00000                 :Drilling Fluid Viscosity
DFL  .                                   :Drilling Fluid Loss
RMFS .OHMM       0.64200                 :Resistivity of Mud Filtrate Sample
EKB  .F       8549.00000                 :Elevation of Kelly Bushing
EGL  .F       8534.00000                 :Elevation of Ground Level
BLI  .F       9108.00000                 :Bottom Log Interval
BSAL .PPM     38000.00000                :Borehole Salinity
FLEV .                                   :Fluid Level
MCST .DEGF      83.57200                 :Mud Cake Sample Temperature
MFST .DEGF      83.57200                 :Mud Filtrate Sample Temperature
MRT  .DEGF     217.00000                 :Maximum Recorded Temperature
MST  .DEGF      83.57200                 :Mud Sample Temperature
RMCS .OHMM       1.28400                 :Resistivity of Mud Cake Sample
RMS  .OHMM       0.85600                 :Resistivity of Mud Sample
RW   .OHMM       1.00000                 :Resistivity of Connate Water
TDD  .F       8610.00000                 :Total Depth - Driller
TDL  .F       9116.00000                 :Total Depth - Logger
TLI  .F       8482.00000                 :Top Log Interval
HIDE .        Elemental Capture Spectroscopy :Header Identifier
MATR .        LIME                       :Rock Matrix for Neutron Porosity Corrections
FNUM .           1.00000                 :Form Factor Numerator
FEXP .           2.00000                 :Form Factor Exponent
DFT  .        KCl  Mud                   :Drilling Fluid Type
DFPH .           9.80000                 :Drilling Fluid PH
MCSS .        Calculated                 :Mud Cake Sample Source
MFSS .        Calculated                 :Mud Filtrate Sample Source
MSS  .        AIT bottom nose            :Mud Sample Source
OS1  .        PEx-HRLA                   :Other Services Line 1
OS2  .        MSIP-FMI                   :Other Services Line 2
OS3  .        HNGS                       :Other Services Line 3
OS4  .                                   :Other Services Line 4
OS5  .                                   :Other Services Line 5
R1   .        Tool run as per tool sketch. :Remark Line 1
R2   .                                   :Remark Line 2
R3   .        This is the first log in hole. :Remark Line 3
R4   .                                   :Remark Line 4
R5   .        Data may be affected by hole rugosity. :Remark Line 5
R6   .                                   :Remark Line 6
R7   .        Matrix Limestone 2.71      :Remark Line 7
R8   .                                   :Remark Line 8
TCS  .        11 00                      :Time Circulation Stopped
TLAB .        9 31                       :Time Logger At Bottom
NMT  .        NOBARITE                   :HILT Nuclear Mud Type
EPD  .F         8534.000000              :Elevation of Permanent Datum above Mean Sea Level
APD  .F          15.000000               :Elevation of Depth Reference (LMF) above Permanent Datum
#-----------------------------------------------------------------------------
~CURVE INFORMATION
#MNEM.UNIT   API CODE                                  DESCRIPTION
#---- -----  --------                                  -----------------------
DEPT .F                                                :DEPTH (BOREHOLE) {F12.4}
CDF  .LBF                                              :Calibrated Downhole Force {F11.4}
CFTC .HZ                                               :Corrected Far Thermal Counting Rate {F11.4}
CNTC .HZ                                               :Corrected Near Thermal Counting Rate {F11.4}
CTEM .DEGF                                             :Cartridge Temperature {F11.4}
DNPH .CFCF                                             :Delta Thermal Neutron Porosity {F11.4}
DWAL_WALK2.                                            :Dry Weight Fraction Pseudo Aluminum (SpectroLith WALK2 Model) {F11.4}
DWCA_WALK2.                                            :Dry Weight Fraction Calcium (SpectroLith WALK2 Model) {F11.4}
DWFE_WALK2.                                            :Dry Weight Fraction Iron + 0.14 Aluminum (SpectroLith WALK2 Model) {F11.4}
DWGD_WALK2.PPM                                         :Dry Weight Fraction Gadolinium (SpectroLith WALK2 Model) {F11.4}
DWSI_WALK2.                                            :Dry Weight Fraction Silicon (SpectroLith WALK2 Model) {F11.4}
DWSU_WALK2.                                            :Dry Weight Fraction Sulfur (SpectroLith WALK2 Model) {F11.4}
DWTI_WALK2.                                            :Dry Weight Fraction Titanium (SpectroLith WALK2 Model) {F11.4}
ECGR .GAPI                                             :Environmentally Corrected Gamma-Ray {F11.4}
ECST .DEGF                                             :ECS Temperature {F11.4}
ESUF_WALK2.                                            :Elemental Statistical Uncertainty Factor (SpectroLith WALK2 Model) {F11.4}
GDEV .DEG                                              :HGNS Deviation {F11.4}
GR   .GAPI                                             :Gamma-Ray {F11.4}
GR_EDTC.GAPI                                           :EDTC Gamma Ray {F11.4}
GTEM .DEGF                                             :Generalized Borehole Temperature {F11.4}
HGR  .GAPI                                             :HiRes Gamma-Ray {F11.4}
HNPO .CFCF                                             :HiRes Enhanced Thermal Neutron Porosity {F11.4}
HTNP .CFCF                                             :HiRes Thermal Neutron Porosity {F11.4}
NPHI .CFCF                                             :Thermal Neutron Porosity (Ratio Method) {F11.4}
NPOR .CFCF                                             :Enhanced Thermal Neutron Porosity {F11.4}
QCPMT.                                                 :Photomultiplier Tube Quality Control {F11.4}
RHGE_WALK2.G/C3                                        :Matrix Density from Elemental Concentrations (SpectroLith WALK2 Model) {F11.4}
TENS .LBF                                              :Cable Tension {F11.4}
TNPH .CFCF                                             :Thermal Neutron Porosity {F11.4}
WANH_WALK2.                                            :Dry Weight Fraction Anhydrite/Gypsum (SpectroLith WALK2 Model) {F11.4}
WCAR_WALK2.                                            :Dry Weight Fraction Carbonate (SpectroLith WALK2 Model) {F11.4}
WCLA_WALK2.                                            :Dry Weight Fraction Clay (SpectroLith WALK2 Model) {F11.4}
WCOA_WALK2.                                            :Dry Weight Fraction Coal (SpectroLith WALK2 Model) {F11.4}
WEVA_WALK2.                                            :Dry Weight Fraction Salt (SpectroLith WALK2 Model) {F11.4}
WPYR_WALK2.                                            :Dry Weight Fraction Pyrite (SpectroLith WALK2 Model) {F11.4}
WQFM_WALK2.                                            :Dry Weight Fraction Quartz+Feldspar+Mica (QFM) (SpectroLith WALK2 Model) {F11.4}
WSID_WALK2.                                            :Dry Weight Fraction Siderite (SpectroLith WALK2 Model) {F11.4}
#-----------------------------------------------------------------------------
# 
#      DEPT        CDF        CFTC       CNTC       CTEM       DNPH    DWAL_WALK2 DWCA_WALK2 DWFE_WALK2 DWGD_WALK2 DWSI_WALK2 DWSU_WALK2 DWTI_WALK2    ECGR       ECST    ESUF_WALK2    GDEV        GR      GR_EDTC      GTEM       HGR        HNPO       HTNP       NPHI       NPOR      QCPMT    RHGE_WALK2    TENS       TNPH    WANH_WALK2 WCAR_WALK2 WCLA_WALK2 WCOA_WALK2 WEVA_WALK2 WPYR_WALK2 WQFM_WALK2 WSID_WALK2
#
~A  
# ...
   9116.0000  1428.3990    36.2281    30.9113   218.9178     0.0074     0.0369     0.1193     0.0225     6.5865     0.2619     0.0000     0.0000   114.2187    54.1852     0.8585     7.3670   128.3912   107.1161   224.0623   130.2142     0.1154     0.0330     0.0374     0.0199     1.0309     2.7049  2204.0000     0.0327     0.0000     0.2459     0.1394     0.0000     0.0000     0.0000     0.6146     0.0001
   9116.5000  1423.7776    35.2588    31.1998   218.9178     0.0075     0.0355     0.1201     0.0217     6.6283     0.2635     0.0000     0.0000   119.6860    54.1852     0.8639     7.3645   134.5369   107.1161   224.0622   133.0074     0.0104     0.0374     0.0376     0.0209     1.0309     2.7034  2140.0000     0.0372     0.0000     0.2479     0.1270     0.0000     0.0000     0.0000     0.6250     0.0001
   9117.0000  1423.7776    33.6481    31.8761   218.9178     0.0077     0.0346     0.1205     0.0211     6.6543     0.2646     0.0000     0.0000   122.1104    54.1852     0.8673     7.3528   137.2621   107.1161   224.0623   139.9792     0.1169     0.0465     0.0423     0.0549     1.0309     2.7025  2144.0000     0.0460     0.0000     0.2492     0.1192     0.0000     0.0000     0.0000     0.6315     0.0001
   9117.5000  1423.7776    35.1975    32.7906   218.9178     0.0076     0.0341     0.1208     0.0208     6.6684     0.2651     0.0000     0.0000   121.8607    54.1852     0.8691     7.3466   136.9815   107.1161   224.0622   138.4886     0.0535     0.0444     0.0473     0.0549     1.0309     2.7020  2160.0000     0.0436     0.0000     0.2499     0.1151     0.0000     0.0000     0.0000     0.6350     0.0001
   9118.0000  1423.7776    35.3613    32.7922   218.9178     0.0076     0.0341     0.1208     0.0208     6.6684     0.2651     0.0000     0.0000   120.6937    54.1852     0.8691     7.3435   135.6697   107.1161   224.0623   132.3549     0.1285     0.0440     0.0628     0.0573     1.0309     2.7020  2128.0000     0.0430     0.0000     0.2499     0.1151     0.0000     0.0000     0.0000     0.6350     0.0001
   9118.5000  1423.7776    34.5560    34.1435   218.9178     0.0078     0.0341     0.1208     0.0208     6.6684     0.2651     0.0000     0.0000   119.3679    54.1852     0.8691     7.3334   134.1793   107.1161   224.0622   136.3265     0.0431     0.0525     0.0670     0.0324     1.0309     2.7020  2136.0000     0.0516     0.0000     0.2499     0.1151     0.0000     0.0000     0.0000     0.6350     0.0001
   9119.0000  1423.7776    35.2619    36.5614   218.9178     0.0080     0.0341     0.1208     0.0208     6.6684     0.2651     0.0000     0.0000   121.1015    54.1852     0.8691     7.3335   136.1280   107.1161   223.7029   133.7588     0.1026     0.0590     0.0783     0.0715     1.0309     2.7020  2140.0000     0.0584     0.0000     0.2499     0.1151     0.0000     0.0000     0.0000     0.6350     0.0001
   9119.5000  1423.7776    33.3409    37.3066   218.9178     0.0083     0.0341     0.1208     0.0208     6.6684     0.2651     0.0000     0.0000   125.3559    54.1852     0.8691     7.3339   140.9103   107.1161   223.7029   138.2456     0.0747     0.0715     0.0674     0.0713     1.0309     2.7020  2113.0000     0.0706     0.0000     0.2499     0.1151     0.0000     0.0000     0.0000     0.6350     0.0001
   9120.0000  1423.7776    33.9880    36.2955   218.9178     0.0081     0.0341     0.1208     0.0208     6.6684     0.2651     0.0000     0.0000   129.1427    54.1852     0.8691     7.3312   145.1670   107.1161   223.7029   150.7164     0.0145     0.0633     0.0576     0.0312     1.0309     2.7020  2119.0000     0.0631     0.0000     0.2499     0.1151     0.0000     0.0000     0.0000     0.6350     0.0001
   9120.5000  1423.7776    33.5942    36.5486   218.9178     0.0082     0.0341     0.1208     0.0208     6.6684     0.2651     0.0000     0.0000   135.9630    54.1852     0.8691 -4591.3948   152.8336   107.1161   223.7029   156.3405     0.0537     0.0658     0.0331     0.0804     1.0309     2.7020  2097.0000     0.0660     0.0000     0.2499     0.1151     0.0000     0.0000     0.0000     0.6350     0.0001
   9121.0000  1428.3990    37.8098    35.5682   218.9178     0.0077     0.0341     0.1208     0.0208     6.6684     0.2651     0.0000     0.0000   139.0828    54.1852     0.8691  -999.2500   156.3405   107.1161   223.7029   161.1940     0.1135     0.0442     0.0412     0.0599     1.0309     2.7020  2093.0000     0.0446     0.0000     0.2499     0.1151     0.0000     0.0000     0.0000     0.6350     0.0001
   9121.5000  1423.7776    37.5895    34.3605   218.9178     0.0076     0.0341     0.1208     0.0208     6.6684     0.2651     0.0000     0.0000   143.4006    54.1852     0.8691  -999.2500   161.1940   107.1161   223.7029   161.1940     0.0785     0.0412     0.0429     0.0347     1.0309     2.7020  2124.0000     0.0409     0.0000     0.2499     0.1151     0.0000     0.0000     0.0000     0.6350     0.0001
   9122.0000  1428.3990    35.8890    33.8100   218.9178     0.0077     0.0341     0.1208     0.0208     6.6684     0.2651     0.0000     0.0000   143.4006    54.1852     0.8691  -999.2500   161.1940   107.1161   223.7029   161.1940     0.0085     0.0456     0.0593     0.0538     1.0309     2.7020  2101.0000     0.0450     0.0000     0.2499     0.1151     0.0000     0.0000     0.0000     0.6350     0.0001
   9122.5000  1428.3990    33.0800    34.1658   218.9178     0.0080     0.0341     0.1208     0.0208     6.6684     0.2651     0.0000     0.0000   143.4006    54.1852     0.8691  -999.2500   161.1940   107.1161   223.7029   161.1940     0.0155     0.0588     0.0589     0.0431     1.0309     2.7020  2093.0000     0.0582     0.0000     0.2499     0.1151     0.0000     0.0000     0.0000     0.6350     0.0001
   9123.0000  1428.3990    34.3282    35.1938   218.9178     0.0080     0.0341     0.1208     0.0208     6.6684     0.2651     0.0000     0.0000   143.4006    54.1852     0.8691  -999.2500   161.1940   107.1161   223.7029   161.1940     0.1143     0.0572     0.0505     0.0807     1.0309     2.7020  2086.0000     0.0569     0.0000     0.2499     0.1151     0.0000     0.0000     0.0000     0.6350     0.0001
   9123.5000  1428.3990    35.0923    34.5385   218.9178     0.0078     0.0341     0.1208     0.0208     6.6684     0.2651     0.0000     0.0000   143.4006    54.1852     0.8691  -999.2500   161.1940   107.1161   223.7029   161.1940     0.0164     0.0518     0.0411     0.0505     1.0309     2.7020  2066.0000     0.0510     0.0000     0.2499     0.1151     0.0000     0.0000     0.0000     0.6350     0.0001
   9124.0000  1428.3990    34.9363    32.9487   218.9178     0.0077     0.0341     0.1208     0.0208     6.6684     0.2651     0.0000     0.0000   143.4006    54.1852     0.8691  -999.2500   161.1940   107.1161   223.7029   161.1940     0.0055     0.0459     0.0241     0.0094     1.0309     2.7020  2076.0000     0.0453     0.0000     0.2499     0.1151     0.0000     0.0000     0.0000     0.6350     0.0001
   9124.5000  1428.3990    35.0954    32.4710   218.9178     0.0076     0.0341     0.1208     0.0208     6.6684     0.2651     0.0000     0.0000   143.4006    54.1852     0.8691  -999.2500   161.1940   107.1161   223.7029   161.1940     0.0592     0.0435     0.0470     0.0647     1.0309     2.7020  2077.0000     0.0428     0.0000     0.2499     0.1151     0.0000     0.0000     0.0000     0.6350     0.0001
   9125.0000  1428.3990    32.7549    32.2838   218.9178     0.0078     0.0341     0.1208     0.0208     6.6684     0.2651     0.0000     0.0000   143.4006    54.1852     0.8691  -999.2500   161.1940   107.1161   223.7029   161.1940     0.1283     0.0522     0.0467     0.0732     1.0309     2.7020  2055.0000     0.0515     0.0000     0.2499     0.1151     0.0000     0.0000     0.0000     0.6350     0.0001
   9125.5000  1428.3990    33.3496    30.2343   218.9178     0.0075     0.0341     0.1208     0.0208     6.6684     0.2651     0.0000     0.0000   143.4006    54.1852     0.8691  -999.2500   161.1940   107.1161   223.7029   161.1940     0.0728     0.0410     0.4258     0.0481     1.0309     2.7020  2066.0000     0.0404     0.0000     0.2499     0.1151     0.0000     0.0000     0.0000     0.6350     0.0001
