~VERSION INFORMATION
VERS.           1.2   :CWLS Log ASCII Standard - VERSION 1.2
WRAP.           NO    :One Line per depth step
PROD.  Schlumberger   :LAS Producer
PROG.  DLIS to ASCII 17C0-152                          :LAS Program name and version
CREA.        2010/11/19 02:18                          :LAS Creation date {YYYY/MM/DD hh:mm}
DLIS_CREA.  2010-Nov-18 21:51                          :DLIS Creation date and time {YYYY-MMM-DD hh:mm}
SOURCE.     c799ad9c-fb3a-46c4-856c-9f94c6b0213d       :DLIS File Name
#--------------------------------------------------
~WELL INFORMATION
#MNEM.UNIT      DATA             DESCRIPTION
#---- ------ --------------   -----------------------------
STRT .F      8904.0000       :START DEPTH     
STOP .F      9132.5000       :STOP DEPTH     
STEP .F       0.5000         :STEP       
NULL .          -999.25      :NULL VALUE
COMP .                 COMPANY:  Wellstar Corporation               
WELL .                    WELL:  Silver Spur Minerals 35-2          
FLD  .                   FIELD:  Wildcat                            
LOC  .                LOCATION:  Sec.35, T8N, R78W                  
CNTY .                  COUNTY:  Jackson                            
STAT .                   STATE:  Colorado                           
CTRY .                 COUNTRY:                                     
SRVC .         SERVICE COMPANY:  Schlumberger                       
API  .              API NUMBER:  05-057-06490-0100                  
DATE .                LOG DATE:  18-Nov-2010
UWI  .          UNIQUE WELL ID:                                     
#-----------------------------------------------------------------------------
~PARAMETER INFORMATION
#MNEM.UNIT    VALUE                      DESCRIPTION
#---- -----   --------------------       ------------------------
CN   .        Wellstar Corporation       :Company Name
WN   .        Silver Spur Minerals 35-2  :Well Name
FN   .        Wildcat                    :Field Name
FL   .        Sec.35  T8N  R78W          :Field Location
FL1  .        SHL  1996' FSL X 655' FEL NESE :Field Location Line 1
COUN .        Jackson                    :County or Rig Name
STAT .        Colorado                   :State or Province
NATI .                                   :Nation
DATE .        18-Nov-2010                :Date as Month-Day-Year
APIN .        05-057-06490-0100          :API Serial Number
SECT .        35                         :Section
TOWN .        8N                         :Township
RANG .        78W                        :Range
DMF  .        Kelly Bushing              :Drilling Measured From
LMF  .        Kelly Bushing              :Log Measured From
PDAT .        Ground Level               :Permanent Datum
ENGI .        Philip Grant               :Engineer's Name
WITN .        Jacky Burch                :Witness's Name
LATI .                                   :Latitude
LONG .                                   :Longitude
LUL  .        Fort Morgan  CO            :Logging Unit Location
LUN  .              3021                 :Logging Unit Number
RUN  .        1                          :Run Number
SON  .        BE0K-00102                 :Service Order Number
BHT  .DEGF     211.99986                 :Bottom Hole Temperature (used in calculations)
BS   .IN         6.12500                 :Bit Size
DFD  .LB/G       8.80000                 :Drilling Fluid Density
DFV  .S         28.00000                 :Drilling Fluid Viscosity
DFL  .                                   :Drilling Fluid Loss
RMFS .OHMM       0.64200                 :Resistivity of Mud Filtrate Sample
EKB  .F       8549.00000                 :Elevation of Kelly Bushing
EGL  .F       8534.00000                 :Elevation of Ground Level
BLI  .F       9108.00000                 :Bottom Log Interval
BSAL .PPM     38000.00000                :Borehole Salinity
FLEV .                                   :Fluid Level
MCST .DEGF      83.57200                 :Mud Cake Sample Temperature
MFST .DEGF      83.57200                 :Mud Filtrate Sample Temperature
MRT  .DEGF     217.00000                 :Maximum Recorded Temperature
MST  .DEGF      83.57200                 :Mud Sample Temperature
RMCS .OHMM       1.28400                 :Resistivity of Mud Cake Sample
RMS  .OHMM       0.85600                 :Resistivity of Mud Sample
RW   .OHMM       1.00000                 :Resistivity of Connate Water
TDD  .F       8610.00000                 :Total Depth - Driller
TDL  .F       9116.00000                 :Total Depth - Logger
TLI  .F       8482.00000                 :Top Log Interval
HIDE .        Elemental Capture Spectroscopy :Header Identifier
MATR .        LIME                       :Rock Matrix for Neutron Porosity Corrections
FNUM .           1.00000                 :Form Factor Numerator
FEXP .           2.00000                 :Form Factor Exponent
DFT  .        KCl  Mud                   :Drilling Fluid Type
DFPH .           9.80000                 :Drilling Fluid PH
MCSS .        Calculated                 :Mud Cake Sample Source
MFSS .        Calculated                 :Mud Filtrate Sample Source
MSS  .        AIT bottom nose            :Mud Sample Source
OS1  .        None                       :Other Services Line 1
OS2  .                                   :Other Services Line 2
OS3  .                                   :Other Services Line 3
OS4  .                                   :Other Services Line 4
OS5  .                                   :Other Services Line 5
R1   .        Tool run as per tool sketch. :Remark Line 1
R2   .                                   :Remark Line 2
R3   .        This is the first log in hole. :Remark Line 3
R4   .                                   :Remark Line 4
R5   .        Data may be affected by hole rugosity. :Remark Line 5
R6   .                                   :Remark Line 6
R7   .                                   :Remark Line 7
R8   .                                   :Remark Line 8
TCS  .        11 00                      :Time Circulation Stopped
TLAB .                                   :Time Logger At Bottom
NMT  .        NOBARITE                   :HILT Nuclear Mud Type
EPD  .F         8534.000000              :Elevation of Permanent Datum above Mean Sea Level
APD  .F          15.000000               :Elevation of Depth Reference (LMF) above Permanent Datum
#-----------------------------------------------------------------------------
~CURVE INFORMATION
#MNEM.UNIT   API CODE                                  DESCRIPTION
#---- -----  --------                                  -----------------------
DEPT .F                                                :DEPTH (BOREHOLE) {F12.4}
CDF  .LBF                                              :Calibrated Downhole Force {F11.4}
CFTC .HZ                                               :Corrected Far Thermal Counting Rate {F11.4}
CNTC .HZ                                               :Corrected Near Thermal Counting Rate {F11.4}
CTEM .DEGF                                             :Cartridge Temperature {F11.4}
DNPH .CFCF                                             :Delta Thermal Neutron Porosity {F11.4}
DWAL_WALK2.                                            :Dry Weight Fraction Pseudo Aluminum (SpectroLith WALK2 Model) {F11.4}
DWCA_WALK2.                                            :Dry Weight Fraction Calcium (SpectroLith WALK2 Model) {F11.4}
DWFE_WALK2.                                            :Dry Weight Fraction Iron + 0.14 Aluminum (SpectroLith WALK2 Model) {F11.4}
DWGD_WALK2.PPM                                         :Dry Weight Fraction Gadolinium (SpectroLith WALK2 Model) {F11.4}
DWSI_WALK2.                                            :Dry Weight Fraction Silicon (SpectroLith WALK2 Model) {F11.4}
DWSU_WALK2.                                            :Dry Weight Fraction Sulfur (SpectroLith WALK2 Model) {F11.4}
DWTI_WALK2.                                            :Dry Weight Fraction Titanium (SpectroLith WALK2 Model) {F11.4}
ECGR .GAPI                                             :Environmentally Corrected Gamma-Ray {F11.4}
ECST .DEGF                                             :ECS Temperature {F11.4}
ESUF_WALK2.                                            :Elemental Statistical Uncertainty Factor (SpectroLith WALK2 Model) {F11.4}
GDEV .DEG                                              :HGNS Deviation {F11.4}
GR   .GAPI                                             :Gamma-Ray {F11.4}
GR_EDTC.GAPI                                           :EDTC Gamma Ray {F11.4}
GTEM .DEGF                                             :Generalized Borehole Temperature {F11.4}
HGR  .GAPI                                             :HiRes Gamma-Ray {F11.4}
HNPO .CFCF                                             :HiRes Enhanced Thermal Neutron Porosity {F11.4}
HTNP .CFCF                                             :HiRes Thermal Neutron Porosity {F11.4}
NPHI .CFCF                                             :Thermal Neutron Porosity (Ratio Method) {F11.4}
NPOR .CFCF                                             :Enhanced Thermal Neutron Porosity {F11.4}
QCPMT.                                                 :Photomultiplier Tube Quality Control {F11.4}
RHGE_WALK2.G/C3                                        :Matrix Density from Elemental Concentrations (SpectroLith WALK2 Model) {F11.4}
TENS .LBF                                              :Cable Tension {F11.4}
TNPH .CFCF                                             :Thermal Neutron Porosity {F11.4}
WANH_WALK2.                                            :Dry Weight Fraction Anhydrite/Gypsum (SpectroLith WALK2 Model) {F11.4}
WCAR_WALK2.                                            :Dry Weight Fraction Carbonate (SpectroLith WALK2 Model) {F11.4}
WCLA_WALK2.                                            :Dry Weight Fraction Clay (SpectroLith WALK2 Model) {F11.4}
WCOA_WALK2.                                            :Dry Weight Fraction Coal (SpectroLith WALK2 Model) {F11.4}
WEVA_WALK2.                                            :Dry Weight Fraction Salt (SpectroLith WALK2 Model) {F11.4}
WPYR_WALK2.                                            :Dry Weight Fraction Pyrite (SpectroLith WALK2 Model) {F11.4}
WQFM_WALK2.                                            :Dry Weight Fraction Quartz+Feldspar+Mica (QFM) (SpectroLith WALK2 Model) {F11.4}
WSID_WALK2.                                            :Dry Weight Fraction Siderite (SpectroLith WALK2 Model) {F11.4}
#-----------------------------------------------------------------------------
# 
#      DEPT        CDF        CFTC       CNTC       CTEM       DNPH    DWAL_WALK2 DWCA_WALK2 DWFE_WALK2 DWGD_WALK2 DWSI_WALK2 DWSU_WALK2 DWTI_WALK2    ECGR       ECST    ESUF_WALK2    GDEV        GR      GR_EDTC      GTEM       HGR        HNPO       HTNP       NPHI       NPOR      QCPMT    RHGE_WALK2    TENS       TNPH    WANH_WALK2 WCAR_WALK2 WCLA_WALK2 WCOA_WALK2 WEVA_WALK2 WPYR_WALK2 WQFM_WALK2 WSID_WALK2
#
~A  
# ...
   9034.0000  1652.0085    34.0675    36.8234   205.0825     0.0082     0.0562     0.0673     0.0326     8.9211     0.2894     0.0000     0.0044   179.6515    52.2343     0.6288     7.0714   201.9431   125.0457   215.4388   206.0231     0.1130     0.0657     0.0499     0.0964     0.4451     2.7145  3005.0000     0.0649     0.0000     0.1062     0.3092     0.0000     0.0000     0.0000     0.5846     0.0000
   9034.5000  1656.9856    35.8091    35.1301   205.0825     0.0078     0.0593     0.0498     0.0341     8.1635     0.3047     0.0000     0.0053   177.1317    51.8441     0.6823     7.1756   199.1106   129.0611   215.3191   198.3326     0.0019     0.0509     0.0229     0.0228     0.1088     2.7143  2993.0000     0.0505     0.0000     0.0591     0.3359     0.0000     0.0000     0.0000     0.6050     0.0000
   9035.0000  1656.9856    36.9811    32.2705   205.0825     0.0074     0.0623     0.0504     0.0361     4.9244     0.2984     0.0000     0.0050   168.1560    51.8441     0.6604     7.0665   189.0211   140.0811   215.0795   192.6187     0.0064     0.0353     0.0137     0.0238     0.0163     2.7180  3009.0000     0.0353     0.0000     0.0607     0.3625     0.0000     0.0000     0.0000     0.5768     0.0000
   9035.5000  1656.9856    39.5859    32.4008   205.0825     0.0072     0.0642     0.0592     0.0377     2.5338     0.2844     0.0000     0.0040   155.7888    53.0147     0.6233     7.0091   175.1194   139.9285   215.0795   176.4832     0.0543     0.0279     0.0160     0.0689     0.1700     2.7225  2990.0000     0.0277     0.0000     0.0842     0.3793     0.0000     0.0000     0.0000     0.5365     0.0000
   9036.0000  1656.9856    36.3285    28.7534   205.0825     0.0071     0.0657     0.0642     0.0388     2.2528     0.2756     0.0000     0.0033   143.5793    53.0147     0.5705     7.2582   161.3950   136.0658   215.0795   157.1473    -0.0025     0.0249     0.0160     0.0295     0.3464     2.7255  2927.0000     0.0243     0.0000     0.0977     0.3926     0.0000     0.0000     0.0000     0.5097     0.0000
   9036.5000  1661.9625    36.7825    27.5702   205.0825     0.0070     0.0653     0.0558     0.0387     2.0925     0.2859     0.0000     0.0030   138.4555    53.4048     0.5786     7.1749   155.6354   129.3521   215.0795   151.1777    -0.0037     0.0195     0.0148    -0.0063     0.3362     2.7239  3022.0000     0.0187     0.0000     0.0751     0.3893     0.0000     0.0000     0.0000     0.5356     0.0000
   9037.0000  1666.5841    36.9222    28.6228   205.0825     0.0071     0.0661     0.0401     0.0387     3.3061     0.3034     0.0009     0.0040   144.5493    54.1852     0.6137     7.0513   162.4853   134.3470   215.0795   159.0760     0.0379     0.0227     0.0181     0.0641     0.0814     2.7221  3072.0000     0.0221     0.0000     0.0330     0.3957     0.0000     0.0000     0.0017     0.5696     0.0000
   9037.5000  1666.5841    37.3526    28.5097   205.0825     0.0070     0.0656     0.0349     0.0373     2.0599     0.3113     0.0078     0.0042   166.7128    51.8441     0.6269     7.2102   187.3988   149.5040   215.0795   176.6722     0.0637     0.0202     0.0170     0.0201     0.1437     2.7269  3069.0000     0.0205     0.0000     0.0188     0.3918     0.0000     0.0000     0.0146     0.5748     0.0000
   9038.0000  1661.9625    35.2924    26.5580   205.0825     0.0070     0.0671     0.0396     0.0376     1.7852     0.3038     0.0124     0.0044   190.2825    52.7220     0.6312     7.1241   213.8931   158.1005   215.0795   225.8206     0.0117     0.0190     0.0148    -0.0057     0.0000     2.7335  2974.0000     0.0192     0.0000     0.0314     0.4049     0.0000     0.0000     0.0231     0.5405     0.0000
   9038.5000  1661.9625    34.5015    27.3378   205.0825     0.0071     0.0639     0.0537     0.0355     2.6378     0.2932     0.0165     0.0033   196.0506    53.0147     0.6332     7.0479   220.3770   163.9057   215.0795   239.1775     0.0949     0.0246     0.0236     0.0247     0.0948     2.7370  3001.0000     0.0247     0.0000     0.0694     0.3767     0.0000     0.0000     0.0308     0.5230     0.0000
   9039.0000  1666.5841    32.3341    27.4810   205.0825     0.0074     0.0598     0.0738     0.0339     6.8113     0.2763     0.0125     0.0021   183.8918    53.0147     0.6077     7.1254   206.7095   155.2585   215.0795   195.7744     0.0927     0.0334     0.0492     0.0685     0.0000     2.7328  3014.0000     0.0327     0.0000     0.1235     0.3402     0.0000     0.0000     0.0233     0.5130     0.0000
   9039.5000  1666.5841    31.6796    28.1196   205.0825     0.0075     0.0555     0.0867     0.0325    10.5786     0.2678     0.0053     0.0018   165.6008    53.0147     0.5926     7.2068   186.1489   151.0426   215.0795   185.5663    -0.0020     0.0387     0.0669     0.0477     0.4999     2.7238  3006.0000     0.0380     0.0000     0.1583     0.3029     0.0000     0.0000     0.0098     0.5291     0.0000
   9040.0000  1661.9625    31.4664    30.0753   205.0825     0.0077     0.0544     0.0982     0.0325    11.4453     0.2557     0.0000     0.0019   163.3185    51.8441     0.5675     7.1848   183.5835   143.0267   215.0795   176.7767     0.0001     0.0492     0.0459     0.0525     0.8077     2.7196  2937.0000     0.0475     0.0000     0.1891     0.2933     0.0000     0.0000     0.0000     0.5176     0.0000
   9040.5000  1661.9625    35.3030    30.9622   205.0825     0.0074     0.0551     0.0921     0.0324     9.1422     0.2621     0.0000     0.0032   158.1771    52.6245     0.5771     7.0582   177.8041   139.1334   214.7202   188.6983     0.0214     0.0372     0.0327     0.0177     0.3405     2.7183  2860.0000     0.0361     0.0000     0.1727     0.2992     0.0000     0.0000     0.0000     0.5280     0.0000
   9041.0000  1671.5610    36.3882    31.8737   205.0825     0.0074     0.0535     0.0783     0.0312     6.8403     0.2812     0.0006     0.0035   156.2793    53.0147     0.5968     7.1287   175.6708   142.8977   214.7202   168.1161    -0.0022     0.0359     0.0444     0.0105     0.0000     2.7146  3057.0000     0.0358     0.0000     0.1358     0.2853     0.0000     0.0000     0.0011     0.5779     0.0000
   9041.5000  1676.5381    34.6688    33.6367   205.0825     0.0078     0.0541     0.0565     0.0316     5.3219     0.3056     0.0000     0.0038   152.1717    53.0147     0.6260     7.2012   171.0535   141.0827   214.7202   169.6519     0.1202     0.0487     0.0456     0.0935     0.0359     2.7107  3121.0000     0.0491     0.0000     0.0769     0.2906     0.0000     0.0000     0.0000     0.6325     0.0000
   9042.0000  1676.5381    35.1750    32.5968   205.0825     0.0076     0.0562     0.0412     0.0332     5.5317     0.3194     0.0000     0.0029   151.2465    51.8441     0.6286     7.2137   170.0135   141.4279   214.7202   174.6651     0.0353     0.0439     0.0573     0.0509     0.1399     2.7112  3074.0000     0.0429     0.0000     0.0359     0.3091     0.0000     0.0000     0.0000     0.6551     0.0000
   9042.5000  1671.5610    34.7618    32.3881   205.0825     0.0076     0.0628     0.0380     0.0370     4.5274     0.3113     0.0021     0.0027   151.8885    51.8441     0.6094     7.1247   170.7352   138.2385   214.7202   165.2841    -0.0128     0.0456     0.0277     0.0157     0.0453     2.7202  3028.0000     0.0437     0.0000     0.0273     0.3673     0.0000     0.0000     0.0040     0.6014     0.0000
   9043.0000  1676.5381    36.4774    32.1507   205.0825     0.0074     0.0673     0.0373     0.0395     3.0895     0.3044     0.0042     0.0025   158.2585    52.2343     0.5996     7.0996   177.8956   140.2695   214.7202   172.3680     0.0381     0.0377     0.0301     0.0539     0.0000     2.7272  3064.0000     0.0365     0.0000     0.0253     0.4063     0.0000     0.0000     0.0078     0.5606     0.0000
   9043.5000  1671.5610    38.0142    32.8441   205.0825     0.0074     0.0695     0.0421     0.0406     1.9817     0.2951     0.0066     0.0025   161.2298    53.0147     0.6042     7.1312   181.2356   138.9698   214.7202   196.4455     0.0401     0.0342     0.0119     0.0181     0.1599     2.7327  2986.0000     0.0340     0.0000     0.0381     0.4259     0.0000     0.0000     0.0123     0.5237     0.0000
