~VERSION INFORMATION
VERS.           1.2   :CWLS Log ASCII Standard - VERSION 1.2
WRAP.           NO    :One Line per depth step
PROD.  Schlumberger   :LAS Producer
PROG.  DLIS to ASCII 17C0-152                          :LAS Program name and version
CREA.        2010/11/19 02:18                          :LAS Creation date {YYYY/MM/DD hh:mm}
DLIS_CREA.  2010-Nov-18 22:49                          :DLIS Creation date and time {YYYY-MMM-DD hh:mm}
SOURCE.     d476e3e6-e07a-4d20-b90c-cbd099bd9e21       :DLIS File Name
#--------------------------------------------------
~WELL INFORMATION
#MNEM.UNIT      DATA             DESCRIPTION
#---- ------ --------------   -----------------------------
STRT .F      8456.0000       :START DEPTH     
STOP .F      9128.5000       :STOP DEPTH     
STEP .F       0.5000         :STEP       
NULL .          -999.25      :NULL VALUE
COMP .                 COMPANY:  Wellstar Corporation               
WELL .                    WELL:  Silver Spur Minerals 35-2          
FLD  .                   FIELD:  Wildcat                            
LOC  .                LOCATION:  Sec.35, T8N, R78W                  
CNTY .                  COUNTY:  Jackson                            
STAT .                   STATE:  Colorado                           
CTRY .                 COUNTRY:                                     
SRVC .         SERVICE COMPANY:  Schlumberger                       
API  .              API NUMBER:  05-057-06490-0100                  
DATE .                LOG DATE:  18-Nov-2010
UWI  .          UNIQUE WELL ID:                                     
#-----------------------------------------------------------------------------
~PARAMETER INFORMATION
#MNEM.UNIT    VALUE                      DESCRIPTION
#---- -----   --------------------       ------------------------
CN   .        Wellstar Corporation       :Company Name
WN   .        Silver Spur Minerals 35-2  :Well Name
FN   .        Wildcat                    :Field Name
FL   .        Sec.35  T8N  R78W          :Field Location
FL1  .        SHL  1996' FSL X 655' FEL NESE :Field Location Line 1
COUN .        Jackson                    :County or Rig Name
STAT .        Colorado                   :State or Province
NATI .                                   :Nation
DATE .        18-Nov-2010                :Date as Month-Day-Year
APIN .        05-057-06490-0100          :API Serial Number
SECT .        35                         :Section
TOWN .        8N                         :Township
RANG .        78W                        :Range
DMF  .        Kelly Bushing              :Drilling Measured From
LMF  .        Kelly Bushing              :Log Measured From
PDAT .        Ground Level               :Permanent Datum
ENGI .        Philip Grant               :Engineer's Name
WITN .        Jacky Burch                :Witness's Name
LATI .                                   :Latitude
LONG .                                   :Longitude
LUL  .        Fort Morgan  CO            :Logging Unit Location
LUN  .              3021                 :Logging Unit Number
RUN  .        1                          :Run Number
SON  .        BE0K-00102                 :Service Order Number
BHT  .DEGF     211.99986                 :Bottom Hole Temperature (used in calculations)
BS   .IN         6.12500                 :Bit Size
DFD  .LB/G       8.80000                 :Drilling Fluid Density
DFV  .S         28.00000                 :Drilling Fluid Viscosity
DFL  .                                   :Drilling Fluid Loss
RMFS .OHMM       0.64200                 :Resistivity of Mud Filtrate Sample
EKB  .F       8549.00000                 :Elevation of Kelly Bushing
EGL  .F       8534.00000                 :Elevation of Ground Level
BLI  .F       9108.00000                 :Bottom Log Interval
BSAL .PPM     38000.00000                :Borehole Salinity
FLEV .                                   :Fluid Level
MCST .DEGF      83.57200                 :Mud Cake Sample Temperature
MFST .DEGF      83.57200                 :Mud Filtrate Sample Temperature
MRT  .DEGF     217.00000                 :Maximum Recorded Temperature
MST  .DEGF      83.57200                 :Mud Sample Temperature
RMCS .OHMM       1.28400                 :Resistivity of Mud Cake Sample
RMS  .OHMM       0.85600                 :Resistivity of Mud Sample
RW   .OHMM       1.00000                 :Resistivity of Connate Water
TDD  .F       8610.00000                 :Total Depth - Driller
TDL  .F       9116.00000                 :Total Depth - Logger
TLI  .F       8482.00000                 :Top Log Interval
HIDE .        Elemental Capture Spectroscopy :Header Identifier
MATR .        LIME                       :Rock Matrix for Neutron Porosity Corrections
FNUM .           1.00000                 :Form Factor Numerator
FEXP .           2.00000                 :Form Factor Exponent
DFT  .        KCl  Mud                   :Drilling Fluid Type
DFPH .           9.80000                 :Drilling Fluid PH
MCSS .        Calculated                 :Mud Cake Sample Source
MFSS .        Calculated                 :Mud Filtrate Sample Source
MSS  .        AIT bottom nose            :Mud Sample Source
OS1  .        PEx-HRLA                   :Other Services Line 1
OS2  .        MSIP-FMI                   :Other Services Line 2
OS3  .        HNGS                       :Other Services Line 3
OS4  .                                   :Other Services Line 4
OS5  .                                   :Other Services Line 5
R1   .        Tool run as per tool sketch. :Remark Line 1
R2   .                                   :Remark Line 2
R3   .        This is the first log in hole. :Remark Line 3
R4   .                                   :Remark Line 4
R5   .        Data may be affected by hole rugosity. :Remark Line 5
R6   .                                   :Remark Line 6
R7   .        Matrix Limestone 2.71      :Remark Line 7
R8   .                                   :Remark Line 8
TCS  .        11 00                      :Time Circulation Stopped
TLAB .        9 31                       :Time Logger At Bottom
NMT  .        NOBARITE                   :HILT Nuclear Mud Type
EPD  .F         8534.000000              :Elevation of Permanent Datum above Mean Sea Level
APD  .F          15.000000               :Elevation of Depth Reference (LMF) above Permanent Datum
#-----------------------------------------------------------------------------
~CURVE INFORMATION
#MNEM.UNIT   API CODE                                  DESCRIPTION
#---- -----  --------                                  -----------------------
DEPT .F                                                :DEPTH (BOREHOLE) {F12.4}
CDF  .LBF                                              :Calibrated Downhole Force {F11.4}
CFTC .HZ                                               :Corrected Far Thermal Counting Rate {F11.4}
CNTC .HZ                                               :Corrected Near Thermal Counting Rate {F11.4}
CTEM .DEGF                                             :Cartridge Temperature {F11.4}
DNPH .CFCF                                             :Delta Thermal Neutron Porosity {F11.4}
DWAL_WALK2.                                            :Dry Weight Fraction Pseudo Aluminum (SpectroLith WALK2 Model) {F11.4}
DWCA_WALK2.                                            :Dry Weight Fraction Calcium (SpectroLith WALK2 Model) {F11.4}
DWFE_WALK2.                                            :Dry Weight Fraction Iron + 0.14 Aluminum (SpectroLith WALK2 Model) {F11.4}
DWGD_WALK2.PPM                                         :Dry Weight Fraction Gadolinium (SpectroLith WALK2 Model) {F11.4}
DWSI_WALK2.                                            :Dry Weight Fraction Silicon (SpectroLith WALK2 Model) {F11.4}
DWSU_WALK2.                                            :Dry Weight Fraction Sulfur (SpectroLith WALK2 Model) {F11.4}
DWTI_WALK2.                                            :Dry Weight Fraction Titanium (SpectroLith WALK2 Model) {F11.4}
ECGR .GAPI                                             :Environmentally Corrected Gamma-Ray {F11.4}
ECST .DEGF                                             :ECS Temperature {F11.4}
ESUF_WALK2.                                            :Elemental Statistical Uncertainty Factor (SpectroLith WALK2 Model) {F11.4}
GDEV .DEG                                              :HGNS Deviation {F11.4}
GR   .GAPI                                             :Gamma-Ray {F11.4}
GR_EDTC.GAPI                                           :EDTC Gamma Ray {F11.4}
GTEM .DEGF                                             :Generalized Borehole Temperature {F11.4}
HGR  .GAPI                                             :HiRes Gamma-Ray {F11.4}
HNPO .CFCF                                             :HiRes Enhanced Thermal Neutron Porosity {F11.4}
HTNP .CFCF                                             :HiRes Thermal Neutron Porosity {F11.4}
NPHI .CFCF                                             :Thermal Neutron Porosity (Ratio Method) {F11.4}
NPOR .CFCF                                             :Enhanced Thermal Neutron Porosity {F11.4}
QCPMT.                                                 :Photomultiplier Tube Quality Control {F11.4}
RHGE_WALK2.G/C3                                        :Matrix Density from Elemental Concentrations (SpectroLith WALK2 Model) {F11.4}
TENS .LBF                                              :Cable Tension {F11.4}
TNPH .CFCF                                             :Thermal Neutron Porosity {F11.4}
WANH_WALK2.                                            :Dry Weight Fraction Anhydrite/Gypsum (SpectroLith WALK2 Model) {F11.4}
WCAR_WALK2.                                            :Dry Weight Fraction Carbonate (SpectroLith WALK2 Model) {F11.4}
WCLA_WALK2.                                            :Dry Weight Fraction Clay (SpectroLith WALK2 Model) {F11.4}
WCOA_WALK2.                                            :Dry Weight Fraction Coal (SpectroLith WALK2 Model) {F11.4}
WEVA_WALK2.                                            :Dry Weight Fraction Salt (SpectroLith WALK2 Model) {F11.4}
WPYR_WALK2.                                            :Dry Weight Fraction Pyrite (SpectroLith WALK2 Model) {F11.4}
WQFM_WALK2.                                            :Dry Weight Fraction Quartz+Feldspar+Mica (QFM) (SpectroLith WALK2 Model) {F11.4}
WSID_WALK2.                                            :Dry Weight Fraction Siderite (SpectroLith WALK2 Model) {F11.4}
#-----------------------------------------------------------------------------
# 
#      DEPT        CDF        CFTC       CNTC       CTEM       DNPH    DWAL_WALK2 DWCA_WALK2 DWFE_WALK2 DWGD_WALK2 DWSI_WALK2 DWSU_WALK2 DWTI_WALK2    ECGR       ECST    ESUF_WALK2    GDEV        GR      GR_EDTC      GTEM       HGR        HNPO       HTNP       NPHI       NPOR      QCPMT    RHGE_WALK2    TENS       TNPH    WANH_WALK2 WCAR_WALK2 WCLA_WALK2 WCOA_WALK2 WEVA_WALK2 WPYR_WALK2 WQFM_WALK2 WSID_WALK2
#
~A  
# ...
   8766.0000  1370.0970    25.8934    32.6806   224.8472     0.0090     0.0229     0.3286     0.0110     2.8267     0.0454     0.0174     0.0007   178.6379    56.5263     0.3956     5.3113   200.8037   173.6362   224.0622   214.6308     0.1847     0.0952     0.0908     0.1041     0.0757     2.7396  2896.0000     0.0935     0.0000     0.8090     0.0166     0.0000     0.0000     0.0236     0.1507     0.0000
   8766.5000  1370.0970    29.1490    33.1512   224.8472     0.0084     0.0254     0.3061     0.0124     1.5068     0.0674     0.0176     0.0011   175.8918    57.6968     0.4201     5.4257   197.7168   169.0076   224.0623   198.8417     0.0498     0.0742     0.0907     0.0596     0.0000     2.7387  2906.0000     0.0740     0.0000     0.7484     0.0385     0.0000     0.0000     0.0267     0.1864     0.0000
   8767.0000  1370.0970    30.6052    35.6525   224.8472     0.0085     0.0304     0.2738     0.0153     1.1759     0.0964     0.0171     0.0023   167.7590    56.9165     0.4559     5.3966   188.5749   159.4521   224.0622   178.4280     0.1179     0.0775     0.0926     0.1364     0.4474     2.7378  2865.0000     0.0778     0.0000     0.6614     0.0818     0.0000     0.0000     0.0319     0.2249     0.0000
   8767.5000  1375.0741    31.4736    35.7848   224.8472     0.0084     0.0354     0.2379     0.0180     2.4568     0.1295     0.0172     0.0032   179.3938    56.5263     0.5064     5.2043   201.6534   174.2856   224.0623   187.9416     0.0471     0.0725     0.1098     0.0434     0.0036     2.7369  2896.0000     0.0736     0.0000     0.5649     0.1264     0.0000     0.0000     0.0322     0.2765     0.0000
   8768.0000  1375.0741    27.6590    35.6600   224.8472     0.0091     0.0443     0.2030     0.0233     4.2140     0.1544     0.0163     0.0039   197.3973    56.5263     0.5621     5.3013   221.8908   186.3937   224.0623   239.3267     0.1406     0.0966     0.0924     0.0626     0.0000     2.7395  2906.0000     0.0972     0.0000     0.4710     0.2042     0.0000     0.0000     0.0305     0.2943     0.0000
   8768.5000  1370.0970    27.6479    36.6999   224.8472     0.0093     0.0548     0.1673     0.0290     5.3145     0.1778     0.0186     0.0047   207.3942    56.5263     0.6413     5.2001   233.1281   196.3473   224.0622   239.4003     0.1743     0.1024     0.0782     0.1389     0.0000     2.7468  2853.0000     0.1031     0.0000     0.3751     0.2963     0.0000     0.0000     0.0347     0.2939     0.0000
   8769.0000  1370.0970    29.9353    34.4817   224.8472     0.0085     0.0621     0.1358     0.0337     5.0061     0.2012     0.0153     0.0055   198.9554    56.5263     0.6889     5.2112   223.6423   188.1983   224.0623   220.9170     0.1239     0.0759     0.0403     0.0732     0.0000     2.7461  2893.0000     0.0760     0.0000     0.2904     0.3607     0.0000     0.0000     0.0286     0.3202     0.0000
   8769.5000  1375.0741    32.2339    31.1989   224.8472     0.0078     0.0640     0.1151     0.0354     6.5946     0.2214     0.0115     0.0054   188.9538    56.5263     0.7061     5.1930   212.3996   183.6276   224.0622   210.9066     0.0088     0.0490     0.0240     0.0376     0.0000     2.7413  2891.0000     0.0491     0.0000     0.2345     0.3779     0.0000     0.0000     0.0215     0.3661     0.0000
   8770.0000  1370.0970    34.7416    30.9322   224.8472     0.0075     0.0561     0.1266     0.0327     7.0228     0.2204     0.0011     0.0037   189.9524    56.5263     0.6494     5.1189   213.5221   180.0443   224.0623   205.4760     0.0138     0.0378     0.0524     0.0401     0.1077     2.7260  2846.0000     0.0380     0.0000     0.2655     0.3078     0.0000     0.0000     0.0021     0.4247     0.0000
   8770.5000  1370.0970    32.4509    31.8858   224.8472     0.0078     0.0526     0.1390     0.0312     6.1623     0.2114     0.0002     0.0023   196.9003    56.5263     0.5911     5.2164   221.3321   179.2132   224.0623   224.2846     0.1707     0.0503     0.0624     0.0998     0.5622     2.7244  2882.0000     0.0512     0.0000     0.2990     0.2774     0.0000     0.0000     0.0003     0.4233     0.0000
   8771.0000  1375.0741    33.4809    31.9849   224.8472     0.0077     0.0530     0.1435     0.0313     3.0190     0.2057     0.0030     0.0015   201.8971    56.5263     0.5580     5.1058   226.9490   182.5275   224.0622   234.1940     0.0358     0.0462     0.0776     0.0559     0.3284     2.7287  2900.0000     0.0472     0.0000     0.3109     0.2806     0.0000     0.0000     0.0056     0.4029     0.0000
   8771.5000  1370.0970    30.9842    32.2345   224.8472     0.0080     0.0566     0.1381     0.0324     0.5734     0.2065     0.0095     0.0021   200.0330    55.7459     0.5772     5.0011   224.8535   179.2190   224.0623   222.2641     0.1078     0.0585     0.0506     0.0217     0.6646     2.7375  2853.0000     0.0596     0.0000     0.2965     0.3125     0.0000     0.0000     0.0178     0.3731     0.0000
   8772.0000  1375.0741    31.4217    32.6253   224.8472     0.0080     0.0580     0.1350     0.0327     0.5347     0.2081     0.0120     0.0026   190.5644    55.7459     0.5771     5.1520   214.2100   173.8937   224.0622   217.9984     0.2005     0.0584     0.0605     0.0529     0.1378     2.7404  2884.0000     0.0592     0.0000     0.2882     0.3246     0.0000     0.0000     0.0224     0.3647     0.0000
   8772.5000  1375.0741    28.9225    32.6233   224.8472     0.0084     0.0566     0.1377     0.0320     1.0725     0.2073     0.0104     0.0030   185.0315    56.5263     0.5613     5.0750   207.9906   173.9233   224.0623   201.9194     0.3693     0.0718     0.0595     0.0781     0.1173     2.7376  2893.0000     0.0727     0.0000     0.2954     0.3129     0.0000     0.0000     0.0195     0.3722     0.0000
   8773.0000  1375.0741    28.6976    30.8021   224.8472     0.0082     0.0553     0.1339     0.0320     3.1189     0.2135     0.0050     0.0028   184.2992    56.5263     0.5680     4.9417   207.1674   175.6392   224.0623   203.5607     0.1538     0.0649     0.0685     0.0905     0.0000     2.7305  2913.0000     0.0648     0.0000     0.2851     0.3008     0.0000     0.0000     0.0093     0.4048     0.0000
   8773.5000  1370.0970    29.0943    30.6773   224.8472     0.0081     0.0543     0.1287     0.0321     3.6016     0.2205     0.0000     0.0027   193.4674    56.5263     0.5779     4.9259   217.4732   186.2278   224.0622   215.5288     0.0674     0.0621     0.0585     0.0627     0.0521     2.7241  2893.0000     0.0620     0.0000     0.2711     0.2927     0.0000     0.0000     0.0000     0.4362     0.0000
   8774.0000  1375.0741    30.1261    30.1714   224.8472     0.0079     0.0529     0.1256     0.0314     6.8440     0.2265     0.0000     0.0024   198.8671    56.5263     0.5768     4.9657   223.5430   189.2706   224.0623   232.7349     0.0708     0.0555     0.0754     0.0515     0.2307     2.7223  2900.0000     0.0542     0.0000     0.2630     0.2802     0.0000     0.0000     0.0000     0.4568     0.0000
   8774.5000  1380.0510    30.1430    32.4393   224.8472     0.0082     0.0523     0.1320     0.0311     8.7696     0.2202     0.0000     0.0020   201.3761    56.5263     0.5602     4.9424   226.3633   190.5624   224.0623   221.8151     0.1357     0.0667     0.0691     0.0610     0.8951     2.7228  2901.0000     0.0649     0.0000     0.2801     0.2743     0.0000     0.0000     0.0000     0.4456     0.0000
   8775.0000  1380.0510    30.6148    32.5776   224.8472     0.0081     0.0539     0.1305     0.0322    11.0557     0.2189     0.0000     0.0019   190.2518    56.5263     0.5823     4.9639   213.8587   178.6530   224.0622   223.8008     0.0574     0.0657     0.0903     0.0858     0.6632     2.7246  2899.0000     0.0631     0.0000     0.2761     0.2890     0.0000     0.0000     0.0000     0.4349     0.0000
   8775.5000  1375.0741    30.6148    34.3989   224.8472     0.0084     0.0610     0.1178     0.0356    11.1160     0.2219     0.0056     0.0023   186.9162    56.5263     0.6021     4.7943   210.1091   173.2642   224.0623   195.7720     0.0575     0.0735     0.0732     0.0483     0.6299     2.7353  2889.0000     0.0718     0.0000     0.2419     0.3510     0.0000     0.0000     0.0105     0.3967     0.0000
