~VERSION INFORMATION
VERS.           1.2   :CWLS Log ASCII Standard - VERSION 1.2
WRAP.           NO    :One Line per depth step
PROD.  Schlumberger   :LAS Producer
PROG.  DLIS to ASCII 17C0-152                          :LAS Program name and version
CREA.        2010/11/19 02:18                          :LAS Creation date {YYYY/MM/DD hh:mm}
DLIS_CREA.  2010-Nov-18 22:49                          :DLIS Creation date and time {YYYY-MMM-DD hh:mm}
SOURCE.     d476e3e6-e07a-4d20-b90c-cbd099bd9e21       :DLIS File Name
#--------------------------------------------------
~WELL INFORMATION
#MNEM.UNIT      DATA             DESCRIPTION
#---- ------ --------------   -----------------------------
STRT .F      8456.0000       :START DEPTH     
STOP .F      9128.5000       :STOP DEPTH     
STEP .F       0.5000         :STEP       
NULL .          -999.25      :NULL VALUE
COMP .                 COMPANY:  Wellstar Corporation               
WELL .                    WELL:  Silver Spur Minerals 35-2          
FLD  .                   FIELD:  Wildcat                            
LOC  .                LOCATION:  Sec.35, T8N, R78W                  
CNTY .                  COUNTY:  Jackson                            
STAT .                   STATE:  Colorado                           
CTRY .                 COUNTRY:                                     
SRVC .         SERVICE COMPANY:  Schlumberger                       
API  .              API NUMBER:  05-057-06490-0100                  
DATE .                LOG DATE:  18-Nov-2010
UWI  .          UNIQUE WELL ID:                                     
#-----------------------------------------------------------------------------
~PARAMETER INFORMATION
#MNEM.UNIT    VALUE                      DESCRIPTION
#---- -----   --------------------       ------------------------
CN   .        Wellstar Corporation       :Company Name
WN   .        Silver Spur Minerals 35-2  :Well Name
FN   .        Wildcat                    :Field Name
FL   .        Sec.35  T8N  R78W          :Field Location
FL1  .        SHL  1996' FSL X 655' FEL NESE :Field Location Line 1
COUN .        Jackson                    :County or Rig Name
STAT .        Colorado                   :State or Province
NATI .                                   :Nation
DATE .        18-Nov-2010                :Date as Month-Day-Year
APIN .        05-057-06490-0100          :API Serial Number
SECT .        35                         :Section
TOWN .        8N                         :Township
RANG .        78W                        :Range
DMF  .        Kelly Bushing              :Drilling Measured From
LMF  .        Kelly Bushing              :Log Measured From
PDAT .        Ground Level               :Permanent Datum
ENGI .        Philip Grant               :Engineer's Name
WITN .        Jacky Burch                :Witness's Name
LATI .                                   :Latitude
LONG .                                   :Longitude
LUL  .        Fort Morgan  CO            :Logging Unit Location
LUN  .              3021                 :Logging Unit Number
RUN  .        1                          :Run Number
SON  .        BE0K-00102                 :Service Order Number
BHT  .DEGF     211.99986                 :Bottom Hole Temperature (used in calculations)
BS   .IN         6.12500                 :Bit Size
DFD  .LB/G       8.80000                 :Drilling Fluid Density
DFV  .S         28.00000                 :Drilling Fluid Viscosity
DFL  .                                   :Drilling Fluid Loss
RMFS .OHMM       0.64200                 :Resistivity of Mud Filtrate Sample
EKB  .F       8549.00000                 :Elevation of Kelly Bushing
EGL  .F       8534.00000                 :Elevation of Ground Level
BLI  .F       9108.00000                 :Bottom Log Interval
BSAL .PPM     38000.00000                :Borehole Salinity
FLEV .                                   :Fluid Level
MCST .DEGF      83.57200                 :Mud Cake Sample Temperature
MFST .DEGF      83.57200                 :Mud Filtrate Sample Temperature
MRT  .DEGF     217.00000                 :Maximum Recorded Temperature
MST  .DEGF      83.57200                 :Mud Sample Temperature
RMCS .OHMM       1.28400                 :Resistivity of Mud Cake Sample
RMS  .OHMM       0.85600                 :Resistivity of Mud Sample
RW   .OHMM       1.00000                 :Resistivity of Connate Water
TDD  .F       8610.00000                 :Total Depth - Driller
TDL  .F       9116.00000                 :Total Depth - Logger
TLI  .F       8482.00000                 :Top Log Interval
HIDE .        Elemental Capture Spectroscopy :Header Identifier
MATR .        LIME                       :Rock Matrix for Neutron Porosity Corrections
FNUM .           1.00000                 :Form Factor Numerator
FEXP .           2.00000                 :Form Factor Exponent
DFT  .        KCl  Mud                   :Drilling Fluid Type
DFPH .           9.80000                 :Drilling Fluid PH
MCSS .        Calculated                 :Mud Cake Sample Source
MFSS .        Calculated                 :Mud Filtrate Sample Source
MSS  .        AIT bottom nose            :Mud Sample Source
OS1  .        PEx-HRLA                   :Other Services Line 1
OS2  .        MSIP-FMI                   :Other Services Line 2
OS3  .        HNGS                       :Other Services Line 3
OS4  .                                   :Other Services Line 4
OS5  .                                   :Other Services Line 5
R1   .        Tool run as per tool sketch. :Remark Line 1
R2   .                                   :Remark Line 2
R3   .        This is the first log in hole. :Remark Line 3
R4   .                                   :Remark Line 4
R5   .        Data may be affected by hole rugosity. :Remark Line 5
R6   .                                   :Remark Line 6
R7   .        Matrix Limestone 2.71      :Remark Line 7
R8   .                                   :Remark Line 8
TCS  .        11 00                      :Time Circulation Stopped
TLAB .        9 31                       :Time Logger At Bottom
NMT  .        NOBARITE                   :HILT Nuclear Mud Type
EPD  .F         8534.000000              :Elevation of Permanent Datum above Mean Sea Level
APD  .F          15.000000               :Elevation of Depth Reference (LMF) above Permanent Datum
#-----------------------------------------------------------------------------
~CURVE INFORMATION
#MNEM.UNIT   API CODE                                  DESCRIPTION
#---- -----  --------                                  -----------------------
DEPT .F                                                :DEPTH (BOREHOLE) {F12.4}
CDF  .LBF                                              :Calibrated Downhole Force {F11.4}
CFTC .HZ                                               :Corrected Far Thermal Counting Rate {F11.4}
CNTC .HZ                                               :Corrected Near Thermal Counting Rate {F11.4}
CTEM .DEGF                                             :Cartridge Temperature {F11.4}
DNPH .CFCF                                             :Delta Thermal Neutron Porosity {F11.4}
DWAL_WALK2.                                            :Dry Weight Fraction Pseudo Aluminum (SpectroLith WALK2 Model) {F11.4}
DWCA_WALK2.                                            :Dry Weight Fraction Calcium (SpectroLith WALK2 Model) {F11.4}
DWFE_WALK2.                                            :Dry Weight Fraction Iron + 0.14 Aluminum (SpectroLith WALK2 Model) {F11.4}
DWGD_WALK2.PPM                                         :Dry Weight Fraction Gadolinium (SpectroLith WALK2 Model) {F11.4}
DWSI_WALK2.                                            :Dry Weight Fraction Silicon (SpectroLith WALK2 Model) {F11.4}
DWSU_WALK2.                                            :Dry Weight Fraction Sulfur (SpectroLith WALK2 Model) {F11.4}
DWTI_WALK2.                                            :Dry Weight Fraction Titanium (SpectroLith WALK2 Model) {F11.4}
ECGR .GAPI                                             :Environmentally Corrected Gamma-Ray {F11.4}
ECST .DEGF                                             :ECS Temperature {F11.4}
ESUF_WALK2.                                            :Elemental Statistical Uncertainty Factor (SpectroLith WALK2 Model) {F11.4}
GDEV .DEG                                              :HGNS Deviation {F11.4}
GR   .GAPI                                             :Gamma-Ray {F11.4}
GR_EDTC.GAPI                                           :EDTC Gamma Ray {F11.4}
GTEM .DEGF                                             :Generalized Borehole Temperature {F11.4}
HGR  .GAPI                                             :HiRes Gamma-Ray {F11.4}
HNPO .CFCF                                             :HiRes Enhanced Thermal Neutron Porosity {F11.4}
HTNP .CFCF                                             :HiRes Thermal Neutron Porosity {F11.4}
NPHI .CFCF                                             :Thermal Neutron Porosity (Ratio Method) {F11.4}
NPOR .CFCF                                             :Enhanced Thermal Neutron Porosity {F11.4}
QCPMT.                                                 :Photomultiplier Tube Quality Control {F11.4}
RHGE_WALK2.G/C3                                        :Matrix Density from Elemental Concentrations (SpectroLith WALK2 Model) {F11.4}
TENS .LBF                                              :Cable Tension {F11.4}
TNPH .CFCF                                             :Thermal Neutron Porosity {F11.4}
WANH_WALK2.                                            :Dry Weight Fraction Anhydrite/Gypsum (SpectroLith WALK2 Model) {F11.4}
WCAR_WALK2.                                            :Dry Weight Fraction Carbonate (SpectroLith WALK2 Model) {F11.4}
WCLA_WALK2.                                            :Dry Weight Fraction Clay (SpectroLith WALK2 Model) {F11.4}
WCOA_WALK2.                                            :Dry Weight Fraction Coal (SpectroLith WALK2 Model) {F11.4}
WEVA_WALK2.                                            :Dry Weight Fraction Salt (SpectroLith WALK2 Model) {F11.4}
WPYR_WALK2.                                            :Dry Weight Fraction Pyrite (SpectroLith WALK2 Model) {F11.4}
WQFM_WALK2.                                            :Dry Weight Fraction Quartz+Feldspar+Mica (QFM) (SpectroLith WALK2 Model) {F11.4}
WSID_WALK2.                                            :Dry Weight Fraction Siderite (SpectroLith WALK2 Model) {F11.4}
#-----------------------------------------------------------------------------
# 
#      DEPT        CDF        CFTC       CNTC       CTEM       DNPH    DWAL_WALK2 DWCA_WALK2 DWFE_WALK2 DWGD_WALK2 DWSI_WALK2 DWSU_WALK2 DWTI_WALK2    ECGR       ECST    ESUF_WALK2    GDEV        GR      GR_EDTC      GTEM       HGR        HNPO       HTNP       NPHI       NPOR      QCPMT    RHGE_WALK2    TENS       TNPH    WANH_WALK2 WCAR_WALK2 WCLA_WALK2 WCOA_WALK2 WEVA_WALK2 WPYR_WALK2 WQFM_WALK2 WSID_WALK2
#
~A  
# ...
   8856.0000  1375.0741    29.7300    31.9960   224.8472     0.0082     0.0391     0.1929     0.0225     7.0180     0.1733     0.0052     0.0016   185.4082    55.3557     0.5162     5.2043   208.4140   153.8430   225.8588   204.9765     0.0535     0.0643     0.1184     0.0790     0.1059     2.7234  2998.0000     0.0650     0.0000     0.4440     0.1584     0.0000     0.0000     0.0096     0.3880     0.0000
   8856.5000  1370.0970    25.0522    33.1099   224.8472     0.0092     0.0394     0.1791     0.0232     6.7649     0.1883     0.0023     0.0016   189.2977    55.3557     0.5443     5.2836   212.7862   161.3440   225.8588   217.0623     0.1469     0.1028     0.1310     0.1672     0.0000     2.7189  2977.0000     0.1029     0.0000     0.4069     0.1616     0.0000     0.0000     0.0044     0.4271     0.0000
   8857.0000  1370.0970    24.4011    32.2295   224.8472     0.0092     0.0371     0.1714     0.0219     7.5662     0.2015     0.0009     0.0017   192.2261    55.3557     0.5701     5.4027   216.0780   167.3171   225.8588   215.7038     0.0090     0.1038     0.1042     0.0607     0.0000     2.7135  2951.0000     0.1030     0.0000     0.3862     0.1407     0.0000     0.0000     0.0018     0.4714     0.0000
   8857.5000  1370.0970    25.0524    32.0993   224.8472     0.0091     0.0356     0.1664     0.0208     9.1582     0.2101     0.0009     0.0021   191.3022    55.3557     0.5913     5.3444   215.0394   173.2231   225.8588   214.8515     0.0629     0.0967     0.0872     0.0666     0.1478     2.7106  2954.0000     0.0967     0.0000     0.3727     0.1278     0.0000     0.0000     0.0016     0.4979     0.0000
   8858.0000  1370.0970    26.0925    33.7555   224.8472     0.0091     0.0333     0.1610     0.0195    10.6787     0.2204     0.0000     0.0022   190.7671    55.3557     0.6234     5.3493   214.4379   176.3703   225.8588   215.0940     0.1983     0.0982     0.0792     0.1339     0.1483     2.7063  2980.0000     0.0983     0.0000     0.3581     0.1078     0.0000     0.0000     0.0000     0.5341     0.0000
   8858.5000  1375.0741    25.4415    30.7579   224.8472     0.0087     0.0365     0.1434     0.0213     9.8776     0.2353     0.0000     0.0025   196.6502    55.3557     0.6432     5.2442   221.0510   175.9929   225.8588   213.4716     0.0790     0.0860     0.0756     0.0967     0.2979     2.7067  2968.0000     0.0856     0.0000     0.3107     0.1359     0.0000     0.0000     0.0000     0.5533     0.0000
   8859.0000  1375.0741    25.0073    28.6040   224.8472     0.0085     0.0409     0.1252     0.0239     7.6825     0.2488     0.0000     0.0027   198.8022    55.3557     0.6501     5.3903   223.4700   178.6472   225.8588   235.4214     0.0540     0.0756     0.0683     0.0399     0.0494     2.7083  2976.0000     0.0759     0.0000     0.2619     0.1742     0.0000     0.0000     0.0000     0.5639     0.0000
   8859.5000  1370.0970    24.7342    28.7342   224.8472     0.0086     0.0441     0.1171     0.0253     5.3489     0.2529     0.0036     0.0029   202.1372    55.3557     0.6246     5.3693   227.2188   175.7770   225.8588   222.0392     0.1181     0.0789     0.0735     0.1203     0.0000     2.7138  2952.0000     0.0786     0.0000     0.2401     0.2029     0.0000     0.0000     0.0067     0.5503     0.0000
   8860.0000  1370.0970    25.6763    28.7390   224.8472     0.0084     0.0441     0.1220     0.0251     4.8871     0.2474     0.0042     0.0031   200.9565    55.3557     0.5761     5.3176   225.8916   172.7576   225.8588   225.2776     0.2177     0.0724     0.0773     0.0939     0.3127     2.7150  2969.0000     0.0721     0.0000     0.2533     0.2025     0.0000     0.0000     0.0079     0.5363     0.0000
   8860.5000  1375.0741    28.0645    28.9081   224.8472     0.0080     0.0428     0.1345     0.0243     5.6804     0.2352     0.0028     0.0037   195.9070    55.3557     0.5545     5.3549   220.2156   163.3328   225.8588   230.7435     0.0300     0.0585     0.0829     0.0518     0.0000     2.7139  2973.0000     0.0586     0.0000     0.2869     0.1908     0.0000     0.0000     0.0053     0.5170     0.0000
   8861.0000  1370.0970    28.2815    30.7310   224.8472     0.0082     0.0422     0.1406     0.0241     6.4201     0.2290     0.0003     0.0043   191.0929    55.3557     0.5705     5.3759   214.8041   163.3695   225.8588   204.8430     0.0372     0.0657     0.0873     0.0767     0.0330     2.7116  2952.0000     0.0668     0.0000     0.3032     0.1864     0.0000     0.0000     0.0006     0.5099     0.0000
   8861.5000  1370.0970    30.1640    33.2061   224.8472     0.0083     0.0442     0.1346     0.0250     7.8136     0.2327     0.0004     0.0050   187.9191    55.3557     0.6100     5.3254   211.2366   163.5623   225.8588   208.3636     0.0639     0.0672     0.0987     0.0569     0.2316     2.7123  2983.0000     0.0685     0.0000     0.2871     0.2035     0.0000     0.0000     0.0007     0.5087     0.0000
   8862.0000  1375.0741    28.8581    34.6386   224.8472     0.0087     0.0499     0.1174     0.0284     9.6910     0.2426     0.0000     0.0053   193.8726    55.3557     0.6663     5.4286   217.9287   169.8287   225.8588   219.8873     0.0867     0.0839     0.0788     0.0931     0.3430     2.7153  2981.0000     0.0835     0.0000     0.2407     0.2539     0.0000     0.0000     0.0000     0.5053     0.0000
   8862.5000  1375.0741    32.3348    35.6760   224.8472     0.0083     0.0553     0.1060     0.0317    12.1193     0.2463     0.0007     0.0051   200.0941    54.9656     0.7064     5.3290   224.9222   170.6254   225.8588   224.8448     0.0021     0.0695     0.0689     0.0536     0.7983     2.7201  2946.0000     0.0685     0.0000     0.2101     0.3007     0.0000     0.0000     0.0014     0.4878     0.0000
   8863.0000  1375.0741    31.6803    34.8923   224.8472     0.0083     0.0536     0.1152     0.0313    13.2260     0.2380     0.0001     0.0038   201.4836    54.1852     0.6806     5.4181   226.4841   174.2254   225.8588   229.6725     0.0162     0.0696     0.0393     0.0559     0.7425     2.7202  2952.0000     0.0683     0.0000     0.2349     0.2863     0.0000     0.0000     0.0001     0.4787     0.0000
   8863.5000  1375.0741    33.4206    33.4616   224.8472     0.0079     0.0472     0.1308     0.0265    12.1578     0.2321     0.0084     0.0028   196.4828    55.3557     0.6403     5.4211   220.8628   171.7503   225.8588   225.7932     0.0642     0.0538     0.0474     0.0477     0.5119     2.7240  2922.0000     0.0536     0.0000     0.2769     0.2294     0.0000     0.0000     0.0156     0.4780     0.0000
   8864.0000  1370.0970    31.8722    32.6411   224.8472     0.0080     0.0393     0.1422     0.0221    10.1584     0.2326     0.0086     0.0020   190.6983    55.3557     0.6217     5.3253   214.3606   175.4663   225.8588   207.5955     0.1244     0.0573     0.0302     0.0660     0.2268     2.7180  2953.0000     0.0571     0.0000     0.3075     0.1608     0.0000     0.0000     0.0162     0.5155     0.0000
   8864.5000  1375.0741    34.2598    30.9482   224.8472     0.0075     0.0354     0.1390     0.0201     8.5472     0.2430     0.0055     0.0020   191.5796    55.3557     0.5979     5.4340   215.3512   175.0701   225.8588   209.5569     0.0597     0.0405     0.0422     0.0738     0.0000     2.7101  2982.0000     0.0398     0.0000     0.2988     0.1262     0.0000     0.0000     0.0102     0.5648     0.0000
   8865.0000  1375.0741    32.9570    29.9061   224.8472     0.0076     0.0376     0.1345     0.0223     7.9662     0.2436     0.0000     0.0018   196.7411    55.3557     0.5505     5.4659   221.1531   182.6944   225.8588   227.8886     0.0400     0.0405     0.0364     0.0170     0.4558     2.7069  2890.0000     0.0406     0.0000     0.2868     0.1452     0.0000     0.0000     0.0000     0.5680     0.0000
   8865.5000  1375.0741    31.8968    29.2550   224.8472     0.0076     0.0419     0.1329     0.0249     8.2820     0.2377     0.0000     0.0018   204.1526    55.3557     0.5238     5.3860   229.4843   179.6499   225.8588   225.8224     0.0247     0.0412     0.0638     0.0460     0.5692     2.7115  2907.0000     0.0421     0.0000     0.2824     0.1836     0.0000     0.0000     0.0000     0.5341     0.0000
