~VERSION INFORMATION
VERS.           1.2   :CWLS Log ASCII Standard - VERSION 1.2
WRAP.           NO    :One Line per depth step
PROD.  Schlumberger   :LAS Producer
PROG.  DLIS to ASCII 17C0-152                          :LAS Program name and version
CREA.        2010/11/19 02:18                          :LAS Creation date {YYYY/MM/DD hh:mm}
DLIS_CREA.  2010-Nov-18 21:51                          :DLIS Creation date and time {YYYY-MMM-DD hh:mm}
SOURCE.     c799ad9c-fb3a-46c4-856c-9f94c6b0213d       :DLIS File Name
#--------------------------------------------------
~WELL INFORMATION
#MNEM.UNIT      DATA             DESCRIPTION
#---- ------ --------------   -----------------------------
STRT .F      8904.0000       :START DEPTH     
STOP .F      9132.5000       :STOP DEPTH     
STEP .F       0.5000         :STEP       
NULL .          -999.25      :NULL VALUE
COMP .                 COMPANY:  Wellstar Corporation               
WELL .                    WELL:  Silver Spur Minerals 35-2          
FLD  .                   FIELD:  Wildcat                            
LOC  .                LOCATION:  Sec.35, T8N, R78W                  
CNTY .                  COUNTY:  Jackson                            
STAT .                   STATE:  Colorado                           
CTRY .                 COUNTRY:                                     
SRVC .         SERVICE COMPANY:  Schlumberger                       
API  .              API NUMBER:  05-057-06490-0100                  
DATE .                LOG DATE:  18-Nov-2010
UWI  .          UNIQUE WELL ID:                                     
#-----------------------------------------------------------------------------
~PARAMETER INFORMATION
#MNEM.UNIT    VALUE                      DESCRIPTION
#---- -----   --------------------       ------------------------
CN   .        Wellstar Corporation       :Company Name
WN   .        Silver Spur Minerals 35-2  :Well Name
FN   .        Wildcat                    :Field Name
FL   .        Sec.35  T8N  R78W          :Field Location
FL1  .        SHL  1996' FSL X 655' FEL NESE :Field Location Line 1
COUN .        Jackson                    :County or Rig Name
STAT .        Colorado                   :State or Province
NATI .                                   :Nation
DATE .        18-Nov-2010                :Date as Month-Day-Year
APIN .        05-057-06490-0100          :API Serial Number
SECT .        35                         :Section
TOWN .        8N                         :Township
RANG .        78W                        :Range
DMF  .        Kelly Bushing              :Drilling Measured From
LMF  .        Kelly Bushing              :Log Measured From
PDAT .        Ground Level               :Permanent Datum
ENGI .        Philip Grant               :Engineer's Name
WITN .        Jacky Burch                :Witness's Name
LATI .                                   :Latitude
LONG .                                   :Longitude
LUL  .        Fort Morgan  CO            :Logging Unit Location
LUN  .              3021                 :Logging Unit Number
RUN  .        1                          :Run Number
SON  .        BE0K-00102                 :Service Order Number
BHT  .DEGF     211.99986                 :Bottom Hole Temperature (used in calculations)
BS   .IN         6.12500                 :Bit Size
DFD  .LB/G       8.80000                 :Drilling Fluid Density
DFV  .S         28.00000                 :Drilling Fluid Viscosity
DFL  .                                   :Drilling Fluid Loss
RMFS .OHMM       0.64200                 :Resistivity of Mud Filtrate Sample
EKB  .F       8549.00000                 :Elevation of Kelly Bushing
EGL  .F       8534.00000                 :Elevation of Ground Level
BLI  .F       9108.00000                 :Bottom Log Interval
BSAL .PPM     38000.00000                :Borehole Salinity
FLEV .                                   :Fluid Level
MCST .DEGF      83.57200                 :Mud Cake Sample Temperature
MFST .DEGF      83.57200                 :Mud Filtrate Sample Temperature
MRT  .DEGF     217.00000                 :Maximum Recorded Temperature
MST  .DEGF      83.57200                 :Mud Sample Temperature
RMCS .OHMM       1.28400                 :Resistivity of Mud Cake Sample
RMS  .OHMM       0.85600                 :Resistivity of Mud Sample
RW   .OHMM       1.00000                 :Resistivity of Connate Water
TDD  .F       8610.00000                 :Total Depth - Driller
TDL  .F       9116.00000                 :Total Depth - Logger
TLI  .F       8482.00000                 :Top Log Interval
HIDE .        Elemental Capture Spectroscopy :Header Identifier
MATR .        LIME                       :Rock Matrix for Neutron Porosity Corrections
FNUM .           1.00000                 :Form Factor Numerator
FEXP .           2.00000                 :Form Factor Exponent
DFT  .        KCl  Mud                   :Drilling Fluid Type
DFPH .           9.80000                 :Drilling Fluid PH
MCSS .        Calculated                 :Mud Cake Sample Source
MFSS .        Calculated                 :Mud Filtrate Sample Source
MSS  .        AIT bottom nose            :Mud Sample Source
OS1  .        None                       :Other Services Line 1
OS2  .                                   :Other Services Line 2
OS3  .                                   :Other Services Line 3
OS4  .                                   :Other Services Line 4
OS5  .                                   :Other Services Line 5
R1   .        Tool run as per tool sketch. :Remark Line 1
R2   .                                   :Remark Line 2
R3   .        This is the first log in hole. :Remark Line 3
R4   .                                   :Remark Line 4
R5   .        Data may be affected by hole rugosity. :Remark Line 5
R6   .                                   :Remark Line 6
R7   .                                   :Remark Line 7
R8   .                                   :Remark Line 8
TCS  .        11 00                      :Time Circulation Stopped
TLAB .                                   :Time Logger At Bottom
NMT  .        NOBARITE                   :HILT Nuclear Mud Type
EPD  .F         8534.000000              :Elevation of Permanent Datum above Mean Sea Level
APD  .F          15.000000               :Elevation of Depth Reference (LMF) above Permanent Datum
#-----------------------------------------------------------------------------
~CURVE INFORMATION
#MNEM.UNIT   API CODE                                  DESCRIPTION
#---- -----  --------                                  -----------------------
DEPT .F                                                :DEPTH (BOREHOLE) {F12.4}
CDF  .LBF                                              :Calibrated Downhole Force {F11.4}
CFTC .HZ                                               :Corrected Far Thermal Counting Rate {F11.4}
CNTC .HZ                                               :Corrected Near Thermal Counting Rate {F11.4}
CTEM .DEGF                                             :Cartridge Temperature {F11.4}
DNPH .CFCF                                             :Delta Thermal Neutron Porosity {F11.4}
DWAL_WALK2.                                            :Dry Weight Fraction Pseudo Aluminum (SpectroLith WALK2 Model) {F11.4}
DWCA_WALK2.                                            :Dry Weight Fraction Calcium (SpectroLith WALK2 Model) {F11.4}
DWFE_WALK2.                                            :Dry Weight Fraction Iron + 0.14 Aluminum (SpectroLith WALK2 Model) {F11.4}
DWGD_WALK2.PPM                                         :Dry Weight Fraction Gadolinium (SpectroLith WALK2 Model) {F11.4}
DWSI_WALK2.                                            :Dry Weight Fraction Silicon (SpectroLith WALK2 Model) {F11.4}
DWSU_WALK2.                                            :Dry Weight Fraction Sulfur (SpectroLith WALK2 Model) {F11.4}
DWTI_WALK2.                                            :Dry Weight Fraction Titanium (SpectroLith WALK2 Model) {F11.4}
ECGR .GAPI                                             :Environmentally Corrected Gamma-Ray {F11.4}
ECST .DEGF                                             :ECS Temperature {F11.4}
ESUF_WALK2.                                            :Elemental Statistical Uncertainty Factor (SpectroLith WALK2 Model) {F11.4}
GDEV .DEG                                              :HGNS Deviation {F11.4}
GR   .GAPI                                             :Gamma-Ray {F11.4}
GR_EDTC.GAPI                                           :EDTC Gamma Ray {F11.4}
GTEM .DEGF                                             :Generalized Borehole Temperature {F11.4}
HGR  .GAPI                                             :HiRes Gamma-Ray {F11.4}
HNPO .CFCF                                             :HiRes Enhanced Thermal Neutron Porosity {F11.4}
HTNP .CFCF                                             :HiRes Thermal Neutron Porosity {F11.4}
NPHI .CFCF                                             :Thermal Neutron Porosity (Ratio Method) {F11.4}
NPOR .CFCF                                             :Enhanced Thermal Neutron Porosity {F11.4}
QCPMT.                                                 :Photomultiplier Tube Quality Control {F11.4}
RHGE_WALK2.G/C3                                        :Matrix Density from Elemental Concentrations (SpectroLith WALK2 Model) {F11.4}
TENS .LBF                                              :Cable Tension {F11.4}
TNPH .CFCF                                             :Thermal Neutron Porosity {F11.4}
WANH_WALK2.                                            :Dry Weight Fraction Anhydrite/Gypsum (SpectroLith WALK2 Model) {F11.4}
WCAR_WALK2.                                            :Dry Weight Fraction Carbonate (SpectroLith WALK2 Model) {F11.4}
WCLA_WALK2.                                            :Dry Weight Fraction Clay (SpectroLith WALK2 Model) {F11.4}
WCOA_WALK2.                                            :Dry Weight Fraction Coal (SpectroLith WALK2 Model) {F11.4}
WEVA_WALK2.                                            :Dry Weight Fraction Salt (SpectroLith WALK2 Model) {F11.4}
WPYR_WALK2.                                            :Dry Weight Fraction Pyrite (SpectroLith WALK2 Model) {F11.4}
WQFM_WALK2.                                            :Dry Weight Fraction Quartz+Feldspar+Mica (QFM) (SpectroLith WALK2 Model) {F11.4}
WSID_WALK2.                                            :Dry Weight Fraction Siderite (SpectroLith WALK2 Model) {F11.4}
#-----------------------------------------------------------------------------
# 
#      DEPT        CDF        CFTC       CNTC       CTEM       DNPH    DWAL_WALK2 DWCA_WALK2 DWFE_WALK2 DWGD_WALK2 DWSI_WALK2 DWSU_WALK2 DWTI_WALK2    ECGR       ECST    ESUF_WALK2    GDEV        GR      GR_EDTC      GTEM       HGR        HNPO       HTNP       NPHI       NPOR      QCPMT    RHGE_WALK2    TENS       TNPH    WANH_WALK2 WCAR_WALK2 WCLA_WALK2 WCOA_WALK2 WEVA_WALK2 WPYR_WALK2 WQFM_WALK2 WSID_WALK2
#
~A  
# ...
   8914.0000  1506.2535    37.0240    31.6197   214.9649     0.0074     0.0323     0.2262     0.0191     2.6762     0.1460     0.0003     0.0015   187.0784    53.7950     0.4742     6.0937   210.2915   172.4234   220.4692   204.2968     0.0204     0.0316     0.0314     0.0202     0.0681     2.7170  2929.0000     0.0327     0.0000     0.5335     0.0986     0.0000     0.0000     0.0006     0.3673     0.0000
   8914.5000  1506.2535    36.0215    31.1784   214.9649     0.0074     0.0334     0.2158     0.0195     4.8650     0.1563     0.0000     0.0023   188.0009    54.1852     0.4963     6.1005   211.3284   171.8694   220.4692   212.3837     0.1732     0.0334     0.0375     0.0545     0.2356     2.7156  2915.0000     0.0344     0.0000     0.5054     0.1090     0.0000     0.0000     0.0000     0.3856     0.0000
   8915.0000  1506.2535    35.4210    31.8037   214.9649     0.0075     0.0353     0.2089     0.0198     5.7117     0.1617     0.0056     0.0025   185.2227    54.1852     0.5135     6.0742   208.2055   169.7925   220.4692   216.5068     0.0246     0.0380     0.0447     0.0279     0.0000     2.7216  2929.0000     0.0389     0.0000     0.4870     0.1254     0.0000     0.0000     0.0106     0.3770     0.0000
   8915.5000  1506.2535    35.6381    32.8094   214.9649     0.0076     0.0396     0.2030     0.0207     4.4177     0.1625     0.0177     0.0026   183.1383    53.0147     0.5237     6.0899   205.8625   168.2689   220.4692   195.1841     0.0444     0.0408     0.0353     0.0399     0.0000     2.7365  2960.0000     0.0420     0.0000     0.4712     0.1629     0.0000     0.0000     0.0330     0.3329     0.0000
   8916.0000  1506.2535    38.0261    33.8512   214.9649     0.0075     0.0424     0.1987     0.0211     3.5331     0.1638     0.0269     0.0024   184.8418    53.0147     0.5342     6.1580   207.7774   174.6403   220.4692   204.8441     0.0597     0.0368     0.0203     0.0609     0.0084     2.7473  2967.0000     0.0376     0.0000     0.4595     0.1876     0.0000     0.0000     0.0453     0.3076     0.0000
   8916.5000  1506.2535    41.0192    32.1578   214.9649     0.0071     0.0454     0.1961     0.0230     3.6263     0.1614     0.0263     0.0028   190.0237    53.0147     0.5465     6.0487   213.6023   178.7534   220.4692   222.3792    -0.0013     0.0220     0.0104    -0.0068     0.0000     2.7496  2909.0000     0.0229     0.0000     0.4525     0.2136     0.0000     0.0000     0.0491     0.2848     0.0000
   8917.0000  1511.2306    41.4493    31.1161   214.9649     0.0070     0.0488     0.2007     0.0257     5.6246     0.1493     0.0219     0.0028   190.8575    53.0147     0.5336     6.0287   214.5395   182.9087   220.4692   212.5585     0.0530     0.0184     0.0180     0.0083     0.0000     2.7502  2957.0000     0.0184     0.0000     0.4650     0.2436     0.0000     0.0000     0.0409     0.2505     0.0000
   8917.5000  1511.2306    38.0167    31.7969   214.9649     0.0073     0.0507     0.1972     0.0276     5.0701     0.1493     0.0169     0.0027   191.6909    53.0147     0.5283     6.1369   215.4764   180.5347   220.4692   206.6051     0.1235     0.0306     0.0398     0.0735     0.0266     2.7473  2957.0000     0.0302     0.0000     0.4554     0.2608     0.0000     0.0000     0.0316     0.2522     0.0000
   8918.0000  1511.2306    34.7595    30.7547   214.9649     0.0075     0.0474     0.1934     0.0264     3.8212     0.1588     0.0126     0.0021   190.4187    53.7950     0.5096     6.1650   214.0462   187.0831   220.4692   227.3064     0.0139     0.0380     0.0464     0.0549     0.0000     2.7394  2947.0000     0.0372     0.0000     0.4454     0.2319     0.0000     0.0000     0.0235     0.2993     0.0000
   8918.5000  1511.2306    36.4963    31.4058   214.9649     0.0074     0.0411     0.1953     0.0233     1.9442     0.1673     0.0084     0.0017   197.5526    54.1852     0.5036     6.1535   222.0654   189.3232   220.4692   208.1788     0.0316     0.0336     0.0512     0.0234     0.0140     2.7290  2945.0000     0.0337     0.0000     0.4503     0.1765     0.0000     0.0000     0.0157     0.3574     0.0000
   8919.0000  1506.2535    38.1962    34.6625   214.9649     0.0075     0.0371     0.2126     0.0213     2.4096     0.1539     0.0051     0.0017   195.2121    54.1852     0.4867     6.1958   219.4345   193.9133   220.4692   231.4236     0.0208     0.0395     0.0410     0.0443     0.0838     2.7244  2935.0000     0.0399     0.0000     0.4968     0.1410     0.0000     0.0000     0.0095     0.3527     0.0000
   8919.5000  1506.2535    41.6660    36.6159   214.9649     0.0074     0.0359     0.2292     0.0209     3.2531     0.1364     0.0030     0.0017   196.8589    55.3557     0.4896     6.1378   221.2856   185.7440   220.4692   218.3168    -0.0278     0.0353     0.0435     0.0364     0.1443     2.7239  2907.0000     0.0356     0.0000     0.5415     0.1306     0.0000     0.0000     0.0056     0.3223     0.0000
   8920.0000  1511.2306    39.1609    36.3436   214.9649     0.0076     0.0400     0.2289     0.0229     3.2857     0.1298     0.0055     0.0021   186.4406    54.5754     0.4651     6.1382   209.5745   172.9774   220.4692   213.6871     0.0324     0.0426     0.0241     0.0189     0.0000     2.7306  2937.0000     0.0427     0.0000     0.5408     0.1668     0.0000     0.0000     0.0103     0.2822     0.0000
   8920.5000  1511.2306    40.0296    35.6923   214.9649     0.0075     0.0424     0.2193     0.0239     2.0261     0.1370     0.0080     0.0022   178.8560    54.1852     0.4672     6.1556   201.0489   158.9881   220.4692   196.5406     0.0233     0.0366     0.0368     0.0277     0.1495     2.7338  2928.0000     0.0375     0.0000     0.5149     0.1878     0.0000     0.0000     0.0149     0.2823     0.0000
   8921.0000  1511.2306    37.6416    36.3435   214.9649     0.0077     0.0428     0.2201     0.0239     1.4340     0.1357     0.0103     0.0021   179.1339    54.1852     0.4527     6.1339   201.3612   155.0936   220.4692   192.5842     0.2602     0.0481     0.0374     0.0737     0.1377     2.7366  2934.0000     0.0480     0.0000     0.5170     0.1910     0.0000     0.0000     0.0193     0.2726     0.0000
   8921.5000  1511.2306    36.4597    33.8682   214.9649     0.0076     0.0378     0.2431     0.0213     1.1181     0.1174     0.0092     0.0015   183.3747    53.0147     0.4596     6.2506   206.1283   165.0861   220.4692   215.2623     0.1026     0.0435     0.0278     0.0627     0.0000     2.7344  2940.0000     0.0431     0.0000     0.5790     0.1473     0.0000     0.0000     0.0172     0.2564     0.0000
   8922.0000  1516.2075    39.3391    32.0339   214.9649     0.0072     0.0326     0.2723     0.0185     1.8945     0.0923     0.0071     0.0012   190.1817    53.0147     0.4487     6.1842   213.7799   174.0102   220.4692   210.8141    -0.0154     0.0273     0.0219    -0.0061     0.2438     2.7317  2937.0000     0.0271     0.0000     0.6575     0.1020     0.0000     0.0000     0.0132     0.2273     0.0000
   8922.5000  1516.2075    38.0367    31.8852   214.9649     0.0073     0.0279     0.2910     0.0155     2.0085     0.0792     0.0077     0.0012   179.9717    53.0147     0.4742     6.1662   202.3030   171.1035   220.4692   216.1193     0.0209     0.0300     0.0312     0.0457     0.0000     2.7300  2897.0000     0.0305     0.0000     0.7077     0.0599     0.0000     0.0000     0.0143     0.2181     0.0000
   8923.0000  1516.2075    39.3395    33.7090   214.9649     0.0074     0.0271     0.2894     0.0145     2.3087     0.0829     0.0102     0.0015   163.6604    53.0147     0.4673     6.2948   183.9678   153.3687   220.4692   181.4773     0.0993     0.0324     0.0438     0.0641     0.2111     2.7310  2924.0000     0.0329     0.0000     0.7035     0.0528     0.0000     0.0000     0.0190     0.2247     0.0000
   8923.5000  1516.2075    37.1071    32.5369   214.9649     0.0074     0.0267     0.2820     0.0139     1.9314     0.0926     0.0136     0.0013   144.6914    53.0147     0.4706     6.2061   162.6450   134.3335   220.4692   156.0121     0.0280     0.0365     0.0389     0.0432     0.4517     2.7326  2944.0000     0.0358     0.0000     0.6835     0.0495     0.0000     0.0000     0.0254     0.2416     0.0000
