~VERSION INFORMATION
VERS.           1.2   :CWLS Log ASCII Standard - VERSION 1.2
WRAP.           NO    :One Line per depth step
PROD.  Schlumberger   :LAS Producer
PROG.  DLIS to ASCII 17C0-152                          :LAS Program name and version
CREA.        2010/11/19 02:18                          :LAS Creation date {YYYY/MM/DD hh:mm}
DLIS_CREA.  2010-Nov-18 22:49                          :DLIS Creation date and time {YYYY-MMM-DD hh:mm}
SOURCE.     d476e3e6-e07a-4d20-b90c-cbd099bd9e21       :DLIS File Name
#--------------------------------------------------
~WELL INFORMATION
#MNEM.UNIT      DATA             DESCRIPTION
#---- ------ --------------   -----------------------------
STRT .F      8456.0000       :START DEPTH     
STOP .F      9128.5000       :STOP DEPTH     
STEP .F       0.5000         :STEP       
NULL .          -999.25      :NULL VALUE
COMP .                 COMPANY:  Wellstar Corporation               
WELL .                    WELL:  Silver Spur Minerals 35-2          
FLD  .                   FIELD:  Wildcat                            
LOC  .                LOCATION:  Sec.35, T8N, R78W                  
CNTY .                  COUNTY:  Jackson                            
STAT .                   STATE:  Colorado                           
CTRY .                 COUNTRY:                                     
SRVC .         SERVICE COMPANY:  Schlumberger                       
API  .              API NUMBER:  05-057-06490-0100                  
DATE .                LOG DATE:  18-Nov-2010
UWI  .          UNIQUE WELL ID:                                     
#-----------------------------------------------------------------------------
~PARAMETER INFORMATION
#MNEM.UNIT    VALUE                      DESCRIPTION
#---- -----   --------------------       ------------------------
CN   .        Wellstar Corporation       :Company Name
WN   .        Silver Spur Minerals 35-2  :Well Name
FN   .        Wildcat                    :Field Name
FL   .        Sec.35  T8N  R78W          :Field Location
FL1  .        SHL  1996' FSL X 655' FEL NESE :Field Location Line 1
COUN .        Jackson                    :County or Rig Name
STAT .        Colorado                   :State or Province
NATI .                                   :Nation
DATE .        18-Nov-2010                :Date as Month-Day-Year
APIN .        05-057-06490-0100          :API Serial Number
SECT .        35                         :Section
TOWN .        8N                         :Township
RANG .        78W                        :Range
DMF  .        Kelly Bushing              :Drilling Measured From
LMF  .        Kelly Bushing              :Log Measured From
PDAT .        Ground Level               :Permanent Datum
ENGI .        Philip Grant               :Engineer's Name
WITN .        Jacky Burch                :Witness's Name
LATI .                                   :Latitude
LONG .                                   :Longitude
LUL  .        Fort Morgan  CO            :Logging Unit Location
LUN  .              3021                 :Logging Unit Number
RUN  .        1                          :Run Number
SON  .        BE0K-00102                 :Service Order Number
BHT  .DEGF     211.99986                 :Bottom Hole Temperature (used in calculations)
BS   .IN         6.12500                 :Bit Size
DFD  .LB/G       8.80000                 :Drilling Fluid Density
DFV  .S         28.00000                 :Drilling Fluid Viscosity
DFL  .                                   :Drilling Fluid Loss
RMFS .OHMM       0.64200                 :Resistivity of Mud Filtrate Sample
EKB  .F       8549.00000                 :Elevation of Kelly Bushing
EGL  .F       8534.00000                 :Elevation of Ground Level
BLI  .F       9108.00000                 :Bottom Log Interval
BSAL .PPM     38000.00000                :Borehole Salinity
FLEV .                                   :Fluid Level
MCST .DEGF      83.57200                 :Mud Cake Sample Temperature
MFST .DEGF      83.57200                 :Mud Filtrate Sample Temperature
MRT  .DEGF     217.00000                 :Maximum Recorded Temperature
MST  .DEGF      83.57200                 :Mud Sample Temperature
RMCS .OHMM       1.28400                 :Resistivity of Mud Cake Sample
RMS  .OHMM       0.85600                 :Resistivity of Mud Sample
RW   .OHMM       1.00000                 :Resistivity of Connate Water
TDD  .F       8610.00000                 :Total Depth - Driller
TDL  .F       9116.00000                 :Total Depth - Logger
TLI  .F       8482.00000                 :Top Log Interval
HIDE .        Elemental Capture Spectroscopy :Header Identifier
MATR .        LIME                       :Rock Matrix for Neutron Porosity Corrections
FNUM .           1.00000                 :Form Factor Numerator
FEXP .           2.00000                 :Form Factor Exponent
DFT  .        KCl  Mud                   :Drilling Fluid Type
DFPH .           9.80000                 :Drilling Fluid PH
MCSS .        Calculated                 :Mud Cake Sample Source
MFSS .        Calculated                 :Mud Filtrate Sample Source
MSS  .        AIT bottom nose            :Mud Sample Source
OS1  .        PEx-HRLA                   :Other Services Line 1
OS2  .        MSIP-FMI                   :Other Services Line 2
OS3  .        HNGS                       :Other Services Line 3
OS4  .                                   :Other Services Line 4
OS5  .                                   :Other Services Line 5
R1   .        Tool run as per tool sketch. :Remark Line 1
R2   .                                   :Remark Line 2
R3   .        This is the first log in hole. :Remark Line 3
R4   .                                   :Remark Line 4
R5   .        Data may be affected by hole rugosity. :Remark Line 5
R6   .                                   :Remark Line 6
R7   .        Matrix Limestone 2.71      :Remark Line 7
R8   .                                   :Remark Line 8
TCS  .        11 00                      :Time Circulation Stopped
TLAB .        9 31                       :Time Logger At Bottom
NMT  .        NOBARITE                   :HILT Nuclear Mud Type
EPD  .F         8534.000000              :Elevation of Permanent Datum above Mean Sea Level
APD  .F          15.000000               :Elevation of Depth Reference (LMF) above Permanent Datum
#-----------------------------------------------------------------------------
~CURVE INFORMATION
#MNEM.UNIT   API CODE                                  DESCRIPTION
#---- -----  --------                                  -----------------------
DEPT .F                                                :DEPTH (BOREHOLE) {F12.4}
CDF  .LBF                                              :Calibrated Downhole Force {F11.4}
CFTC .HZ                                               :Corrected Far Thermal Counting Rate {F11.4}
CNTC .HZ                                               :Corrected Near Thermal Counting Rate {F11.4}
CTEM .DEGF                                             :Cartridge Temperature {F11.4}
DNPH .CFCF                                             :Delta Thermal Neutron Porosity {F11.4}
DWAL_WALK2.                                            :Dry Weight Fraction Pseudo Aluminum (SpectroLith WALK2 Model) {F11.4}
DWCA_WALK2.                                            :Dry Weight Fraction Calcium (SpectroLith WALK2 Model) {F11.4}
DWFE_WALK2.                                            :Dry Weight Fraction Iron + 0.14 Aluminum (SpectroLith WALK2 Model) {F11.4}
DWGD_WALK2.PPM                                         :Dry Weight Fraction Gadolinium (SpectroLith WALK2 Model) {F11.4}
DWSI_WALK2.                                            :Dry Weight Fraction Silicon (SpectroLith WALK2 Model) {F11.4}
DWSU_WALK2.                                            :Dry Weight Fraction Sulfur (SpectroLith WALK2 Model) {F11.4}
DWTI_WALK2.                                            :Dry Weight Fraction Titanium (SpectroLith WALK2 Model) {F11.4}
ECGR .GAPI                                             :Environmentally Corrected Gamma-Ray {F11.4}
ECST .DEGF                                             :ECS Temperature {F11.4}
ESUF_WALK2.                                            :Elemental Statistical Uncertainty Factor (SpectroLith WALK2 Model) {F11.4}
GDEV .DEG                                              :HGNS Deviation {F11.4}
GR   .GAPI                                             :Gamma-Ray {F11.4}
GR_EDTC.GAPI                                           :EDTC Gamma Ray {F11.4}
GTEM .DEGF                                             :Generalized Borehole Temperature {F11.4}
HGR  .GAPI                                             :HiRes Gamma-Ray {F11.4}
HNPO .CFCF                                             :HiRes Enhanced Thermal Neutron Porosity {F11.4}
HTNP .CFCF                                             :HiRes Thermal Neutron Porosity {F11.4}
NPHI .CFCF                                             :Thermal Neutron Porosity (Ratio Method) {F11.4}
NPOR .CFCF                                             :Enhanced Thermal Neutron Porosity {F11.4}
QCPMT.                                                 :Photomultiplier Tube Quality Control {F11.4}
RHGE_WALK2.G/C3                                        :Matrix Density from Elemental Concentrations (SpectroLith WALK2 Model) {F11.4}
TENS .LBF                                              :Cable Tension {F11.4}
TNPH .CFCF                                             :Thermal Neutron Porosity {F11.4}
WANH_WALK2.                                            :Dry Weight Fraction Anhydrite/Gypsum (SpectroLith WALK2 Model) {F11.4}
WCAR_WALK2.                                            :Dry Weight Fraction Carbonate (SpectroLith WALK2 Model) {F11.4}
WCLA_WALK2.                                            :Dry Weight Fraction Clay (SpectroLith WALK2 Model) {F11.4}
WCOA_WALK2.                                            :Dry Weight Fraction Coal (SpectroLith WALK2 Model) {F11.4}
WEVA_WALK2.                                            :Dry Weight Fraction Salt (SpectroLith WALK2 Model) {F11.4}
WPYR_WALK2.                                            :Dry Weight Fraction Pyrite (SpectroLith WALK2 Model) {F11.4}
WQFM_WALK2.                                            :Dry Weight Fraction Quartz+Feldspar+Mica (QFM) (SpectroLith WALK2 Model) {F11.4}
WSID_WALK2.                                            :Dry Weight Fraction Siderite (SpectroLith WALK2 Model) {F11.4}
#-----------------------------------------------------------------------------
# 
#      DEPT        CDF        CFTC       CNTC       CTEM       DNPH    DWAL_WALK2 DWCA_WALK2 DWFE_WALK2 DWGD_WALK2 DWSI_WALK2 DWSU_WALK2 DWTI_WALK2    ECGR       ECST    ESUF_WALK2    GDEV        GR      GR_EDTC      GTEM       HGR        HNPO       HTNP       NPHI       NPOR      QCPMT    RHGE_WALK2    TENS       TNPH    WANH_WALK2 WCAR_WALK2 WCLA_WALK2 WCOA_WALK2 WEVA_WALK2 WPYR_WALK2 WQFM_WALK2 WSID_WALK2
#
~A  
# ...
   8936.0000  1404.2251    32.8780    31.6768   224.8472     0.0078     0.0387     0.1351     0.0230     6.2774     0.2407     0.0000     0.0016   129.0436    54.1852     0.5475     6.4714   145.0556   105.2661   226.5774   142.3387     0.0038     0.0485     0.0612     0.0190     0.0746     2.7084  3014.0000     0.0484     0.0000     0.2885     0.1554     0.0000     0.0000     0.0000     0.5560     0.0000
   8936.5000  1404.2251    31.2107    32.2872   224.8472     0.0080     0.0432     0.1256     0.0257     5.2731     0.2438     0.0004     0.0017   135.4335    54.1852     0.5548     6.4572   152.2384   104.3351   226.6972   155.7028     0.0312     0.0591     0.0862     0.0742     0.0305     2.7122  2935.0000     0.0587     0.0000     0.2630     0.1950     0.0000     0.0000     0.0008     0.5413     0.0000
   8937.0000  1399.2480    28.8226    33.5915   224.8472     0.0085     0.0495     0.1162     0.0287     4.8911     0.2443     0.0035     0.0027   144.4212    54.1852     0.5691     6.3964   162.3414   111.4555   226.5774   159.0771     0.0150     0.0774     0.0967     0.0817     0.2143     2.7197  2981.0000     0.0783     0.0000     0.2376     0.2498     0.0000     0.0000     0.0066     0.5060     0.0000
   8937.5000  1399.2480    28.2269    33.5273   224.8472     0.0086     0.0510     0.1217     0.0291     4.9478     0.2355     0.0060     0.0031   156.9969    54.1852     0.5494     6.4695   176.4774   116.1360   226.6972   172.6474     0.0574     0.0808     0.0837     0.0768     0.1834     2.7244  2985.0000     0.0817     0.0000     0.2525     0.2634     0.0000     0.0000     0.0113     0.4729     0.0000
   8938.0000  1404.2251    28.0189    33.0256   224.8472     0.0086     0.0494     0.1226     0.0285     6.0328     0.2372     0.0040     0.0030   167.5392    54.1852     0.5718     6.4179   188.3279   132.0786   226.9367   197.3042     0.0363     0.0799     0.0636     0.0792     0.2421     2.7210  2967.0000     0.0804     0.0000     0.2547     0.2493     0.0000     0.0000     0.0074     0.4885     0.0000
   8938.5000  1404.2251    31.0583    33.3141   224.8472     0.0082     0.0467     0.1281     0.0274     6.7303     0.2350     0.0026     0.0019   168.5211    54.1852     0.5705     6.5405   189.4315   133.9319   226.7571   194.5875     0.1370     0.0635     0.0538     0.0433     0.0886     2.7183  2997.0000     0.0642     0.0000     0.2697     0.2252     0.0000     0.0000     0.0048     0.5003     0.0000
   8939.0000  1399.2480    31.0549    32.8319   224.8472     0.0081     0.0456     0.1294     0.0274     6.3632     0.2349     0.0000     0.0013   161.8101    54.1852     0.5402     6.4583   181.8878   134.8749   226.9367   175.5239     0.0820     0.0621     0.0751     0.1014     0.0000     2.7155  2975.0000     0.0620     0.0000     0.2730     0.2161     0.0000     0.0000     0.0000     0.5109     0.0000
   8939.5000  1404.2251    30.4337    33.1784   224.8472     0.0082     0.0474     0.1308     0.0285     5.9286     0.2300     0.0000     0.0011   154.8794    54.1852     0.5182     6.3830   174.0972   128.8947   226.9367   175.1170     0.0540     0.0672     0.0777     0.0589     0.5746     2.7178  2983.0000     0.0669     0.0000     0.2770     0.2312     0.0000     0.0000     0.0000     0.4918     0.0000
   8940.0000  1404.2251    29.7824    32.5271   224.8472     0.0082     0.0504     0.1296     0.0301     5.3907     0.2263     0.0000     0.0017   156.0945    54.1852     0.5136     6.5729   175.4631   129.5629   226.9367   171.4534     0.1606     0.0679     0.0778     0.0714     0.5233     2.7205  3003.0000     0.0673     0.0000     0.2737     0.2576     0.0000     0.0000     0.0000     0.4687     0.0000
   8940.5000  1399.2480    27.3950    31.9851   224.8472     0.0086     0.0530     0.1228     0.0313     6.8083     0.2298     0.0000     0.0027   156.8999    54.5754     0.5397     6.4366   176.3684   134.0217   226.9367   180.0562     0.0220     0.0782     0.0536     0.0605     0.2357     2.7216  2938.0000     0.0789     0.0000     0.2554     0.2808     0.0000     0.0000     0.0000     0.4639     0.0000
   8941.0000  1404.2251    29.8915    31.3222   224.8472     0.0081     0.0535     0.1237     0.0314     7.7299     0.2280     0.0000     0.0033   156.7915    55.3557     0.5563     6.5415   176.2466   135.1828   226.9367   177.1539     0.0581     0.0606     0.0409     0.0458     0.8217     2.7219  2992.0000     0.0609     0.0000     0.2579     0.2854     0.0000     0.0000     0.0000     0.4567     0.0000
   8941.5000  1404.2251    32.1608    31.5569   224.8472     0.0078     0.0507     0.1268     0.0297     8.6651     0.2295     0.0000     0.0031   152.5033    55.3557     0.5611     6.4944   171.4263   128.4387   226.9367   170.8513     0.0286     0.0504     0.0786     0.1034     0.4956     2.7194  3027.0000     0.0510     0.0000     0.2661     0.2606     0.0000     0.0000     0.0000     0.4733     0.0000
   8942.0000  1404.2251    32.1635    32.6434   224.8472     0.0079     0.0487     0.1370     0.0288     7.9262     0.2209     0.0000     0.0025   151.8977    54.5754     0.5333     6.4612   170.7455   119.7184   226.9367   166.1608     0.0408     0.0565     0.0804     0.0649     0.5081     2.7193  2935.0000     0.0558     0.0000     0.2934     0.2434     0.0000     0.0000     0.0000     0.4632     0.0000
   8942.5000  1404.2251    31.5643    31.9901   224.8472     0.0079     0.0467     0.1372     0.0276     7.9632     0.2242     0.0000     0.0022   150.9109    54.1852     0.5098     6.4594   169.6363   118.9728   226.9367   175.7905     0.0372     0.0563     0.0883     0.0493     0.0697     2.7173  2995.0000     0.0557     0.0000     0.2941     0.2252     0.0000     0.0000     0.0000     0.4807     0.0000
   8943.0000  1404.2251    29.8998    33.6570   224.8472     0.0084     0.0468     0.1373     0.0266     7.9966     0.2248     0.0086     0.0020   152.0035    54.1852     0.5114     6.5462   170.8644   123.5935   226.9367   166.9912     0.1012     0.0733     0.0477     0.0368     0.0383     2.7255  3016.0000     0.0722     0.0000     0.2943     0.2266     0.0000     0.0000     0.0161     0.4630     0.0000
   8943.5000  1404.2251    31.4194    33.0174   224.8472     0.0081     0.0478     0.1301     0.0265     8.2558     0.2321     0.0127     0.0023   150.9945    54.1852     0.5215     6.5148   169.7302   131.5912   226.9367   169.2797     0.1586     0.0624     0.0376     0.0770     0.0000     2.7290  2980.0000     0.0610     0.0000     0.2750     0.2352     0.0000     0.0000     0.0237     0.4660     0.0000
   8944.0000  1404.2251    31.5991    31.5180   224.8472     0.0079     0.0493     0.1203     0.0279     8.2574     0.2405     0.0063     0.0033   151.1158    54.1852     0.5303     6.5521   169.8666   135.5771   226.9367   172.1346     0.0967     0.0550     0.0399     0.0443     0.0000     2.7224  3005.0000     0.0534     0.0000     0.2486     0.2480     0.0000     0.0000     0.0118     0.4915     0.0000
   8944.5000  1409.2020    33.1657    31.2574   224.8472     0.0077     0.0520     0.1100     0.0302     8.0812     0.2470     0.0000     0.0042   149.4676    54.9656     0.5445     6.5215   168.0138   138.2170   226.9367   167.9327     0.0994     0.0455     0.0397     0.0671     0.4828     2.7172  2996.0000     0.0454     0.0000     0.2209     0.2725     0.0000     0.0000     0.0000     0.5067     0.0000
   8945.0000  1404.2251    36.0864    32.3767   224.8472     0.0075     0.0524     0.1062     0.0304     7.8047     0.2509     0.0000     0.0042   145.7498    54.9656     0.5640     6.4393   163.8347   134.9229   226.9367   163.4715     0.1172     0.0383     0.0697     0.0864     0.6322     2.7169  2991.0000     0.0388     0.0000     0.2105     0.2756     0.0000     0.0000     0.0000     0.5138     0.0000
   8945.5000  1404.2251    34.8214    33.1839   224.8472     0.0077     0.0509     0.1024     0.0298     6.3321     0.2576     0.0000     0.0035   148.1991    54.1852     0.5701     6.6028   166.5880   129.5983   226.9367   159.8503     0.0295     0.0461     0.0711     0.0181     0.7776     2.7152  3015.0000     0.0467     0.0000     0.2005     0.2626     0.0000     0.0000     0.0000     0.5369     0.0000
