~VERSION INFORMATION
VERS.           1.2   :CWLS Log ASCII Standard - VERSION 1.2
WRAP.           NO    :One Line per depth step
PROD.  Schlumberger   :LAS Producer
PROG.  DLIS to ASCII 17C0-152                          :LAS Program name and version
CREA.        2010/11/19 02:18                          :LAS Creation date {YYYY/MM/DD hh:mm}
DLIS_CREA.  2010-Nov-18 22:49                          :DLIS Creation date and time {YYYY-MMM-DD hh:mm}
SOURCE.     d476e3e6-e07a-4d20-b90c-cbd099bd9e21       :DLIS File Name
#--------------------------------------------------
~WELL INFORMATION
#MNEM.UNIT      DATA             DESCRIPTION
#---- ------ --------------   -----------------------------
STRT .F      8456.0000       :START DEPTH     
STOP .F      9128.5000       :STOP DEPTH     
STEP .F       0.5000         :STEP       
NULL .          -999.25      :NULL VALUE
COMP .                 COMPANY:  Wellstar Corporation               
WELL .                    WELL:  Silver Spur Minerals 35-2          
FLD  .                   FIELD:  Wildcat                            
LOC  .                LOCATION:  Sec.35, T8N, R78W                  
CNTY .                  COUNTY:  Jackson                            
STAT .                   STATE:  Colorado                           
CTRY .                 COUNTRY:                                     
SRVC .         SERVICE COMPANY:  Schlumberger                       
API  .              API NUMBER:  05-057-06490-0100                  
DATE .                LOG DATE:  18-Nov-2010
UWI  .          UNIQUE WELL ID:                                     
#-----------------------------------------------------------------------------
~PARAMETER INFORMATION
#MNEM.UNIT    VALUE                      DESCRIPTION
#---- -----   --------------------       ------------------------
CN   .        Wellstar Corporation       :Company Name
WN   .        Silver Spur Minerals 35-2  :Well Name
FN   .        Wildcat                    :Field Name
FL   .        Sec.35  T8N  R78W          :Field Location
FL1  .        SHL  1996' FSL X 655' FEL NESE :Field Location Line 1
COUN .        Jackson                    :County or Rig Name
STAT .        Colorado                   :State or Province
NATI .                                   :Nation
DATE .        18-Nov-2010                :Date as Month-Day-Year
APIN .        05-057-06490-0100          :API Serial Number
SECT .        35                         :Section
TOWN .        8N                         :Township
RANG .        78W                        :Range
DMF  .        Kelly Bushing              :Drilling Measured From
LMF  .        Kelly Bushing              :Log Measured From
PDAT .        Ground Level               :Permanent Datum
ENGI .        Philip Grant               :Engineer's Name
WITN .        Jacky Burch                :Witness's Name
LATI .                                   :Latitude
LONG .                                   :Longitude
LUL  .        Fort Morgan  CO            :Logging Unit Location
LUN  .              3021                 :Logging Unit Number
RUN  .        1                          :Run Number
SON  .        BE0K-00102                 :Service Order Number
BHT  .DEGF     211.99986                 :Bottom Hole Temperature (used in calculations)
BS   .IN         6.12500                 :Bit Size
DFD  .LB/G       8.80000                 :Drilling Fluid Density
DFV  .S         28.00000                 :Drilling Fluid Viscosity
DFL  .                                   :Drilling Fluid Loss
RMFS .OHMM       0.64200                 :Resistivity of Mud Filtrate Sample
EKB  .F       8549.00000                 :Elevation of Kelly Bushing
EGL  .F       8534.00000                 :Elevation of Ground Level
BLI  .F       9108.00000                 :Bottom Log Interval
BSAL .PPM     38000.00000                :Borehole Salinity
FLEV .                                   :Fluid Level
MCST .DEGF      83.57200                 :Mud Cake Sample Temperature
MFST .DEGF      83.57200                 :Mud Filtrate Sample Temperature
MRT  .DEGF     217.00000                 :Maximum Recorded Temperature
MST  .DEGF      83.57200                 :Mud Sample Temperature
RMCS .OHMM       1.28400                 :Resistivity of Mud Cake Sample
RMS  .OHMM       0.85600                 :Resistivity of Mud Sample
RW   .OHMM       1.00000                 :Resistivity of Connate Water
TDD  .F       8610.00000                 :Total Depth - Driller
TDL  .F       9116.00000                 :Total Depth - Logger
TLI  .F       8482.00000                 :Top Log Interval
HIDE .        Elemental Capture Spectroscopy :Header Identifier
MATR .        LIME                       :Rock Matrix for Neutron Porosity Corrections
FNUM .           1.00000                 :Form Factor Numerator
FEXP .           2.00000                 :Form Factor Exponent
DFT  .        KCl  Mud                   :Drilling Fluid Type
DFPH .           9.80000                 :Drilling Fluid PH
MCSS .        Calculated                 :Mud Cake Sample Source
MFSS .        Calculated                 :Mud Filtrate Sample Source
MSS  .        AIT bottom nose            :Mud Sample Source
OS1  .        PEx-HRLA                   :Other Services Line 1
OS2  .        MSIP-FMI                   :Other Services Line 2
OS3  .        HNGS                       :Other Services Line 3
OS4  .                                   :Other Services Line 4
OS5  .                                   :Other Services Line 5
R1   .        Tool run as per tool sketch. :Remark Line 1
R2   .                                   :Remark Line 2
R3   .        This is the first log in hole. :Remark Line 3
R4   .                                   :Remark Line 4
R5   .        Data may be affected by hole rugosity. :Remark Line 5
R6   .                                   :Remark Line 6
R7   .        Matrix Limestone 2.71      :Remark Line 7
R8   .                                   :Remark Line 8
TCS  .        11 00                      :Time Circulation Stopped
TLAB .        9 31                       :Time Logger At Bottom
NMT  .        NOBARITE                   :HILT Nuclear Mud Type
EPD  .F         8534.000000              :Elevation of Permanent Datum above Mean Sea Level
APD  .F          15.000000               :Elevation of Depth Reference (LMF) above Permanent Datum
#-----------------------------------------------------------------------------
~CURVE INFORMATION
#MNEM.UNIT   API CODE                                  DESCRIPTION
#---- -----  --------                                  -----------------------
DEPT .F                                                :DEPTH (BOREHOLE) {F12.4}
CDF  .LBF                                              :Calibrated Downhole Force {F11.4}
CFTC .HZ                                               :Corrected Far Thermal Counting Rate {F11.4}
CNTC .HZ                                               :Corrected Near Thermal Counting Rate {F11.4}
CTEM .DEGF                                             :Cartridge Temperature {F11.4}
DNPH .CFCF                                             :Delta Thermal Neutron Porosity {F11.4}
DWAL_WALK2.                                            :Dry Weight Fraction Pseudo Aluminum (SpectroLith WALK2 Model) {F11.4}
DWCA_WALK2.                                            :Dry Weight Fraction Calcium (SpectroLith WALK2 Model) {F11.4}
DWFE_WALK2.                                            :Dry Weight Fraction Iron + 0.14 Aluminum (SpectroLith WALK2 Model) {F11.4}
DWGD_WALK2.PPM                                         :Dry Weight Fraction Gadolinium (SpectroLith WALK2 Model) {F11.4}
DWSI_WALK2.                                            :Dry Weight Fraction Silicon (SpectroLith WALK2 Model) {F11.4}
DWSU_WALK2.                                            :Dry Weight Fraction Sulfur (SpectroLith WALK2 Model) {F11.4}
DWTI_WALK2.                                            :Dry Weight Fraction Titanium (SpectroLith WALK2 Model) {F11.4}
ECGR .GAPI                                             :Environmentally Corrected Gamma-Ray {F11.4}
ECST .DEGF                                             :ECS Temperature {F11.4}
ESUF_WALK2.                                            :Elemental Statistical Uncertainty Factor (SpectroLith WALK2 Model) {F11.4}
GDEV .DEG                                              :HGNS Deviation {F11.4}
GR   .GAPI                                             :Gamma-Ray {F11.4}
GR_EDTC.GAPI                                           :EDTC Gamma Ray {F11.4}
GTEM .DEGF                                             :Generalized Borehole Temperature {F11.4}
HGR  .GAPI                                             :HiRes Gamma-Ray {F11.4}
HNPO .CFCF                                             :HiRes Enhanced Thermal Neutron Porosity {F11.4}
HTNP .CFCF                                             :HiRes Thermal Neutron Porosity {F11.4}
NPHI .CFCF                                             :Thermal Neutron Porosity (Ratio Method) {F11.4}
NPOR .CFCF                                             :Enhanced Thermal Neutron Porosity {F11.4}
QCPMT.                                                 :Photomultiplier Tube Quality Control {F11.4}
RHGE_WALK2.G/C3                                        :Matrix Density from Elemental Concentrations (SpectroLith WALK2 Model) {F11.4}
TENS .LBF                                              :Cable Tension {F11.4}
TNPH .CFCF                                             :Thermal Neutron Porosity {F11.4}
WANH_WALK2.                                            :Dry Weight Fraction Anhydrite/Gypsum (SpectroLith WALK2 Model) {F11.4}
WCAR_WALK2.                                            :Dry Weight Fraction Carbonate (SpectroLith WALK2 Model) {F11.4}
WCLA_WALK2.                                            :Dry Weight Fraction Clay (SpectroLith WALK2 Model) {F11.4}
WCOA_WALK2.                                            :Dry Weight Fraction Coal (SpectroLith WALK2 Model) {F11.4}
WEVA_WALK2.                                            :Dry Weight Fraction Salt (SpectroLith WALK2 Model) {F11.4}
WPYR_WALK2.                                            :Dry Weight Fraction Pyrite (SpectroLith WALK2 Model) {F11.4}
WQFM_WALK2.                                            :Dry Weight Fraction Quartz+Feldspar+Mica (QFM) (SpectroLith WALK2 Model) {F11.4}
WSID_WALK2.                                            :Dry Weight Fraction Siderite (SpectroLith WALK2 Model) {F11.4}
#-----------------------------------------------------------------------------
# 
#      DEPT        CDF        CFTC       CNTC       CTEM       DNPH    DWAL_WALK2 DWCA_WALK2 DWFE_WALK2 DWGD_WALK2 DWSI_WALK2 DWSU_WALK2 DWTI_WALK2    ECGR       ECST    ESUF_WALK2    GDEV        GR      GR_EDTC      GTEM       HGR        HNPO       HTNP       NPHI       NPOR      QCPMT    RHGE_WALK2    TENS       TNPH    WANH_WALK2 WCAR_WALK2 WCLA_WALK2 WCOA_WALK2 WEVA_WALK2 WPYR_WALK2 WQFM_WALK2 WSID_WALK2
#
~A  
# ...
   8986.0000  1428.3990    34.2130    31.2958   224.8472     0.0076     0.0568     0.0879     0.0339    10.4757     0.2635     0.0000     0.0020   145.4673    54.1852     0.5098     6.8452   163.5172   116.9023   226.9367   163.8914     0.1100     0.0409     0.0495     0.0579     0.7773     2.7205  3005.0000     0.0414     0.0000     0.1613     0.3145     0.0000     0.0000     0.0000     0.5241     0.0000
   8986.5000  1428.3990    33.7969    30.2973   224.8472     0.0075     0.0565     0.0801     0.0334    10.6280     0.2735     0.0000     0.0027   144.3398    55.3557     0.5489     6.8289   162.2498   117.4299   226.9367   154.6865     0.0650     0.0384     0.0687     0.0119     0.8816     2.7182  2975.0000     0.0389     0.0000     0.1404     0.3114     0.0000     0.0000     0.0000     0.5483     0.0000
   8987.0000  1433.3761    31.6543    32.7722   224.8472     0.0080     0.0574     0.0663     0.0336     9.7747     0.2882     0.0000     0.0037   145.8045    54.5754     0.6069     6.8678   163.8962   118.8782   226.9367   168.4070     0.2863     0.0590     0.0744     0.0562     0.2983     2.7162  3052.0000     0.0588     0.0000     0.1034     0.3193     0.0000     0.0000     0.0000     0.5773     0.0000
   8987.5000  1428.3990    31.3364    34.2678   224.8472     0.0082     0.0537     0.0670     0.0315     8.0583     0.2939     0.0000     0.0034   147.0029    54.1852     0.5955     6.7460   165.2433   121.0159   226.9367   168.8306     0.0702     0.0671     0.0990     0.0969     0.0753     2.7124  3064.0000     0.0672     0.0000     0.1052     0.2872     0.0000     0.0000     0.0000     0.6075     0.0000
   8988.0000  1428.3990    28.8401    33.7685   224.8472     0.0086     0.0540     0.0688     0.0316     8.4145     0.2914     0.0000     0.0035   146.5991    54.1852     0.5995     6.8515   164.7894   120.5205   226.9367   158.7277     0.0918     0.0789     0.0627     0.0630     0.2565     2.7129  3046.0000     0.0791     0.0000     0.1100     0.2895     0.0000     0.0000     0.0000     0.6005     0.0000
   8988.5000  1428.3990    34.0512    33.9009   224.8472     0.0079     0.0533     0.0697     0.0312     9.7021     0.2916     0.0000     0.0035   144.8757    54.1852     0.6091     6.8849   162.8521   119.4703   226.9367   167.1208     0.0047     0.0525     0.0588     0.0405     0.4422     2.7122  2965.0000     0.0528     0.0000     0.1124     0.2832     0.0000     0.0000     0.0000     0.6044     0.0000
   8989.0000  1428.3990    34.4711    34.8995   224.8472     0.0079     0.0564     0.0575     0.0326    10.2845     0.3007     0.0000     0.0048   145.2085    54.1852     0.6472     6.7695   163.2263   116.8995   226.9367   163.8506     0.1020     0.0548     0.0337     0.0659     0.4053     2.7127  2984.0000     0.0551     0.0000     0.0796     0.3108     0.0000     0.0000     0.0000     0.6096     0.0000
   8989.5000  1433.3761    40.5048    35.5934   224.8472     0.0074     0.0569     0.0612     0.0330     6.8125     0.2953     0.0000     0.0046   139.9491    54.1852     0.6197     6.8030   157.3143   114.7761   226.9367   159.8503     0.0558     0.0352     0.0357     0.0448     0.2082     2.7141  3051.0000     0.0357     0.0000     0.0897     0.3153     0.0000     0.0000     0.0000     0.5949     0.0000
   8990.0000  1433.3761    38.6810    34.4703   224.8472     0.0075     0.0564     0.0736     0.0329     3.3866     0.2816     0.0000     0.0039   142.0491    54.1852     0.5829     6.9630   159.6749   117.0322   226.9367   149.0738     0.0412     0.0374     0.0610     0.0352     0.0654     2.7162  3076.0000     0.0376     0.0000     0.1229     0.3109     0.0000     0.0000     0.0000     0.5661     0.0000
   8990.5000  1428.3990    36.8459    36.5828   224.8472     0.0078     0.0560     0.0905     0.0331     2.5167     0.2622     0.0000     0.0030   145.3114    54.1852     0.5331     6.8194   163.3419   109.3467   226.9367   170.8442     0.0816     0.0526     0.0509     0.0357     0.0186     2.7193  3003.0000     0.0520     0.0000     0.1684     0.3076     0.0000     0.0000     0.0000     0.5240     0.0000
   8991.0000  1433.3761    35.8054    35.9253   224.8472     0.0079     0.0541     0.0976     0.0320     3.5122     0.2572     0.0000     0.0028   148.1964    55.3557     0.5183     6.8151   166.5849   109.2376   226.9367   170.8512     0.0472     0.0545     0.0516     0.0875     0.0207     2.7185  2995.0000     0.0536     0.0000     0.1876     0.2909     0.0000     0.0000     0.0000     0.5215     0.0000
   8991.5000  1433.3761    36.6414    35.5508   224.8472     0.0078     0.0511     0.0982     0.0301     5.5231     0.2619     0.0000     0.0029   147.6200    54.1852     0.5050     6.8429   165.9370   113.2606   226.9367   158.8928     0.0166     0.0497     0.0636     0.0133     0.0046     2.7152  3021.0000     0.0488     0.0000     0.1892     0.2645     0.0000     0.0000     0.0000     0.5463     0.0000
   8992.0000  1433.3761    33.8165    34.9848   224.8472     0.0080     0.0472     0.0889     0.0276     5.6778     0.2800     0.0000     0.0031   145.4895    54.1852     0.5295     6.9058   163.5422   120.8357   226.9367   168.1571     0.3185     0.0596     0.0701     0.0868     0.2401     2.7089  3023.0000     0.0583     0.0000     0.1642     0.2295     0.0000     0.0000     0.0000     0.6063     0.0000
   8992.5000  1433.3761    33.4003    35.6108   224.8472     0.0081     0.0484     0.0805     0.0283     6.1242     0.2878     0.0000     0.0033   147.7121    54.5754     0.5614     6.9290   166.0406   120.9447   226.9367   163.6669     0.0773     0.0642     0.0857     0.0785     0.1631     2.7087  3042.0000     0.0629     0.0000     0.1415     0.2403     0.0000     0.0000     0.0000     0.6183     0.0000
   8993.0000  1433.3761    30.0714    33.2487   224.8472     0.0083     0.0521     0.0710     0.0303     5.3279     0.2923     0.0000     0.0038   144.1836    55.3557     0.5955     6.8545   162.0743   119.2979   226.9367   166.1005     0.1096     0.0702     0.0436     0.0475     0.0126     2.7109  3082.0000     0.0692     0.0000     0.1160     0.2728     0.0000     0.0000     0.0000     0.6112     0.0000
   8993.5000  1433.3761    34.1072    33.1238   224.8472     0.0078     0.0554     0.0776     0.0322     6.5755     0.2787     0.0000     0.0041   141.3875    54.1852     0.6161     6.9241   158.9311   117.3193   226.9367   156.2581     0.0587     0.0499     0.0741     0.0461     0.1381     2.7156  3003.0000     0.0493     0.0000     0.1338     0.3021     0.0000     0.0000     0.0000     0.5642     0.0000
   8994.0000  1433.3761    30.7493    34.3217   224.8472     0.0083     0.0531     0.0837     0.0308     7.1197     0.2758     0.0000     0.0042   140.3613    55.0631     0.6638     6.8937   157.7777   116.2116   226.9367   154.2375     0.1569     0.0705     0.0867     0.0871     0.3704     2.7139  2946.0000     0.0706     0.0000     0.1503     0.2818     0.0000     0.0000     0.0000     0.5680     0.0000
   8994.5000  1433.3761    30.3332    34.1387   224.8472     0.0084     0.0508     0.0882     0.0294     7.8484     0.2747     0.0000     0.0040   140.5466    55.3557     0.6682     6.8398   157.9859   113.7027   226.9367   162.5009     0.1008     0.0712     0.1128     0.1015     0.5699     2.7122  3044.0000     0.0721     0.0000     0.1623     0.2612     0.0000     0.0000     0.0000     0.5765     0.0000
   8995.0000  1438.3530    28.4607    35.1374   224.8472     0.0088     0.0494     0.0775     0.0288     5.7017     0.2896     0.0000     0.0035   146.3386    54.5754     0.6710     6.9353   164.4966   115.0178   226.9367   156.8802     0.0787     0.0876     0.0934     0.0659     0.6760     2.7092  3009.0000     0.0887     0.0000     0.1334     0.2488     0.0000     0.0000     0.0000     0.6177     0.0000
   8995.5000  1433.3761    30.5702    36.1360   224.8472     0.0086     0.0524     0.0612     0.0306     4.9209     0.3031     0.0000     0.0036   147.9161    53.0147     0.6776     6.9729   166.2698   116.9339   226.9367   173.7698     0.0237     0.0806     0.0735     0.0801     0.6995     2.7098  2972.0000     0.0804     0.0000     0.0895     0.2758     0.0000     0.0000     0.0000     0.6347     0.0000
