~VERSION INFORMATION
VERS.           1.2   :CWLS Log ASCII Standard - VERSION 1.2
WRAP.           NO    :One Line per depth step
PROD.  Schlumberger   :LAS Producer
PROG.  DLIS to ASCII 17C0-152                          :LAS Program name and version
CREA.        2010/11/19 02:18                          :LAS Creation date {YYYY/MM/DD hh:mm}
DLIS_CREA.  2010-Nov-18 21:51                          :DLIS Creation date and time {YYYY-MMM-DD hh:mm}
SOURCE.     c799ad9c-fb3a-46c4-856c-9f94c6b0213d       :DLIS File Name
#--------------------------------------------------
~WELL INFORMATION
#MNEM.UNIT      DATA             DESCRIPTION
#---- ------ --------------   -----------------------------
STRT .F      8904.0000       :START DEPTH     
STOP .F      9132.5000       :STOP DEPTH     
STEP .F       0.5000         :STEP       
NULL .          -999.25      :NULL VALUE
COMP .                 COMPANY:  Wellstar Corporation               
WELL .                    WELL:  Silver Spur Minerals 35-2          
FLD  .                   FIELD:  Wildcat                            
LOC  .                LOCATION:  Sec.35, T8N, R78W                  
CNTY .                  COUNTY:  Jackson                            
STAT .                   STATE:  Colorado                           
CTRY .                 COUNTRY:                                     
SRVC .         SERVICE COMPANY:  Schlumberger                       
API  .              API NUMBER:  05-057-06490-0100                  
DATE .                LOG DATE:  18-Nov-2010
UWI  .          UNIQUE WELL ID:                                     
#-----------------------------------------------------------------------------
~PARAMETER INFORMATION
#MNEM.UNIT    VALUE                      DESCRIPTION
#---- -----   --------------------       ------------------------
CN   .        Wellstar Corporation       :Company Name
WN   .        Silver Spur Minerals 35-2  :Well Name
FN   .        Wildcat                    :Field Name
FL   .        Sec.35  T8N  R78W          :Field Location
FL1  .        SHL  1996' FSL X 655' FEL NESE :Field Location Line 1
COUN .        Jackson                    :County or Rig Name
STAT .        Colorado                   :State or Province
NATI .                                   :Nation
DATE .        18-Nov-2010                :Date as Month-Day-Year
APIN .        05-057-06490-0100          :API Serial Number
SECT .        35                         :Section
TOWN .        8N                         :Township
RANG .        78W                        :Range
DMF  .        Kelly Bushing              :Drilling Measured From
LMF  .        Kelly Bushing              :Log Measured From
PDAT .        Ground Level               :Permanent Datum
ENGI .        Philip Grant               :Engineer's Name
WITN .        Jacky Burch                :Witness's Name
LATI .                                   :Latitude
LONG .                                   :Longitude
LUL  .        Fort Morgan  CO            :Logging Unit Location
LUN  .              3021                 :Logging Unit Number
RUN  .        1                          :Run Number
SON  .        BE0K-00102                 :Service Order Number
BHT  .DEGF     211.99986                 :Bottom Hole Temperature (used in calculations)
BS   .IN         6.12500                 :Bit Size
DFD  .LB/G       8.80000                 :Drilling Fluid Density
DFV  .S         28.00000                 :Drilling Fluid Viscosity
DFL  .                                   :Drilling Fluid Loss
RMFS .OHMM       0.64200                 :Resistivity of Mud Filtrate Sample
EKB  .F       8549.00000                 :Elevation of Kelly Bushing
EGL  .F       8534.00000                 :Elevation of Ground Level
BLI  .F       9108.00000                 :Bottom Log Interval
BSAL .PPM     38000.00000                :Borehole Salinity
FLEV .                                   :Fluid Level
MCST .DEGF      83.57200                 :Mud Cake Sample Temperature
MFST .DEGF      83.57200                 :Mud Filtrate Sample Temperature
MRT  .DEGF     217.00000                 :Maximum Recorded Temperature
MST  .DEGF      83.57200                 :Mud Sample Temperature
RMCS .OHMM       1.28400                 :Resistivity of Mud Cake Sample
RMS  .OHMM       0.85600                 :Resistivity of Mud Sample
RW   .OHMM       1.00000                 :Resistivity of Connate Water
TDD  .F       8610.00000                 :Total Depth - Driller
TDL  .F       9116.00000                 :Total Depth - Logger
TLI  .F       8482.00000                 :Top Log Interval
HIDE .        Elemental Capture Spectroscopy :Header Identifier
MATR .        LIME                       :Rock Matrix for Neutron Porosity Corrections
FNUM .           1.00000                 :Form Factor Numerator
FEXP .           2.00000                 :Form Factor Exponent
DFT  .        KCl  Mud                   :Drilling Fluid Type
DFPH .           9.80000                 :Drilling Fluid PH
MCSS .        Calculated                 :Mud Cake Sample Source
MFSS .        Calculated                 :Mud Filtrate Sample Source
MSS  .        AIT bottom nose            :Mud Sample Source
OS1  .        None                       :Other Services Line 1
OS2  .                                   :Other Services Line 2
OS3  .                                   :Other Services Line 3
OS4  .                                   :Other Services Line 4
OS5  .                                   :Other Services Line 5
R1   .        Tool run as per tool sketch. :Remark Line 1
R2   .                                   :Remark Line 2
R3   .        This is the first log in hole. :Remark Line 3
R4   .                                   :Remark Line 4
R5   .        Data may be affected by hole rugosity. :Remark Line 5
R6   .                                   :Remark Line 6
R7   .                                   :Remark Line 7
R8   .                                   :Remark Line 8
TCS  .        11 00                      :Time Circulation Stopped
TLAB .                                   :Time Logger At Bottom
NMT  .        NOBARITE                   :HILT Nuclear Mud Type
EPD  .F         8534.000000              :Elevation of Permanent Datum above Mean Sea Level
APD  .F          15.000000               :Elevation of Depth Reference (LMF) above Permanent Datum
#-----------------------------------------------------------------------------
~CURVE INFORMATION
#MNEM.UNIT   API CODE                                  DESCRIPTION
#---- -----  --------                                  -----------------------
DEPT .F                                                :DEPTH (BOREHOLE) {F12.4}
CDF  .LBF                                              :Calibrated Downhole Force {F11.4}
CFTC .HZ                                               :Corrected Far Thermal Counting Rate {F11.4}
CNTC .HZ                                               :Corrected Near Thermal Counting Rate {F11.4}
CTEM .DEGF                                             :Cartridge Temperature {F11.4}
DNPH .CFCF                                             :Delta Thermal Neutron Porosity {F11.4}
DWAL_WALK2.                                            :Dry Weight Fraction Pseudo Aluminum (SpectroLith WALK2 Model) {F11.4}
DWCA_WALK2.                                            :Dry Weight Fraction Calcium (SpectroLith WALK2 Model) {F11.4}
DWFE_WALK2.                                            :Dry Weight Fraction Iron + 0.14 Aluminum (SpectroLith WALK2 Model) {F11.4}
DWGD_WALK2.PPM                                         :Dry Weight Fraction Gadolinium (SpectroLith WALK2 Model) {F11.4}
DWSI_WALK2.                                            :Dry Weight Fraction Silicon (SpectroLith WALK2 Model) {F11.4}
DWSU_WALK2.                                            :Dry Weight Fraction Sulfur (SpectroLith WALK2 Model) {F11.4}
DWTI_WALK2.                                            :Dry Weight Fraction Titanium (SpectroLith WALK2 Model) {F11.4}
ECGR .GAPI                                             :Environmentally Corrected Gamma-Ray {F11.4}
ECST .DEGF                                             :ECS Temperature {F11.4}
ESUF_WALK2.                                            :Elemental Statistical Uncertainty Factor (SpectroLith WALK2 Model) {F11.4}
GDEV .DEG                                              :HGNS Deviation {F11.4}
GR   .GAPI                                             :Gamma-Ray {F11.4}
GR_EDTC.GAPI                                           :EDTC Gamma Ray {F11.4}
GTEM .DEGF                                             :Generalized Borehole Temperature {F11.4}
HGR  .GAPI                                             :HiRes Gamma-Ray {F11.4}
HNPO .CFCF                                             :HiRes Enhanced Thermal Neutron Porosity {F11.4}
HTNP .CFCF                                             :HiRes Thermal Neutron Porosity {F11.4}
NPHI .CFCF                                             :Thermal Neutron Porosity (Ratio Method) {F11.4}
NPOR .CFCF                                             :Enhanced Thermal Neutron Porosity {F11.4}
QCPMT.                                                 :Photomultiplier Tube Quality Control {F11.4}
RHGE_WALK2.G/C3                                        :Matrix Density from Elemental Concentrations (SpectroLith WALK2 Model) {F11.4}
TENS .LBF                                              :Cable Tension {F11.4}
TNPH .CFCF                                             :Thermal Neutron Porosity {F11.4}
WANH_WALK2.                                            :Dry Weight Fraction Anhydrite/Gypsum (SpectroLith WALK2 Model) {F11.4}
WCAR_WALK2.                                            :Dry Weight Fraction Carbonate (SpectroLith WALK2 Model) {F11.4}
WCLA_WALK2.                                            :Dry Weight Fraction Clay (SpectroLith WALK2 Model) {F11.4}
WCOA_WALK2.                                            :Dry Weight Fraction Coal (SpectroLith WALK2 Model) {F11.4}
WEVA_WALK2.                                            :Dry Weight Fraction Salt (SpectroLith WALK2 Model) {F11.4}
WPYR_WALK2.                                            :Dry Weight Fraction Pyrite (SpectroLith WALK2 Model) {F11.4}
WQFM_WALK2.                                            :Dry Weight Fraction Quartz+Feldspar+Mica (QFM) (SpectroLith WALK2 Model) {F11.4}
WSID_WALK2.                                            :Dry Weight Fraction Siderite (SpectroLith WALK2 Model) {F11.4}
#-----------------------------------------------------------------------------
# 
#      DEPT        CDF        CFTC       CNTC       CTEM       DNPH    DWAL_WALK2 DWCA_WALK2 DWFE_WALK2 DWGD_WALK2 DWSI_WALK2 DWSU_WALK2 DWTI_WALK2    ECGR       ECST    ESUF_WALK2    GDEV        GR      GR_EDTC      GTEM       HGR        HNPO       HTNP       NPHI       NPOR      QCPMT    RHGE_WALK2    TENS       TNPH    WANH_WALK2 WCAR_WALK2 WCLA_WALK2 WCOA_WALK2 WEVA_WALK2 WPYR_WALK2 WQFM_WALK2 WSID_WALK2
#
~A  
# ...
   8964.0000  1559.9341    39.7120    32.1017   212.9884     0.0072     0.0573     0.1007     0.0325     6.2235     0.2492     0.0129     0.0020   167.1255    54.1852     0.5328     6.7290   187.8627   135.7281   219.0319   191.0199     0.0383     0.0260     0.0250     0.0385     0.0891     2.7352  2983.0000     0.0263     0.0000     0.1959     0.3188     0.0000     0.0000     0.0241     0.4612     0.0000
   8964.5000  1554.9570    37.3945    31.8294   212.9884     0.0073     0.0542     0.1031     0.0323     6.0448     0.2504     0.0036     0.0009   168.1422    53.0147     0.5404     6.5819   189.0056   142.6635   219.0319   187.1349     0.0197     0.0319     0.0325     0.0319     0.0000     2.7244  2891.0000     0.0323     0.0000     0.2023     0.2918     0.0000     0.0000     0.0068     0.4991     0.0000
   8965.0000  1559.9341    35.0061    30.8316   212.9884     0.0075     0.0558     0.1029     0.0336     5.3545     0.2474     0.0000     0.0011   166.1660    53.0147     0.5299     6.6997   186.7843   142.9250   219.0319   188.4135     0.0123     0.0361     0.0230     0.0145     0.4524     2.7226  2873.0000     0.0366     0.0000     0.2018     0.3056     0.0000     0.0000     0.0000     0.4926     0.0000
   8965.5000  1564.5555    35.2231    30.4409   212.9884     0.0074     0.0563     0.0979     0.0337     4.8387     0.2526     0.0000     0.0017   165.6104    53.0147     0.5261     6.7130   186.1597   137.5250   219.0319   183.7352     0.0962     0.0345     0.0200     0.0551     0.6694     2.7218  3043.0000     0.0343     0.0000     0.1883     0.3098     0.0000     0.0000     0.0000     0.5019     0.0000
   8966.0000  1569.5326    35.5907    29.1384   212.9884     0.0072     0.0557     0.0985     0.0332     6.6946     0.2531     0.0000     0.0022   164.7156    53.0147     0.5307     6.6664   185.1539   134.3234   219.0319   185.3069    -0.0025     0.0286     0.0137     0.0235     0.3352     2.7209  2983.0000     0.0281     0.0000     0.1900     0.3049     0.0000     0.0000     0.0000     0.5052     0.0000
   8966.5000  1564.5555    37.9751    28.0966   212.9884     0.0070     0.0558     0.0883     0.0330     6.8826     0.2651     0.0000     0.0028   164.2811    53.0147     0.5355     6.7093   184.6655   134.9040   219.0319   185.4040     0.0682     0.0176     0.0233     0.0180     0.5665     2.7189  2913.0000     0.0173     0.0000     0.1624     0.3058     0.0000     0.0000     0.0000     0.5318     0.0000
   8967.0000  1564.5555    37.3238    30.0730   212.9025     0.0072     0.0545     0.0831     0.0323     6.7934     0.2734     0.0000     0.0026   162.0647    53.0147     0.5426     6.6229   182.1741   141.8271   219.0319   182.5833    -0.0030     0.0265     0.0389     0.0572     0.3246     2.7166  2944.0000     0.0262     0.0000     0.1486     0.2942     0.0000     0.0000     0.0000     0.5572     0.0000
   8967.5000  1564.5555    37.4143    31.2996   212.2472     0.0073     0.0565     0.0752     0.0332     5.4955     0.2793     0.0000     0.0034   162.5511    52.6245     0.5603     6.6658   182.7208   144.4588   219.0319   177.5037     0.0260     0.0306     0.0340     0.0382     0.4666     2.7170  2974.0000     0.0303     0.0000     0.1273     0.3118     0.0000     0.0000     0.0000     0.5609     0.0000
   8968.0000  1564.5555    37.8484    31.2996   211.6708     0.0073     0.0558     0.0839     0.0328     5.0278     0.2705     0.0000     0.0033   163.1762    51.8441     0.5808     6.7167   183.4235   141.6776   219.0319   187.1686    -0.0054     0.0303     0.0254     0.0019     0.3626     2.7177  2943.0000     0.0290     0.0000     0.1506     0.3054     0.0000     0.0000     0.0000     0.5440     0.0000
   8968.5000  1559.9341    37.4143    32.2095   211.0979     0.0074     0.0562     0.0848     0.0328     4.7748     0.2688     0.0000     0.0038   159.5047    53.0147     0.6045     6.6740   179.2964   135.2947   219.0319   185.0824    -0.0280     0.0331     0.0137     0.0146     0.1633     2.7179  2932.0000     0.0336     0.0000     0.1532     0.3091     0.0000     0.0000     0.0000     0.5377     0.0000
   8969.0000  1559.9341    37.2410    31.0874   211.0119     0.0073     0.0536     0.0908     0.0315     3.8510     0.2663     0.0000     0.0030   157.5419    53.0147     0.5908     6.5479   177.0900   128.2332   219.0319   165.3247     0.0595     0.0291     0.0225     0.0492     0.0914     2.7165  2926.0000     0.0301     0.0000     0.1693     0.2857     0.0000     0.0000     0.0000     0.5450     0.0000
   8969.5000  1564.5555    34.6395    29.6569   211.0119     0.0074     0.0539     0.0838     0.0312     3.1483     0.2743     0.0048     0.0027   156.6565    53.0147     0.5748     6.6787   176.0948   127.6646   218.7924   180.8498     0.0013     0.0317     0.0168     0.0316     0.0000     2.7204  2951.0000     0.0333     0.0000     0.1505     0.2887     0.0000     0.0000     0.0090     0.5517     0.0000
   8970.0000  1564.5555    37.0294    28.1567   211.0119     0.0070     0.0544     0.0900     0.0314     3.3132     0.2664     0.0068     0.0022   168.5175    53.0147     0.5557     6.6418   189.4276   140.8142   218.6726   182.7128     0.0719     0.0206     0.0242     0.0457     0.0000     2.7243  2929.0000     0.0201     0.0000     0.1670     0.2930     0.0000     0.0000     0.0128     0.5272     0.0000
   8970.5000  1564.5555    38.6280    29.5891   211.0119     0.0070     0.0534     0.0868     0.0312     4.4645     0.2715     0.0031     0.0026   168.7828    53.0147     0.5627     6.7352   189.7258   147.2141   218.6726   205.5079     0.0428     0.0214     0.0355     0.0187     0.0000     2.7189  2888.0000     0.0207     0.0000     0.1585     0.2843     0.0000     0.0000     0.0057     0.5515     0.0000
   8971.0000  1569.5326    39.7136    31.6754   211.0119     0.0072     0.0496     0.0895     0.0292     6.3805     0.2749     0.0000     0.0028   168.6439    53.0147     0.5636     6.7084   189.5696   147.2141   218.6726   181.5102     0.1708     0.0259     0.0556     0.0430     0.2909     2.7120  2999.0000     0.0248     0.0000     0.1658     0.2508     0.0000     0.0000     0.0000     0.5834     0.0000
   8971.5000  1569.5326    34.9471    32.7982   211.0119     0.0077     0.0465     0.0824     0.0271     7.7837     0.2889     0.0000     0.0033   164.8238    53.4048     0.5727     6.6352   185.2755   135.2473   218.6726   181.5237     0.0179     0.0457     0.0515     0.0321     0.6872     2.7069  2937.0000     0.0446     0.0000     0.1467     0.2236     0.0000     0.0000     0.0000     0.6297     0.0000
   8972.0000  1569.5326    34.9471    33.3171   211.0119     0.0077     0.0428     0.0846     0.0250     8.4966     0.2928     0.0000     0.0030   165.8266    54.1852     0.5891     6.6722   186.4027   133.8464   218.6726   192.9685     0.0318     0.0475     0.0533     0.0136     0.2756     2.7033  2995.0000     0.0467     0.0000     0.1527     0.1912     0.0000     0.0000     0.0000     0.6561     0.0000
   8972.5000  1574.5095    34.2957    35.4145   211.0119     0.0080     0.0441     0.0833     0.0256     7.6595     0.2921     0.0000     0.0033   170.4626    53.0147     0.6345     6.7304   191.6140   139.8003   218.6726   184.6339     0.0377     0.0578     0.0507     0.0939     0.1187     2.7044  3044.0000     0.0580     0.0000     0.1491     0.2026     0.0000     0.0000     0.0000     0.6483     0.0000
   8973.0000  1574.5095    34.9358    34.5029   211.0119     0.0078     0.0454     0.0882     0.0264     5.4295     0.2840     0.0000     0.0035   170.8862    53.0147     0.6467     6.6510   192.0901   147.6145   218.6726   197.0759     0.0110     0.0499     0.0468     0.0631     0.1107     2.7066  2949.0000     0.0515     0.0000     0.1624     0.2144     0.0000     0.0000     0.0000     0.6232     0.0000
   8973.5000  1569.5326    34.7230    32.2882   211.0119     0.0076     0.0492     0.0876     0.0286     3.6947     0.2782     0.0000     0.0038   177.3477    53.0147     0.6170     6.6467   199.3533   149.1541   218.6726   193.7348     0.0164     0.0423     0.0230     0.0111     0.0000     2.7105  2900.0000     0.0434     0.0000     0.1605     0.2473     0.0000     0.0000     0.0000     0.5922     0.0000
