~VERSION INFORMATION
VERS.           1.2   :CWLS Log ASCII Standard - VERSION 1.2
WRAP.           NO    :One Line per depth step
PROD.  Schlumberger   :LAS Producer
PROG.  DLIS to ASCII 17C0-152                          :LAS Program name and version
CREA.        2010/11/19 02:18                          :LAS Creation date {YYYY/MM/DD hh:mm}
DLIS_CREA.  2010-Nov-18 21:51                          :DLIS Creation date and time {YYYY-MMM-DD hh:mm}
SOURCE.     c799ad9c-fb3a-46c4-856c-9f94c6b0213d       :DLIS File Name
#--------------------------------------------------
~WELL INFORMATION
#MNEM.UNIT      DATA             DESCRIPTION
#---- ------ --------------   -----------------------------
STRT .F      8904.0000       :START DEPTH     
STOP .F      9132.5000       :STOP DEPTH     
STEP .F       0.5000         :STEP       
NULL .          -999.25      :NULL VALUE
COMP .                 COMPANY:  Wellstar Corporation               
WELL .                    WELL:  Silver Spur Minerals 35-2          
FLD  .                   FIELD:  Wildcat                            
LOC  .                LOCATION:  Sec.35, T8N, R78W                  
CNTY .                  COUNTY:  Jackson                            
STAT .                   STATE:  Colorado                           
CTRY .                 COUNTRY:                                     
SRVC .         SERVICE COMPANY:  Schlumberger                       
API  .              API NUMBER:  05-057-06490-0100                  
DATE .                LOG DATE:  18-Nov-2010
UWI  .          UNIQUE WELL ID:                                     
#-----------------------------------------------------------------------------
~PARAMETER INFORMATION
#MNEM.UNIT    VALUE                      DESCRIPTION
#---- -----   --------------------       ------------------------
CN   .        Wellstar Corporation       :Company Name
WN   .        Silver Spur Minerals 35-2  :Well Name
FN   .        Wildcat                    :Field Name
FL   .        Sec.35  T8N  R78W          :Field Location
FL1  .        SHL  1996' FSL X 655' FEL NESE :Field Location Line 1
COUN .        Jackson                    :County or Rig Name
STAT .        Colorado                   :State or Province
NATI .                                   :Nation
DATE .        18-Nov-2010                :Date as Month-Day-Year
APIN .        05-057-06490-0100          :API Serial Number
SECT .        35                         :Section
TOWN .        8N                         :Township
RANG .        78W                        :Range
DMF  .        Kelly Bushing              :Drilling Measured From
LMF  .        Kelly Bushing              :Log Measured From
PDAT .        Ground Level               :Permanent Datum
ENGI .        Philip Grant               :Engineer's Name
WITN .        Jacky Burch                :Witness's Name
LATI .                                   :Latitude
LONG .                                   :Longitude
LUL  .        Fort Morgan  CO            :Logging Unit Location
LUN  .              3021                 :Logging Unit Number
RUN  .        1                          :Run Number
SON  .        BE0K-00102                 :Service Order Number
BHT  .DEGF     211.99986                 :Bottom Hole Temperature (used in calculations)
BS   .IN         6.12500                 :Bit Size
DFD  .LB/G       8.80000                 :Drilling Fluid Density
DFV  .S         28.00000                 :Drilling Fluid Viscosity
DFL  .                                   :Drilling Fluid Loss
RMFS .OHMM       0.64200                 :Resistivity of Mud Filtrate Sample
EKB  .F       8549.00000                 :Elevation of Kelly Bushing
EGL  .F       8534.00000                 :Elevation of Ground Level
BLI  .F       9108.00000                 :Bottom Log Interval
BSAL .PPM     38000.00000                :Borehole Salinity
FLEV .                                   :Fluid Level
MCST .DEGF      83.57200                 :Mud Cake Sample Temperature
MFST .DEGF      83.57200                 :Mud Filtrate Sample Temperature
MRT  .DEGF     217.00000                 :Maximum Recorded Temperature
MST  .DEGF      83.57200                 :Mud Sample Temperature
RMCS .OHMM       1.28400                 :Resistivity of Mud Cake Sample
RMS  .OHMM       0.85600                 :Resistivity of Mud Sample
RW   .OHMM       1.00000                 :Resistivity of Connate Water
TDD  .F       8610.00000                 :Total Depth - Driller
TDL  .F       9116.00000                 :Total Depth - Logger
TLI  .F       8482.00000                 :Top Log Interval
HIDE .        Elemental Capture Spectroscopy :Header Identifier
MATR .        LIME                       :Rock Matrix for Neutron Porosity Corrections
FNUM .           1.00000                 :Form Factor Numerator
FEXP .           2.00000                 :Form Factor Exponent
DFT  .        KCl  Mud                   :Drilling Fluid Type
DFPH .           9.80000                 :Drilling Fluid PH
MCSS .        Calculated                 :Mud Cake Sample Source
MFSS .        Calculated                 :Mud Filtrate Sample Source
MSS  .        AIT bottom nose            :Mud Sample Source
OS1  .        None                       :Other Services Line 1
OS2  .                                   :Other Services Line 2
OS3  .                                   :Other Services Line 3
OS4  .                                   :Other Services Line 4
OS5  .                                   :Other Services Line 5
R1   .        Tool run as per tool sketch. :Remark Line 1
R2   .                                   :Remark Line 2
R3   .        This is the first log in hole. :Remark Line 3
R4   .                                   :Remark Line 4
R5   .        Data may be affected by hole rugosity. :Remark Line 5
R6   .                                   :Remark Line 6
R7   .                                   :Remark Line 7
R8   .                                   :Remark Line 8
TCS  .        11 00                      :Time Circulation Stopped
TLAB .                                   :Time Logger At Bottom
NMT  .        NOBARITE                   :HILT Nuclear Mud Type
EPD  .F         8534.000000              :Elevation of Permanent Datum above Mean Sea Level
APD  .F          15.000000               :Elevation of Depth Reference (LMF) above Permanent Datum
#-----------------------------------------------------------------------------
~CURVE INFORMATION
#MNEM.UNIT   API CODE                                  DESCRIPTION
#---- -----  --------                                  -----------------------
DEPT .F                                                :DEPTH (BOREHOLE) {F12.4}
CDF  .LBF                                              :Calibrated Downhole Force {F11.4}
CFTC .HZ                                               :Corrected Far Thermal Counting Rate {F11.4}
CNTC .HZ                                               :Corrected Near Thermal Counting Rate {F11.4}
CTEM .DEGF                                             :Cartridge Temperature {F11.4}
DNPH .CFCF                                             :Delta Thermal Neutron Porosity {F11.4}
DWAL_WALK2.                                            :Dry Weight Fraction Pseudo Aluminum (SpectroLith WALK2 Model) {F11.4}
DWCA_WALK2.                                            :Dry Weight Fraction Calcium (SpectroLith WALK2 Model) {F11.4}
DWFE_WALK2.                                            :Dry Weight Fraction Iron + 0.14 Aluminum (SpectroLith WALK2 Model) {F11.4}
DWGD_WALK2.PPM                                         :Dry Weight Fraction Gadolinium (SpectroLith WALK2 Model) {F11.4}
DWSI_WALK2.                                            :Dry Weight Fraction Silicon (SpectroLith WALK2 Model) {F11.4}
DWSU_WALK2.                                            :Dry Weight Fraction Sulfur (SpectroLith WALK2 Model) {F11.4}
DWTI_WALK2.                                            :Dry Weight Fraction Titanium (SpectroLith WALK2 Model) {F11.4}
ECGR .GAPI                                             :Environmentally Corrected Gamma-Ray {F11.4}
ECST .DEGF                                             :ECS Temperature {F11.4}
ESUF_WALK2.                                            :Elemental Statistical Uncertainty Factor (SpectroLith WALK2 Model) {F11.4}
GDEV .DEG                                              :HGNS Deviation {F11.4}
GR   .GAPI                                             :Gamma-Ray {F11.4}
GR_EDTC.GAPI                                           :EDTC Gamma Ray {F11.4}
GTEM .DEGF                                             :Generalized Borehole Temperature {F11.4}
HGR  .GAPI                                             :HiRes Gamma-Ray {F11.4}
HNPO .CFCF                                             :HiRes Enhanced Thermal Neutron Porosity {F11.4}
HTNP .CFCF                                             :HiRes Thermal Neutron Porosity {F11.4}
NPHI .CFCF                                             :Thermal Neutron Porosity (Ratio Method) {F11.4}
NPOR .CFCF                                             :Enhanced Thermal Neutron Porosity {F11.4}
QCPMT.                                                 :Photomultiplier Tube Quality Control {F11.4}
RHGE_WALK2.G/C3                                        :Matrix Density from Elemental Concentrations (SpectroLith WALK2 Model) {F11.4}
TENS .LBF                                              :Cable Tension {F11.4}
TNPH .CFCF                                             :Thermal Neutron Porosity {F11.4}
WANH_WALK2.                                            :Dry Weight Fraction Anhydrite/Gypsum (SpectroLith WALK2 Model) {F11.4}
WCAR_WALK2.                                            :Dry Weight Fraction Carbonate (SpectroLith WALK2 Model) {F11.4}
WCLA_WALK2.                                            :Dry Weight Fraction Clay (SpectroLith WALK2 Model) {F11.4}
WCOA_WALK2.                                            :Dry Weight Fraction Coal (SpectroLith WALK2 Model) {F11.4}
WEVA_WALK2.                                            :Dry Weight Fraction Salt (SpectroLith WALK2 Model) {F11.4}
WPYR_WALK2.                                            :Dry Weight Fraction Pyrite (SpectroLith WALK2 Model) {F11.4}
WQFM_WALK2.                                            :Dry Weight Fraction Quartz+Feldspar+Mica (QFM) (SpectroLith WALK2 Model) {F11.4}
WSID_WALK2.                                            :Dry Weight Fraction Siderite (SpectroLith WALK2 Model) {F11.4}
#-----------------------------------------------------------------------------
# 
#      DEPT        CDF        CFTC       CNTC       CTEM       DNPH    DWAL_WALK2 DWCA_WALK2 DWFE_WALK2 DWGD_WALK2 DWSI_WALK2 DWSU_WALK2 DWTI_WALK2    ECGR       ECST    ESUF_WALK2    GDEV        GR      GR_EDTC      GTEM       HGR        HNPO       HTNP       NPHI       NPOR      QCPMT    RHGE_WALK2    TENS       TNPH    WANH_WALK2 WCAR_WALK2 WCLA_WALK2 WCOA_WALK2 WEVA_WALK2 WPYR_WALK2 WQFM_WALK2 WSID_WALK2
#
~A  
# ...
   9064.0000  1710.3105    35.7884    28.7298   201.1296     0.0072     0.0600     0.0829     0.0354     7.9479     0.2640     0.0000     0.0033   163.1003    52.6245     0.5548     7.2104   183.3382   130.1307   212.9237   185.5939     0.0174     0.0245     0.0283     0.0353     0.0000     2.7222  3029.0000     0.0259     0.0000     0.1480     0.3422     0.0000     0.0000     0.0000     0.5098     0.0000
   9064.5000  1705.6891    35.5207    29.6033   201.1296     0.0073     0.0615     0.0793     0.0364     7.2125     0.2653     0.0000     0.0029   165.5321    51.8441     0.5736     7.0674   186.0716   134.1353   212.9237   180.3049     0.0394     0.0286     0.0437     0.0452     0.0554     2.7237  2984.0000     0.0301     0.0000     0.1383     0.3558     0.0000     0.0000     0.0000     0.5059     0.0000
   9065.0000  1705.6891    33.4790    29.7266   201.1296     0.0075     0.0596     0.0906     0.0355     8.4436     0.2554     0.0000     0.0023   165.3491    51.8441     0.5778     7.1720   185.8660   141.6784   212.9237   191.8195     0.0358     0.0375     0.0386     0.0328     0.2635     2.7239  3029.0000     0.0378     0.0000     0.1687     0.3389     0.0000     0.0000     0.0000     0.4924     0.0000
   9065.5000  1710.3105    35.0273    30.6632   201.1296     0.0074     0.0573     0.0971     0.0344     9.4271     0.2517     0.0000     0.0015   164.7636    53.0147     0.6053     7.2288   185.2078   142.5818   212.9237   185.2669     0.0110     0.0359     0.0359     0.0229     1.1833     2.7229  3032.0000     0.0359     0.0000     0.1863     0.3182     0.0000     0.0000     0.0000     0.4955     0.0000
   9066.0000  1705.6891    34.9383    31.4675   201.1296     0.0075     0.0570     0.0989     0.0343     9.6853     0.2500     0.0000     0.0014   156.1250    52.2343     0.5952     7.1600   175.4973   141.4877   212.9237   178.8425    -0.0159     0.0396     0.0219     0.0447     1.1399     2.7230  2988.0000     0.0394     0.0000     0.1911     0.3163     0.0000     0.0000     0.0000     0.4926     0.0000
   9066.5000  1710.3105    39.0652    31.7342   201.1296     0.0072     0.0590     0.0806     0.0352     8.8799     0.2681     0.0000     0.0022   153.4141    51.8441     0.6173     7.1610   172.4501   128.7327   212.9237   162.9935     0.0618     0.0268     0.0157     0.0260     1.4367     2.7216  2836.0000     0.0269     0.0000     0.1418     0.3339     0.0000     0.0000     0.0000     0.5243     0.0000
   9067.0000  1715.2876    41.4493    31.2411   201.1296     0.0070     0.0592     0.0675     0.0349     9.1843     0.2835     0.0000     0.0032   149.5009    51.8441     0.6128     7.2585   168.0513   125.5043   212.9237   175.5119     0.0923     0.0188     0.0224     0.0188     0.9059     2.7188  3007.0000     0.0188     0.0000     0.1065     0.3353     0.0000     0.0000     0.0000     0.5583     0.0000
   9067.5000  1724.8861    42.4871    33.4307   201.1296     0.0071     0.0582     0.0646     0.0341     7.7678     0.2887     0.0000     0.0037   151.0987    53.0147     0.5991     7.1823   169.8474   125.5942   212.8039   165.7422     0.0402     0.0221     0.0293     0.0311     0.3617     2.7168  3172.0000     0.0232     0.0000     0.0988     0.3267     0.0000     0.0000     0.0000     0.5745     0.0000
   9068.0000  1724.8861    41.1841    33.9518   201.1296     0.0072     0.0575     0.0734     0.0337     6.2753     0.2797     0.0008     0.0033   152.2120    53.0147     0.5498     7.2809   171.0988   130.0389   212.5644   168.3818     0.0271     0.0271     0.0403     0.0470     0.2904     2.7186  3097.0000     0.0283     0.0000     0.1224     0.3208     0.0000     0.0000     0.0015     0.5553     0.0000
   9068.5000  1720.2645    37.3075    33.4198   201.1296     0.0075     0.0592     0.0782     0.0343     3.4897     0.2715     0.0051     0.0028   156.9190    52.6245     0.5222     7.2968   176.3898   130.8556   212.5644   179.1787    -0.0414     0.0371     0.0311     0.0029     0.5319     2.7256  3126.0000     0.0384     0.0000     0.1354     0.3351     0.0000     0.0000     0.0096     0.5200     0.0000
   9069.0000  1715.2876    36.7790    33.7772   201.1296     0.0076     0.0588     0.0828     0.0344     2.9994     0.2665     0.0045     0.0023   164.5156    51.8441     0.5125     7.1510   184.9291   128.7978   212.5644   181.5870     0.0783     0.0407     0.0213     0.0377     0.4308     2.7257  3107.0000     0.0416     0.0000     0.1478     0.3315     0.0000     0.0000     0.0083     0.5124     0.0000
   9069.5000  1715.2876    36.7748    32.9959   201.1296     0.0075     0.0586     0.0769     0.0348     3.1182     0.2732     0.0007     0.0023   160.6009    53.0147     0.5500     7.2553   180.5286   133.0915   212.5644   194.5809     0.0551     0.0382     0.0191     0.0664     0.2034     2.7211  3047.0000     0.0387     0.0000     0.1319     0.3302     0.0000     0.0000     0.0013     0.5366     0.0000
   9070.0000  1710.3105    37.8292    30.5501   201.1296     0.0072     0.0576     0.0748     0.0343     4.1817     0.2776     0.0000     0.0023   160.4794    52.2343     0.5987     7.3060   180.3920   129.2145   212.5644   166.3228     0.0013     0.0260     0.0249     0.0105     0.2057     2.7189  3027.0000     0.0264     0.0000     0.1261     0.3209     0.0000     0.0000     0.0000     0.5530     0.0000
   9070.5000  1710.3105    36.3189    30.5925   201.1296     0.0073     0.0569     0.0652     0.0338     4.9839     0.2899     0.0000     0.0026   154.4399    52.2343     0.6432     7.1380   173.6031   124.7573   212.5644   181.1389     0.0472     0.0315     0.0475     0.0565     0.1867     2.7163  2985.0000     0.0312     0.0000     0.1005     0.3155     0.0000     0.0000     0.0000     0.5840     0.0000
   9071.0000  1715.2876    33.7252    31.5455   201.1296     0.0076     0.0546     0.0785     0.0322     5.8074     0.2788     0.0010     0.0027   152.8424    53.0147     0.6285     7.1143   171.8074   118.3859   212.5644   173.7243     0.1405     0.0435     0.0318     0.0586     0.0000     2.7168  2991.0000     0.0443     0.0000     0.1361     0.2951     0.0000     0.0000     0.0019     0.5670     0.0000
   9071.5000  1715.2876    37.4375    30.1154   201.1296     0.0072     0.0557     0.0822     0.0320     7.6994     0.2732     0.0051     0.0032   147.5621    53.0147     0.6239     7.2127   165.8719   116.5984   212.2051   160.5530     0.0662     0.0263     0.0185     0.0034     0.1763     2.7220  3024.0000     0.0260     0.0000     0.1462     0.3043     0.0000     0.0000     0.0095     0.5400     0.0000
   9072.0000  1720.2645    39.5721    30.5180   201.1296     0.0071     0.0547     0.0919     0.0319     8.3747     0.2632     0.0021     0.0032   144.0036    52.2343     0.6184     7.1271   161.8719   120.4881   212.2051   162.7249    -0.0020     0.0215     0.0167     0.0073     0.2428     2.7198  3088.0000     0.0213     0.0000     0.1723     0.2960     0.0000     0.0000     0.0039     0.5279     0.0000
   9072.5000  1724.8861    40.1748    31.3963   201.1296     0.0071     0.0561     0.0831     0.0329     8.1983     0.2709     0.0000     0.0035   144.6287    52.2343     0.6271     7.2962   162.5746   121.9980   212.2051   161.6637     0.0453     0.0234     0.0299     0.0528     0.5520     2.7177  3088.0000     0.0226     0.0000     0.1486     0.3079     0.0000     0.0000     0.0000     0.5435     0.0000
   9073.0000  1720.2645    37.9864    31.4842   200.3884     0.0073     0.0539     0.0858     0.0318     6.2614     0.2713     0.0000     0.0029   140.2109    53.0147     0.6058     7.1496   157.6085   129.2152   212.2051   162.3821     0.0501     0.0292     0.0300     0.0459     0.2848     2.7162  3043.0000     0.0292     0.0000     0.1559     0.2891     0.0000     0.0000     0.0000     0.5550     0.0000
   9073.5000  1715.2876    36.6358    30.0214   199.1531     0.0072     0.0553     0.0848     0.0327     5.6520     0.2700     0.0000     0.0029   140.9156    53.0147     0.5972     7.2130   158.4007   127.8306   212.2051   148.6121     0.0530     0.0284     0.0224     0.0094     0.1175     2.7176  2996.0000     0.0281     0.0000     0.1532     0.3015     0.0000     0.0000     0.0000     0.5453     0.0000
