~VERSION INFORMATION
VERS.           1.2   :CWLS Log ASCII Standard - VERSION 1.2
WRAP.           NO    :One Line per depth step
PROD.  Schlumberger   :LAS Producer
PROG.  DLIS to ASCII 17C0-152                          :LAS Program name and version
CREA.        2010/11/19 02:18                          :LAS Creation date {YYYY/MM/DD hh:mm}
DLIS_CREA.  2010-Nov-18 21:51                          :DLIS Creation date and time {YYYY-MMM-DD hh:mm}
SOURCE.     c799ad9c-fb3a-46c4-856c-9f94c6b0213d       :DLIS File Name
#--------------------------------------------------
~WELL INFORMATION
#MNEM.UNIT      DATA             DESCRIPTION
#---- ------ --------------   -----------------------------
STRT .F      8904.0000       :START DEPTH     
STOP .F      9132.5000       :STOP DEPTH     
STEP .F       0.5000         :STEP       
NULL .          -999.25      :NULL VALUE
COMP .                 COMPANY:  Wellstar Corporation               
WELL .                    WELL:  Silver Spur Minerals 35-2          
FLD  .                   FIELD:  Wildcat                            
LOC  .                LOCATION:  Sec.35, T8N, R78W                  
CNTY .                  COUNTY:  Jackson                            
STAT .                   STATE:  Colorado                           
CTRY .                 COUNTRY:                                     
SRVC .         SERVICE COMPANY:  Schlumberger                       
API  .              API NUMBER:  05-057-06490-0100                  
DATE .                LOG DATE:  18-Nov-2010
UWI  .          UNIQUE WELL ID:                                     
#-----------------------------------------------------------------------------
~PARAMETER INFORMATION
#MNEM.UNIT    VALUE                      DESCRIPTION
#---- -----   --------------------       ------------------------
CN   .        Wellstar Corporation       :Company Name
WN   .        Silver Spur Minerals 35-2  :Well Name
FN   .        Wildcat                    :Field Name
FL   .        Sec.35  T8N  R78W          :Field Location
FL1  .        SHL  1996' FSL X 655' FEL NESE :Field Location Line 1
COUN .        Jackson                    :County or Rig Name
STAT .        Colorado                   :State or Province
NATI .                                   :Nation
DATE .        18-Nov-2010                :Date as Month-Day-Year
APIN .        05-057-06490-0100          :API Serial Number
SECT .        35                         :Section
TOWN .        8N                         :Township
RANG .        78W                        :Range
DMF  .        Kelly Bushing              :Drilling Measured From
LMF  .        Kelly Bushing              :Log Measured From
PDAT .        Ground Level               :Permanent Datum
ENGI .        Philip Grant               :Engineer's Name
WITN .        Jacky Burch                :Witness's Name
LATI .                                   :Latitude
LONG .                                   :Longitude
LUL  .        Fort Morgan  CO            :Logging Unit Location
LUN  .              3021                 :Logging Unit Number
RUN  .        1                          :Run Number
SON  .        BE0K-00102                 :Service Order Number
BHT  .DEGF     211.99986                 :Bottom Hole Temperature (used in calculations)
BS   .IN         6.12500                 :Bit Size
DFD  .LB/G       8.80000                 :Drilling Fluid Density
DFV  .S         28.00000                 :Drilling Fluid Viscosity
DFL  .                                   :Drilling Fluid Loss
RMFS .OHMM       0.64200                 :Resistivity of Mud Filtrate Sample
EKB  .F       8549.00000                 :Elevation of Kelly Bushing
EGL  .F       8534.00000                 :Elevation of Ground Level
BLI  .F       9108.00000                 :Bottom Log Interval
BSAL .PPM     38000.00000                :Borehole Salinity
FLEV .                                   :Fluid Level
MCST .DEGF      83.57200                 :Mud Cake Sample Temperature
MFST .DEGF      83.57200                 :Mud Filtrate Sample Temperature
MRT  .DEGF     217.00000                 :Maximum Recorded Temperature
MST  .DEGF      83.57200                 :Mud Sample Temperature
RMCS .OHMM       1.28400                 :Resistivity of Mud Cake Sample
RMS  .OHMM       0.85600                 :Resistivity of Mud Sample
RW   .OHMM       1.00000                 :Resistivity of Connate Water
TDD  .F       8610.00000                 :Total Depth - Driller
TDL  .F       9116.00000                 :Total Depth - Logger
TLI  .F       8482.00000                 :Top Log Interval
HIDE .        Elemental Capture Spectroscopy :Header Identifier
MATR .        LIME                       :Rock Matrix for Neutron Porosity Corrections
FNUM .           1.00000                 :Form Factor Numerator
FEXP .           2.00000                 :Form Factor Exponent
DFT  .        KCl  Mud                   :Drilling Fluid Type
DFPH .           9.80000                 :Drilling Fluid PH
MCSS .        Calculated                 :Mud Cake Sample Source
MFSS .        Calculated                 :Mud Filtrate Sample Source
MSS  .        AIT bottom nose            :Mud Sample Source
OS1  .        None                       :Other Services Line 1
OS2  .                                   :Other Services Line 2
OS3  .                                   :Other Services Line 3
OS4  .                                   :Other Services Line 4
OS5  .                                   :Other Services Line 5
R1   .        Tool run as per tool sketch. :Remark Line 1
R2   .                                   :Remark Line 2
R3   .        This is the first log in hole. :Remark Line 3
R4   .                                   :Remark Line 4
R5   .        Data may be affected by hole rugosity. :Remark Line 5
R6   .                                   :Remark Line 6
R7   .                                   :Remark Line 7
R8   .                                   :Remark Line 8
TCS  .        11 00                      :Time Circulation Stopped
TLAB .                                   :Time Logger At Bottom
NMT  .        NOBARITE                   :HILT Nuclear Mud Type
EPD  .F         8534.000000              :Elevation of Permanent Datum above Mean Sea Level
APD  .F          15.000000               :Elevation of Depth Reference (LMF) above Permanent Datum
#-----------------------------------------------------------------------------
~CURVE INFORMATION
#MNEM.UNIT   API CODE                                  DESCRIPTION
#---- -----  --------                                  -----------------------
DEPT .F                                                :DEPTH (BOREHOLE) {F12.4}
CDF  .LBF                                              :Calibrated Downhole Force {F11.4}
CFTC .HZ                                               :Corrected Far Thermal Counting Rate {F11.4}
CNTC .HZ                                               :Corrected Near Thermal Counting Rate {F11.4}
CTEM .DEGF                                             :Cartridge Temperature {F11.4}
DNPH .CFCF                                             :Delta Thermal Neutron Porosity {F11.4}
DWAL_WALK2.                                            :Dry Weight Fraction Pseudo Aluminum (SpectroLith WALK2 Model) {F11.4}
DWCA_WALK2.                                            :Dry Weight Fraction Calcium (SpectroLith WALK2 Model) {F11.4}
DWFE_WALK2.                                            :Dry Weight Fraction Iron + 0.14 Aluminum (SpectroLith WALK2 Model) {F11.4}
DWGD_WALK2.PPM                                         :Dry Weight Fraction Gadolinium (SpectroLith WALK2 Model) {F11.4}
DWSI_WALK2.                                            :Dry Weight Fraction Silicon (SpectroLith WALK2 Model) {F11.4}
DWSU_WALK2.                                            :Dry Weight Fraction Sulfur (SpectroLith WALK2 Model) {F11.4}
DWTI_WALK2.                                            :Dry Weight Fraction Titanium (SpectroLith WALK2 Model) {F11.4}
ECGR .GAPI                                             :Environmentally Corrected Gamma-Ray {F11.4}
ECST .DEGF                                             :ECS Temperature {F11.4}
ESUF_WALK2.                                            :Elemental Statistical Uncertainty Factor (SpectroLith WALK2 Model) {F11.4}
GDEV .DEG                                              :HGNS Deviation {F11.4}
GR   .GAPI                                             :Gamma-Ray {F11.4}
GR_EDTC.GAPI                                           :EDTC Gamma Ray {F11.4}
GTEM .DEGF                                             :Generalized Borehole Temperature {F11.4}
HGR  .GAPI                                             :HiRes Gamma-Ray {F11.4}
HNPO .CFCF                                             :HiRes Enhanced Thermal Neutron Porosity {F11.4}
HTNP .CFCF                                             :HiRes Thermal Neutron Porosity {F11.4}
NPHI .CFCF                                             :Thermal Neutron Porosity (Ratio Method) {F11.4}
NPOR .CFCF                                             :Enhanced Thermal Neutron Porosity {F11.4}
QCPMT.                                                 :Photomultiplier Tube Quality Control {F11.4}
RHGE_WALK2.G/C3                                        :Matrix Density from Elemental Concentrations (SpectroLith WALK2 Model) {F11.4}
TENS .LBF                                              :Cable Tension {F11.4}
TNPH .CFCF                                             :Thermal Neutron Porosity {F11.4}
WANH_WALK2.                                            :Dry Weight Fraction Anhydrite/Gypsum (SpectroLith WALK2 Model) {F11.4}
WCAR_WALK2.                                            :Dry Weight Fraction Carbonate (SpectroLith WALK2 Model) {F11.4}
WCLA_WALK2.                                            :Dry Weight Fraction Clay (SpectroLith WALK2 Model) {F11.4}
WCOA_WALK2.                                            :Dry Weight Fraction Coal (SpectroLith WALK2 Model) {F11.4}
WEVA_WALK2.                                            :Dry Weight Fraction Salt (SpectroLith WALK2 Model) {F11.4}
WPYR_WALK2.                                            :Dry Weight Fraction Pyrite (SpectroLith WALK2 Model) {F11.4}
WQFM_WALK2.                                            :Dry Weight Fraction Quartz+Feldspar+Mica (QFM) (SpectroLith WALK2 Model) {F11.4}
WSID_WALK2.                                            :Dry Weight Fraction Siderite (SpectroLith WALK2 Model) {F11.4}
#-----------------------------------------------------------------------------
# 
#      DEPT        CDF        CFTC       CNTC       CTEM       DNPH    DWAL_WALK2 DWCA_WALK2 DWFE_WALK2 DWGD_WALK2 DWSI_WALK2 DWSU_WALK2 DWTI_WALK2    ECGR       ECST    ESUF_WALK2    GDEV        GR      GR_EDTC      GTEM       HGR        HNPO       HTNP       NPHI       NPOR      QCPMT    RHGE_WALK2    TENS       TNPH    WANH_WALK2 WCAR_WALK2 WCLA_WALK2 WCOA_WALK2 WEVA_WALK2 WPYR_WALK2 WQFM_WALK2 WSID_WALK2
#
~A  
# ...
   9124.0000  1763.9911    35.8400    28.3728   191.2472     0.0071     0.0492     0.0000     0.0279     5.6828     0.3810     0.0279     0.0043   120.3618    51.8441     1.1026     7.4627   135.2966   134.2795   205.3782   136.3130     0.0006     0.0242     0.0272     0.0400     0.7774     2.7277  2160.0000     0.0244     0.0000     0.0000     0.2472     0.0000     0.0000     0.0523     0.7005     0.0000
   9124.5000  1763.9911    34.9369    28.1781   191.2472     0.0072     0.0492     0.0000     0.0279     5.6828     0.3810     0.0279     0.0043   120.8772    51.8441     1.1026 -4589.8475   135.8759   134.2795   205.3782   135.2228    -0.0047     0.0263     0.0188    -0.0098     0.7774     2.7277  2143.0000     0.0265     0.0000     0.0000     0.2472     0.0000     0.0000     0.0523     0.7005     0.0000
   9125.0000  1763.9911    35.9036    29.2424   191.2472     0.0072     0.0492     0.0000     0.0279     5.6828     0.3810     0.0279     0.0043   117.9480    51.8441     1.1026  -999.2500   132.5833   134.2795   205.3782   136.2856     0.0528     0.0274     0.0342     0.0592     0.7774     2.7277  2085.0000     0.0275     0.0000     0.0000     0.2472     0.0000     0.0000     0.0523     0.7005     0.0000
   9125.5000  1768.6125    38.1584    32.5530   191.2472     0.0073     0.0492     0.0000     0.0279     5.6828     0.3810     0.0279     0.0043   120.5232    51.8441     1.1026  -999.2500   135.4780   134.2795   205.0189   126.4354     0.0752     0.0315     0.0321     0.0540     0.7774     2.7277  2153.0000     0.0325     0.0000     0.0000     0.2472     0.0000     0.0000     0.0523     0.7005     0.0000
   9126.0000  1768.6125    37.8964    30.8931   191.2472     0.0072     0.0492     0.0000     0.0279     5.6828     0.3810     0.0279     0.0043   107.2584    51.8441     1.1026  -999.2500   120.5673   134.2795   205.0189   128.2945     0.0313     0.0268     0.0338     0.0273     0.7774     2.7277  2140.0000     0.0274     0.0000     0.0000     0.2472     0.0000     0.0000     0.0523     0.7005     0.0000
   9126.5000  1768.6125    36.9297    31.8606   191.2472     0.0074     0.0492     0.0000     0.0279     5.6828     0.3810     0.0279     0.0043    96.8522    51.8441     1.1026  -999.2500   108.8699   134.2795   205.0189    91.3433     0.0896     0.0334     0.0160    -0.0108     0.7774     2.7277  2121.0000     0.0339     0.0000     0.0000     0.2472     0.0000     0.0000     0.0523     0.7005     0.0000
   9127.0000  1773.5896    37.4130    31.6674   191.2472     0.0073     0.0492     0.0000     0.0279     5.6828     0.3810     0.0279     0.0043    81.2603    51.8441     1.1026  -999.2500    91.3433   134.2795   205.0189    91.3433     0.1368     0.0315     0.0239     0.0583     0.7774     2.7277  2147.0000     0.0317     0.0000     0.0000     0.2472     0.0000     0.0000     0.0523     0.7005     0.0000
   9127.5000  1773.5896    36.7087    32.0524   191.2472     0.0074     0.0492     0.0000     0.0279     5.6828     0.3810     0.0279     0.0043    81.2603    51.8441     1.1026  -999.2500    91.3433   134.2795   205.0189    91.3433     0.0803     0.0355     0.0319     0.0509     0.7774     2.7277  2123.0000     0.0354     0.0000     0.0000     0.2472     0.0000     0.0000     0.0523     0.7005     0.0000
   9128.0000  1773.5896    35.4199    29.8313   191.2472     0.0073     0.0492     0.0000     0.0279     5.6828     0.3810     0.0279     0.0043    81.2603    51.8441     1.1026  -999.2500    91.3433   134.2795   205.0189    91.3433     0.0074     0.0311     0.0365     0.0426     0.7774     2.7277  2122.0000     0.0313     0.0000     0.0000     0.2472     0.0000     0.0000     0.0523     0.7005     0.0000
   9128.5000  1778.5665    33.9703    29.8469   191.2472     0.0074     0.0492     0.0000     0.0279     5.6828     0.3810     0.0279     0.0043    81.2603    51.8441     1.1026  -999.2500    91.3433   134.2795   205.0189    91.3433     0.0354     0.0364     0.0195     0.0201     0.7774     2.7277  2108.0000     0.0365     0.0000     0.0000     0.2472     0.0000     0.0000     0.0523     0.7005     0.0000
   9129.0000  1778.5665    33.6760    28.1456   191.2472     0.0073     0.0492     0.0000     0.0279     5.6828     0.3810     0.0279     0.0043    81.2603    51.8441     1.1026  -999.2500    91.3433   134.2795   205.0189    91.3433     0.0884     0.0305     0.0228     0.0126     0.7774     2.7277  2128.0000     0.0306     0.0000     0.0000     0.2472     0.0000     0.0000     0.0523     0.7005     0.0000
   9129.5000  1783.1881    32.8706    28.8235   191.2472     0.0074     0.0492     0.0000     0.0279     5.6828     0.3810     0.0279     0.0043    81.2603    51.8441     1.1026  -999.2500    91.3433   134.2795   205.0189    91.3433     0.0478     0.0362     0.0370     0.0448     0.7774     2.7277  2113.0000     0.0364     0.0000     0.0000     0.2472     0.0000     0.0000     0.0523     0.7005     0.0000
   9130.0000  1783.1881    32.8706    29.6931   191.2472     0.0075     0.0492     0.0000     0.0279     5.6828     0.3810     0.0279     0.0043    81.2603    51.8441     1.1026  -999.2500    91.3433   134.2795   205.0189    91.3433     0.0814     0.0394     0.0487     0.1146     0.7774     2.7277  2102.0000     0.0400     0.0000     0.0000     0.2472     0.0000     0.0000     0.0523     0.7005     0.0000
   9130.5000  1783.1881    34.8679    29.9015   191.2472     0.0074     0.0492     0.0000     0.0279     5.6828     0.3810     0.0279     0.0043    81.2603    51.8441     1.1026  -999.2500    91.3433   134.2795   205.0189    91.3433    -0.0082     0.0333     0.0633     0.0251     0.7774     2.7277  2090.0000     0.0335     0.0000     0.0000     0.2472     0.0000     0.0000     0.0523     0.7005     0.0000
   9131.0000  1788.1650    34.5335    31.8829   191.2472     0.0076     0.0492     0.0000     0.0279     5.6828     0.3810     0.0279     0.0043    81.2603    51.8441     1.1026  -999.2500    91.3433   134.2795   205.0189    91.3433     0.0084     0.0423     0.0276     0.0161     0.7774     2.7277  2105.0000     0.0425     0.0000     0.0000     0.2472     0.0000     0.0000     0.0523     0.7005     0.0000
   9131.5000  1788.1650    39.9165    32.1785   191.2472     0.0072     0.0492     0.0000     0.0279     5.6828     0.3810     0.0279     0.0043    81.2603    51.8441     1.1026  -999.2500    91.3433   134.2795   205.0189    91.3433     0.0077     0.0119     0.0017     0.0246     0.7774     2.7277  2102.0000     0.0260     0.0000     0.0000     0.2472     0.0000     0.0000     0.0523     0.7005     0.0000
   9132.0000  1793.1421    47.0214    25.8990   191.2472     0.0063     0.0492     0.0000     0.0279     5.6828     0.3810     0.0279     0.0043    81.2603    51.8441     1.1026  -999.2500    91.3433   134.2795   205.0189    91.3433    -0.0619    -0.0177    -0.0201    -0.0510     0.7774     2.7277  2074.0000    -0.0077     0.0000     0.0000     0.2472     0.0000     0.0000     0.0523     0.7005     0.0000
   9132.5000  1797.7635    57.2886    18.4615   191.2472     0.0055     0.0492     0.0000     0.0279     5.6828     0.3810     0.0279     0.0043    81.2603    51.8441     1.1026  -999.2500    91.3433   134.2795   205.0189    91.3433    -0.0568    -0.0351    -0.0259    -0.0560     0.7774     2.7277  2069.0000    -0.0359     0.0000     0.0000     0.2472     0.0000     0.0000     0.0523     0.7005     0.0000
