~VERSION INFORMATION
VERS.           1.2   :CWLS Log ASCII Standard - VERSION 1.2
WRAP.           NO    :One Line per depth step
PROD.  Schlumberger   :LAS Producer
PROG.  DLIS to ASCII 17C0-152                          :LAS Program name and version
CREA.        2010/11/19 02:18                          :LAS Creation date {YYYY/MM/DD hh:mm}
DLIS_CREA.  2010-Nov-18 21:51                          :DLIS Creation date and time {YYYY-MMM-DD hh:mm}
SOURCE.     c799ad9c-fb3a-46c4-856c-9f94c6b0213d       :DLIS File Name
#--------------------------------------------------
~WELL INFORMATION
#MNEM.UNIT      DATA             DESCRIPTION
#---- ------ --------------   -----------------------------
STRT .F      8904.0000       :START DEPTH     
STOP .F      9132.5000       :STOP DEPTH     
STEP .F       0.5000         :STEP       
NULL .          -999.25      :NULL VALUE
COMP .                 COMPANY:  Wellstar Corporation               
WELL .                    WELL:  Silver Spur Minerals 35-2          
FLD  .                   FIELD:  Wildcat                            
LOC  .                LOCATION:  Sec.35, T8N, R78W                  
CNTY .                  COUNTY:  Jackson                            
STAT .                   STATE:  Colorado                           
CTRY .                 COUNTRY:                                     
SRVC .         SERVICE COMPANY:  Schlumberger                       
API  .              API NUMBER:  05-057-06490-0100                  
DATE .                LOG DATE:  18-Nov-2010
UWI  .          UNIQUE WELL ID:                                     
#-----------------------------------------------------------------------------
~PARAMETER INFORMATION
#MNEM.UNIT    VALUE                      DESCRIPTION
#---- -----   --------------------       ------------------------
CN   .        Wellstar Corporation       :Company Name
WN   .        Silver Spur Minerals 35-2  :Well Name
FN   .        Wildcat                    :Field Name
FL   .        Sec.35  T8N  R78W          :Field Location
FL1  .        SHL  1996' FSL X 655' FEL NESE :Field Location Line 1
COUN .        Jackson                    :County or Rig Name
STAT .        Colorado                   :State or Province
NATI .                                   :Nation
DATE .        18-Nov-2010                :Date as Month-Day-Year
APIN .        05-057-06490-0100          :API Serial Number
SECT .        35                         :Section
TOWN .        8N                         :Township
RANG .        78W                        :Range
DMF  .        Kelly Bushing              :Drilling Measured From
LMF  .        Kelly Bushing              :Log Measured From
PDAT .        Ground Level               :Permanent Datum
ENGI .        Philip Grant               :Engineer's Name
WITN .        Jacky Burch                :Witness's Name
LATI .                                   :Latitude
LONG .                                   :Longitude
LUL  .        Fort Morgan  CO            :Logging Unit Location
LUN  .              3021                 :Logging Unit Number
RUN  .        1                          :Run Number
SON  .        BE0K-00102                 :Service Order Number
BHT  .DEGF     211.99986                 :Bottom Hole Temperature (used in calculations)
BS   .IN         6.12500                 :Bit Size
DFD  .LB/G       8.80000                 :Drilling Fluid Density
DFV  .S         28.00000                 :Drilling Fluid Viscosity
DFL  .                                   :Drilling Fluid Loss
RMFS .OHMM       0.64200                 :Resistivity of Mud Filtrate Sample
EKB  .F       8549.00000                 :Elevation of Kelly Bushing
EGL  .F       8534.00000                 :Elevation of Ground Level
BLI  .F       9108.00000                 :Bottom Log Interval
BSAL .PPM     38000.00000                :Borehole Salinity
FLEV .                                   :Fluid Level
MCST .DEGF      83.57200                 :Mud Cake Sample Temperature
MFST .DEGF      83.57200                 :Mud Filtrate Sample Temperature
MRT  .DEGF     217.00000                 :Maximum Recorded Temperature
MST  .DEGF      83.57200                 :Mud Sample Temperature
RMCS .OHMM       1.28400                 :Resistivity of Mud Cake Sample
RMS  .OHMM       0.85600                 :Resistivity of Mud Sample
RW   .OHMM       1.00000                 :Resistivity of Connate Water
TDD  .F       8610.00000                 :Total Depth - Driller
TDL  .F       9116.00000                 :Total Depth - Logger
TLI  .F       8482.00000                 :Top Log Interval
HIDE .        Elemental Capture Spectroscopy :Header Identifier
MATR .        LIME                       :Rock Matrix for Neutron Porosity Corrections
FNUM .           1.00000                 :Form Factor Numerator
FEXP .           2.00000                 :Form Factor Exponent
DFT  .        KCl  Mud                   :Drilling Fluid Type
DFPH .           9.80000                 :Drilling Fluid PH
MCSS .        Calculated                 :Mud Cake Sample Source
MFSS .        Calculated                 :Mud Filtrate Sample Source
MSS  .        AIT bottom nose            :Mud Sample Source
OS1  .        None                       :Other Services Line 1
OS2  .                                   :Other Services Line 2
OS3  .                                   :Other Services Line 3
OS4  .                                   :Other Services Line 4
OS5  .                                   :Other Services Line 5
R1   .        Tool run as per tool sketch. :Remark Line 1
R2   .                                   :Remark Line 2
R3   .        This is the first log in hole. :Remark Line 3
R4   .                                   :Remark Line 4
R5   .        Data may be affected by hole rugosity. :Remark Line 5
R6   .                                   :Remark Line 6
R7   .                                   :Remark Line 7
R8   .                                   :Remark Line 8
TCS  .        11 00                      :Time Circulation Stopped
TLAB .                                   :Time Logger At Bottom
NMT  .        NOBARITE                   :HILT Nuclear Mud Type
EPD  .F         8534.000000              :Elevation of Permanent Datum above Mean Sea Level
APD  .F          15.000000               :Elevation of Depth Reference (LMF) above Permanent Datum
#-----------------------------------------------------------------------------
~CURVE INFORMATION
#MNEM.UNIT   API CODE                                  DESCRIPTION
#---- -----  --------                                  -----------------------
DEPT .F                                                :DEPTH (BOREHOLE) {F12.4}
CDF  .LBF                                              :Calibrated Downhole Force {F11.4}
CFTC .HZ                                               :Corrected Far Thermal Counting Rate {F11.4}
CNTC .HZ                                               :Corrected Near Thermal Counting Rate {F11.4}
CTEM .DEGF                                             :Cartridge Temperature {F11.4}
DNPH .CFCF                                             :Delta Thermal Neutron Porosity {F11.4}
DWAL_WALK2.                                            :Dry Weight Fraction Pseudo Aluminum (SpectroLith WALK2 Model) {F11.4}
DWCA_WALK2.                                            :Dry Weight Fraction Calcium (SpectroLith WALK2 Model) {F11.4}
DWFE_WALK2.                                            :Dry Weight Fraction Iron + 0.14 Aluminum (SpectroLith WALK2 Model) {F11.4}
DWGD_WALK2.PPM                                         :Dry Weight Fraction Gadolinium (SpectroLith WALK2 Model) {F11.4}
DWSI_WALK2.                                            :Dry Weight Fraction Silicon (SpectroLith WALK2 Model) {F11.4}
DWSU_WALK2.                                            :Dry Weight Fraction Sulfur (SpectroLith WALK2 Model) {F11.4}
DWTI_WALK2.                                            :Dry Weight Fraction Titanium (SpectroLith WALK2 Model) {F11.4}
ECGR .GAPI                                             :Environmentally Corrected Gamma-Ray {F11.4}
ECST .DEGF                                             :ECS Temperature {F11.4}
ESUF_WALK2.                                            :Elemental Statistical Uncertainty Factor (SpectroLith WALK2 Model) {F11.4}
GDEV .DEG                                              :HGNS Deviation {F11.4}
GR   .GAPI                                             :Gamma-Ray {F11.4}
GR_EDTC.GAPI                                           :EDTC Gamma Ray {F11.4}
GTEM .DEGF                                             :Generalized Borehole Temperature {F11.4}
HGR  .GAPI                                             :HiRes Gamma-Ray {F11.4}
HNPO .CFCF                                             :HiRes Enhanced Thermal Neutron Porosity {F11.4}
HTNP .CFCF                                             :HiRes Thermal Neutron Porosity {F11.4}
NPHI .CFCF                                             :Thermal Neutron Porosity (Ratio Method) {F11.4}
NPOR .CFCF                                             :Enhanced Thermal Neutron Porosity {F11.4}
QCPMT.                                                 :Photomultiplier Tube Quality Control {F11.4}
RHGE_WALK2.G/C3                                        :Matrix Density from Elemental Concentrations (SpectroLith WALK2 Model) {F11.4}
TENS .LBF                                              :Cable Tension {F11.4}
TNPH .CFCF                                             :Thermal Neutron Porosity {F11.4}
WANH_WALK2.                                            :Dry Weight Fraction Anhydrite/Gypsum (SpectroLith WALK2 Model) {F11.4}
WCAR_WALK2.                                            :Dry Weight Fraction Carbonate (SpectroLith WALK2 Model) {F11.4}
WCLA_WALK2.                                            :Dry Weight Fraction Clay (SpectroLith WALK2 Model) {F11.4}
WCOA_WALK2.                                            :Dry Weight Fraction Coal (SpectroLith WALK2 Model) {F11.4}
WEVA_WALK2.                                            :Dry Weight Fraction Salt (SpectroLith WALK2 Model) {F11.4}
WPYR_WALK2.                                            :Dry Weight Fraction Pyrite (SpectroLith WALK2 Model) {F11.4}
WQFM_WALK2.                                            :Dry Weight Fraction Quartz+Feldspar+Mica (QFM) (SpectroLith WALK2 Model) {F11.4}
WSID_WALK2.                                            :Dry Weight Fraction Siderite (SpectroLith WALK2 Model) {F11.4}
#-----------------------------------------------------------------------------
# 
#      DEPT        CDF        CFTC       CNTC       CTEM       DNPH    DWAL_WALK2 DWCA_WALK2 DWFE_WALK2 DWGD_WALK2 DWSI_WALK2 DWSU_WALK2 DWTI_WALK2    ECGR       ECST    ESUF_WALK2    GDEV        GR      GR_EDTC      GTEM       HGR        HNPO       HTNP       NPHI       NPOR      QCPMT    RHGE_WALK2    TENS       TNPH    WANH_WALK2 WCAR_WALK2 WCLA_WALK2 WCOA_WALK2 WEVA_WALK2 WPYR_WALK2 WQFM_WALK2 WSID_WALK2
#
~A  
# ...
   9094.0000  1759.0140    35.7562    30.0561   195.2002     0.0073     0.0601     0.0849     0.0354     1.8572     0.2615     0.0000     0.0033   152.2714    51.8441     0.5064     7.0255   171.1656   137.1503   210.4085   164.8816     0.0032     0.0301     0.0391     0.0210     0.3247     2.7227  3003.0000     0.0310     0.0000     0.1535     0.3429     0.0000     0.0000     0.0000     0.5036     0.0000
   9094.5000  1759.0140    36.1903    30.9679   195.2002     0.0074     0.0596     0.0863     0.0351     0.1055     0.2608     0.0000     0.0035   144.9202    51.8441     0.4628     6.9937   162.9023   134.2447   210.4085   158.0125     0.0097     0.0323     0.0390     0.0064     0.4852     2.7223  3001.0000     0.0331     0.0000     0.1572     0.3390     0.0000     0.0000     0.0000     0.5038     0.0000
   9095.0000  1759.0140    35.3539    32.3450   195.2002     0.0076     0.0598     0.0848     0.0351     0.0000     0.2623     0.0000     0.0038   147.8369    52.7220     0.4247     7.0764   166.1808   132.3558   210.1390   164.8147     0.0842     0.0415     0.0440     0.0703     0.7919     2.7220  3044.0000     0.0413     0.0000     0.1530     0.3410     0.0000     0.0000     0.0000     0.5060     0.0000
   9095.5000  1759.0140    33.3264    31.3540   195.2002     0.0077     0.0596     0.0810     0.0349     0.0000     0.2672     0.0000     0.0038   176.1599    52.0782     0.4176     6.9439   198.0182   133.6498   210.0492   170.6648     0.0031     0.0460     0.0238     0.0458     0.9296     2.7211  3060.0000     0.0452     0.0000     0.1428     0.3389     0.0000     0.0000     0.0000     0.5183     0.0000
   9096.0000  1759.0140    36.1882    29.8658   195.2002     0.0073     0.0615     0.0805     0.0359     0.0000     0.2645     0.0000     0.0041   293.6501    52.7806     0.4306     7.0476   330.0869   133.8769   210.0492   256.6765     0.0007     0.0296     0.0244     0.0069     0.7789     2.7229  3029.0000     0.0289     0.0000     0.1414     0.3552     0.0000     0.0000     0.0000     0.5034     0.0000
   9096.5000  1759.0140    37.1301    31.7119   195.2002     0.0074     0.0612     0.0859     0.0358     0.0000     0.2586     0.0000     0.0039   508.8418    52.4294     0.4309     7.0651   571.9800   131.5768   210.0492   542.0720     0.0198     0.0334     0.0498     0.0635     0.5980     2.7236  2982.0000     0.0327     0.0000     0.1561     0.3525     0.0000     0.0000     0.0000     0.4913     0.0000
   9097.0000  1759.0140    33.8724    31.6638   195.2002     0.0076     0.0614     0.0861     0.0360     1.2331     0.2580     0.0000     0.0039   695.1637    51.9904     0.4342     6.9997   781.4211   128.1029   210.0492   900.0041     0.0131     0.0449     0.0493     0.0612     0.8408     2.7239  3005.0000     0.0442     0.0000     0.1565     0.3546     0.0000     0.0000     0.0000     0.4889     0.0000
   9097.5000  1759.0140    35.9765    31.6089   195.2002     0.0074     0.0621     0.0792     0.0364     2.7914     0.2647     0.0000     0.0039   717.4717    51.8441     0.4858     7.0840   806.4971   129.2078   210.0492   881.8420     0.0014     0.0367     0.0412     0.0095     0.4764     2.7236  3012.0000     0.0362     0.0000     0.1381     0.3610     0.0000     0.0000     0.0000     0.5009     0.0000
   9098.0000  1759.0140    32.7344    31.0419   195.2002     0.0077     0.0635     0.0715     0.0374     2.9776     0.2712     0.0000     0.0035   580.4777    51.8441     0.4929     7.0961   652.5046   132.5688   209.9294   636.7371     0.0331     0.0429     0.0190     0.0465     0.2193     2.7241  2962.0000     0.0463     0.0000     0.1172     0.3729     0.0000     0.0000     0.0000     0.5099     0.0000
   9098.5000  1763.9911    37.1306    31.2559   195.2002     0.0073     0.0646     0.0694     0.0382     4.0397     0.2714     0.0000     0.0032   403.7777    51.8441     0.4918     7.0603   453.8793   135.3460   209.6899   438.4379    -0.0476     0.0265     0.0233     0.0172     0.1271     2.7252  3029.0000     0.0311     0.0000     0.1118     0.3830     0.0000     0.0000     0.0000     0.5053     0.0000
   9099.0000  1763.9911    33.4660    29.4443   195.0149     0.0075     0.0639     0.0769     0.0377     4.6165     0.2640     0.0015     0.0028   266.0782    52.0782     0.4650     7.0441   299.0938   134.2876   209.6899   285.9659     0.0458     0.0317     0.0131     0.0759     0.0830     2.7274  2960.0000     0.0367     0.0000     0.1320     0.3765     0.0000     0.0000     0.0028     0.4887     0.0000
   9099.5000  1763.9911    36.9719    27.1720   193.4090     0.0069     0.0606     0.0868     0.0360     6.4532     0.2582     0.0000     0.0026   179.5797    52.7220     0.4504     7.0987   201.8624   131.5342   209.6899   172.4065    -0.0213     0.0159     0.0119     0.0011     0.2545     2.7241  3003.0000     0.0168     0.0000     0.1584     0.3474     0.0000     0.0000     0.0000     0.4942     0.0000
   9100.0000  1773.5896    34.3154    24.8742   193.2237     0.0069     0.0576     0.0968     0.0342     8.4938     0.2520     0.0000     0.0026   133.3281    52.3123     0.4461     7.1097   149.8717   133.5754   209.6899   147.1171     0.0012     0.0152     0.0072    -0.0026     0.2733     2.7224  3188.0000     0.0157     0.0000     0.1853     0.3210     0.0000     0.0000     0.0000     0.4937     0.0000
   9100.5000  1773.5896    38.0542    26.2249   193.2237     0.0068     0.0563     0.1016     0.0334     9.6398     0.2486     0.0000     0.0026   122.3415    52.4294     0.4586     7.0668   137.5219   137.6047   209.6899   129.8058     0.1678     0.0093     0.0171     0.0619     0.6982     2.7218  3126.0000     0.0106     0.0000     0.1982     0.3102     0.0000     0.0000     0.0000     0.4916     0.0000
   9101.0000  1768.6125    36.8918    26.5456   193.2237     0.0069     0.0577     0.0997     0.0341     9.6035     0.2483     0.0001     0.0029   115.8919    52.4294     0.4706     7.0817   130.2720   136.8643   209.6899   135.2609     0.0936     0.0155     0.0261     0.0434     0.2673     2.7230  3091.0000     0.0147     0.0000     0.1933     0.3225     0.0000     0.0000     0.0003     0.4840     0.0000
   9101.5000  1768.6125    38.2405    27.5836   193.2237     0.0069     0.0570     0.1009     0.0338     8.3039     0.2482     0.0000     0.0027   113.0152    52.3123     0.4677     7.1225   127.0384   134.8317   209.3306   125.7920    -0.0092     0.0153     0.0319    -0.0022     0.0628     2.7224  2974.0000     0.0148     0.0000     0.1963     0.3161     0.0000     0.0000     0.0000     0.4876     0.0000
   9102.0000  1768.6125    35.3714    29.2528   193.2237     0.0073     0.0541     0.0973     0.0321     8.0494     0.2575     0.0000     0.0024   113.2841    51.8441     0.4997     7.0903   127.3407   135.5397   209.3306   119.9509     0.0243     0.0312     0.0375     0.0160     0.1298     2.7188  2974.0000     0.0292     0.0000     0.1867     0.2905     0.0000     0.0000     0.0000     0.5228     0.0000
   9102.5000  1768.6125    35.6848    32.0334   193.2237     0.0075     0.0513     0.0974     0.0304     7.4685     0.2625     0.0000     0.0023   117.3216    51.8441     0.5020     7.1365   131.8791   138.3031   209.3306   136.3686     0.0435     0.0420     0.0398     0.0322     0.0361     2.7156  3029.0000     0.0389     0.0000     0.1869     0.2656     0.0000     0.0000     0.0000     0.5475     0.0000
   9103.0000  1773.5896    35.6881    32.8474   193.2237     0.0076     0.0543     0.0873     0.0317     8.4417     0.2694     0.0015     0.0031   124.7533    51.8441     0.5046     7.1444   140.2329   140.7693   209.3306   137.9236     0.3954     0.0452     0.0337     0.0736     0.0000     2.7180  3083.0000     0.0420     0.0000     0.1597     0.2920     0.0000     0.0000     0.0027     0.5456     0.0000
   9103.5000  1773.5896    38.2051    32.6061   193.2237     0.0073     0.0574     0.0917     0.0335     9.4675     0.2588     0.0013     0.0035   125.4432    51.8441     0.4807     7.0123   141.0084   139.1030   209.3306   144.9899    -0.0183     0.0339     0.0275     0.0144     0.3013     2.7219  3072.0000     0.0325     0.0000     0.1716     0.3194     0.0000     0.0000     0.0025     0.5065     0.0000
