~VERSION INFORMATION
VERS.           1.2   :CWLS Log ASCII Standard - VERSION 1.2
WRAP.           NO    :One Line per depth step
PROD.  Schlumberger   :LAS Producer
PROG.  DLIS to ASCII 17C0-152                          :LAS Program name and version
CREA.        2010/11/19 02:18                          :LAS Creation date {YYYY/MM/DD hh:mm}
DLIS_CREA.  2010-Nov-18 21:51                          :DLIS Creation date and time {YYYY-MMM-DD hh:mm}
SOURCE.     c799ad9c-fb3a-46c4-856c-9f94c6b0213d       :DLIS File Name
#--------------------------------------------------
~WELL INFORMATION
#MNEM.UNIT      DATA             DESCRIPTION
#---- ------ --------------   -----------------------------
STRT .F      8904.0000       :START DEPTH     
STOP .F      9132.5000       :STOP DEPTH     
STEP .F       0.5000         :STEP       
NULL .          -999.25      :NULL VALUE
COMP .                 COMPANY:  Wellstar Corporation               
WELL .                    WELL:  Silver Spur Minerals 35-2          
FLD  .                   FIELD:  Wildcat                            
LOC  .                LOCATION:  Sec.35, T8N, R78W                  
CNTY .                  COUNTY:  Jackson                            
STAT .                   STATE:  Colorado                           
CTRY .                 COUNTRY:                                     
SRVC .         SERVICE COMPANY:  Schlumberger                       
API  .              API NUMBER:  05-057-06490-0100                  
DATE .                LOG DATE:  18-Nov-2010
UWI  .          UNIQUE WELL ID:                                     
#-----------------------------------------------------------------------------
~PARAMETER INFORMATION
#MNEM.UNIT    VALUE                      DESCRIPTION
#---- -----   --------------------       ------------------------
CN   .        Wellstar Corporation       :Company Name
WN   .        Silver Spur Minerals 35-2  :Well Name
FN   .        Wildcat                    :Field Name
FL   .        Sec.35  T8N  R78W          :Field Location
FL1  .        SHL  1996' FSL X 655' FEL NESE :Field Location Line 1
COUN .        Jackson                    :County or Rig Name
STAT .        Colorado                   :State or Province
NATI .                                   :Nation
DATE .        18-Nov-2010                :Date as Month-Day-Year
APIN .        05-057-06490-0100          :API Serial Number
SECT .        35                         :Section
TOWN .        8N                         :Township
RANG .        78W                        :Range
DMF  .        Kelly Bushing              :Drilling Measured From
LMF  .        Kelly Bushing              :Log Measured From
PDAT .        Ground Level               :Permanent Datum
ENGI .        Philip Grant               :Engineer's Name
WITN .        Jacky Burch                :Witness's Name
LATI .                                   :Latitude
LONG .                                   :Longitude
LUL  .        Fort Morgan  CO            :Logging Unit Location
LUN  .              3021                 :Logging Unit Number
RUN  .        1                          :Run Number
SON  .        BE0K-00102                 :Service Order Number
BHT  .DEGF     211.99986                 :Bottom Hole Temperature (used in calculations)
BS   .IN         6.12500                 :Bit Size
DFD  .LB/G       8.80000                 :Drilling Fluid Density
DFV  .S         28.00000                 :Drilling Fluid Viscosity
DFL  .                                   :Drilling Fluid Loss
RMFS .OHMM       0.64200                 :Resistivity of Mud Filtrate Sample
EKB  .F       8549.00000                 :Elevation of Kelly Bushing
EGL  .F       8534.00000                 :Elevation of Ground Level
BLI  .F       9108.00000                 :Bottom Log Interval
BSAL .PPM     38000.00000                :Borehole Salinity
FLEV .                                   :Fluid Level
MCST .DEGF      83.57200                 :Mud Cake Sample Temperature
MFST .DEGF      83.57200                 :Mud Filtrate Sample Temperature
MRT  .DEGF     217.00000                 :Maximum Recorded Temperature
MST  .DEGF      83.57200                 :Mud Sample Temperature
RMCS .OHMM       1.28400                 :Resistivity of Mud Cake Sample
RMS  .OHMM       0.85600                 :Resistivity of Mud Sample
RW   .OHMM       1.00000                 :Resistivity of Connate Water
TDD  .F       8610.00000                 :Total Depth - Driller
TDL  .F       9116.00000                 :Total Depth - Logger
TLI  .F       8482.00000                 :Top Log Interval
HIDE .        Elemental Capture Spectroscopy :Header Identifier
MATR .        LIME                       :Rock Matrix for Neutron Porosity Corrections
FNUM .           1.00000                 :Form Factor Numerator
FEXP .           2.00000                 :Form Factor Exponent
DFT  .        KCl  Mud                   :Drilling Fluid Type
DFPH .           9.80000                 :Drilling Fluid PH
MCSS .        Calculated                 :Mud Cake Sample Source
MFSS .        Calculated                 :Mud Filtrate Sample Source
MSS  .        AIT bottom nose            :Mud Sample Source
OS1  .        None                       :Other Services Line 1
OS2  .                                   :Other Services Line 2
OS3  .                                   :Other Services Line 3
OS4  .                                   :Other Services Line 4
OS5  .                                   :Other Services Line 5
R1   .        Tool run as per tool sketch. :Remark Line 1
R2   .                                   :Remark Line 2
R3   .        This is the first log in hole. :Remark Line 3
R4   .                                   :Remark Line 4
R5   .        Data may be affected by hole rugosity. :Remark Line 5
R6   .                                   :Remark Line 6
R7   .                                   :Remark Line 7
R8   .                                   :Remark Line 8
TCS  .        11 00                      :Time Circulation Stopped
TLAB .                                   :Time Logger At Bottom
NMT  .        NOBARITE                   :HILT Nuclear Mud Type
EPD  .F         8534.000000              :Elevation of Permanent Datum above Mean Sea Level
APD  .F          15.000000               :Elevation of Depth Reference (LMF) above Permanent Datum
#-----------------------------------------------------------------------------
~CURVE INFORMATION
#MNEM.UNIT   API CODE                                  DESCRIPTION
#---- -----  --------                                  -----------------------
DEPT .F                                                :DEPTH (BOREHOLE) {F12.4}
CDF  .LBF                                              :Calibrated Downhole Force {F11.4}
CFTC .HZ                                               :Corrected Far Thermal Counting Rate {F11.4}
CNTC .HZ                                               :Corrected Near Thermal Counting Rate {F11.4}
CTEM .DEGF                                             :Cartridge Temperature {F11.4}
DNPH .CFCF                                             :Delta Thermal Neutron Porosity {F11.4}
DWAL_WALK2.                                            :Dry Weight Fraction Pseudo Aluminum (SpectroLith WALK2 Model) {F11.4}
DWCA_WALK2.                                            :Dry Weight Fraction Calcium (SpectroLith WALK2 Model) {F11.4}
DWFE_WALK2.                                            :Dry Weight Fraction Iron + 0.14 Aluminum (SpectroLith WALK2 Model) {F11.4}
DWGD_WALK2.PPM                                         :Dry Weight Fraction Gadolinium (SpectroLith WALK2 Model) {F11.4}
DWSI_WALK2.                                            :Dry Weight Fraction Silicon (SpectroLith WALK2 Model) {F11.4}
DWSU_WALK2.                                            :Dry Weight Fraction Sulfur (SpectroLith WALK2 Model) {F11.4}
DWTI_WALK2.                                            :Dry Weight Fraction Titanium (SpectroLith WALK2 Model) {F11.4}
ECGR .GAPI                                             :Environmentally Corrected Gamma-Ray {F11.4}
ECST .DEGF                                             :ECS Temperature {F11.4}
ESUF_WALK2.                                            :Elemental Statistical Uncertainty Factor (SpectroLith WALK2 Model) {F11.4}
GDEV .DEG                                              :HGNS Deviation {F11.4}
GR   .GAPI                                             :Gamma-Ray {F11.4}
GR_EDTC.GAPI                                           :EDTC Gamma Ray {F11.4}
GTEM .DEGF                                             :Generalized Borehole Temperature {F11.4}
HGR  .GAPI                                             :HiRes Gamma-Ray {F11.4}
HNPO .CFCF                                             :HiRes Enhanced Thermal Neutron Porosity {F11.4}
HTNP .CFCF                                             :HiRes Thermal Neutron Porosity {F11.4}
NPHI .CFCF                                             :Thermal Neutron Porosity (Ratio Method) {F11.4}
NPOR .CFCF                                             :Enhanced Thermal Neutron Porosity {F11.4}
QCPMT.                                                 :Photomultiplier Tube Quality Control {F11.4}
RHGE_WALK2.G/C3                                        :Matrix Density from Elemental Concentrations (SpectroLith WALK2 Model) {F11.4}
TENS .LBF                                              :Cable Tension {F11.4}
TNPH .CFCF                                             :Thermal Neutron Porosity {F11.4}
WANH_WALK2.                                            :Dry Weight Fraction Anhydrite/Gypsum (SpectroLith WALK2 Model) {F11.4}
WCAR_WALK2.                                            :Dry Weight Fraction Carbonate (SpectroLith WALK2 Model) {F11.4}
WCLA_WALK2.                                            :Dry Weight Fraction Clay (SpectroLith WALK2 Model) {F11.4}
WCOA_WALK2.                                            :Dry Weight Fraction Coal (SpectroLith WALK2 Model) {F11.4}
WEVA_WALK2.                                            :Dry Weight Fraction Salt (SpectroLith WALK2 Model) {F11.4}
WPYR_WALK2.                                            :Dry Weight Fraction Pyrite (SpectroLith WALK2 Model) {F11.4}
WQFM_WALK2.                                            :Dry Weight Fraction Quartz+Feldspar+Mica (QFM) (SpectroLith WALK2 Model) {F11.4}
WSID_WALK2.                                            :Dry Weight Fraction Siderite (SpectroLith WALK2 Model) {F11.4}
#-----------------------------------------------------------------------------
# 
#      DEPT        CDF        CFTC       CNTC       CTEM       DNPH    DWAL_WALK2 DWCA_WALK2 DWFE_WALK2 DWGD_WALK2 DWSI_WALK2 DWSU_WALK2 DWTI_WALK2    ECGR       ECST    ESUF_WALK2    GDEV        GR      GR_EDTC      GTEM       HGR        HNPO       HTNP       NPHI       NPOR      QCPMT    RHGE_WALK2    TENS       TNPH    WANH_WALK2 WCAR_WALK2 WCLA_WALK2 WCOA_WALK2 WEVA_WALK2 WPYR_WALK2 WQFM_WALK2 WSID_WALK2
#
~A  
# ...
   9114.0000  1793.1421    34.0007    29.7729   191.2472     0.0074     0.0556     0.0834     0.0329     5.7212     0.2712     0.0000     0.0026   118.6516    53.0147     0.4981     7.3473   133.3742   136.1933   207.5340   132.5760     0.0520     0.0354     0.0536     0.0602     0.1624     2.7178  2951.0000     0.0360     0.0000     0.1492     0.3033     0.0000     0.0000     0.0000     0.5475     0.0000
   9114.5000  1788.1650    31.3478    29.4921   191.2472     0.0077     0.0581     0.0766     0.0343     5.0155     0.2748     0.0005     0.0029   120.8581    52.1368     0.5007     7.3849   135.8544   133.5810   207.5340   134.8002    -0.0162     0.0445     0.0376     0.0113     0.0723     2.7198  2913.0000     0.0454     0.0000     0.1311     0.3254     0.0000     0.0000     0.0009     0.5426     0.0000
   9115.0000  1788.1650    34.0031    30.9733   191.2472     0.0076     0.0615     0.0705     0.0362     5.2466     0.2759     0.0000     0.0035   122.9195    51.8441     0.4960     7.4279   138.1716   134.2795   207.5340   140.0915     0.0115     0.0405     0.0240     0.0472     0.2923     2.7217  2861.0000     0.0409     0.0000     0.1147     0.3553     0.0000     0.0000     0.0000     0.5301     0.0000
   9115.5000  1783.1881    34.3337    30.3687   191.2472     0.0075     0.0640     0.0713     0.0376     5.3078     0.2706     0.0003     0.0038   122.0613    51.8441     0.4899     7.4306   137.2069   134.2795   207.1747   139.6138     0.0175     0.0371     0.0214     0.0518     0.2854     2.7246  2774.0000     0.0372     0.0000     0.1168     0.3773     0.0000     0.0000     0.0005     0.5054     0.0000
   9116.0000  1778.5665    36.6745    29.5279   191.2472     0.0072     0.0666     0.0757     0.0392     5.7188     0.2607     0.0000     0.0039   122.1658    51.8441     0.4881     7.4386   137.3244   134.2795   207.1747   131.8232     0.0399     0.0262     0.0209     0.0010     0.3987     2.7281  2739.0000     0.0261     0.0000     0.1286     0.4008     0.0000     0.0000     0.0000     0.4706     0.0000
   9116.5000  1778.5665    35.1139    29.5279   191.2472     0.0073     0.0654     0.0861     0.0387     5.7460     0.2506     0.0000     0.0032   120.6809    51.8441     0.4743     7.4187   135.6553   134.2795   207.1747   140.5677     0.0662     0.0310     0.0328     0.0783     0.2361     2.7289  2652.0000     0.0312     0.0000     0.1565     0.3896     0.0000     0.0000     0.0000     0.4538     0.0000
   9117.0000  1773.5896    35.1139    30.0946   191.2472     0.0074     0.0625     0.0890     0.0372     5.2562     0.2522     0.0000     0.0026   122.7580    51.8441     0.4840     7.4152   137.9900   134.2795   206.9053   134.4059     0.0010     0.0332     0.0274     0.0238     0.1238     2.7266  2645.0000     0.0334     0.0000     0.1643     0.3645     0.0000     0.0000     0.0000     0.4712     0.0000
   9117.5000  1768.6125    34.0215    28.3160   191.2472     0.0073     0.0581     0.0900     0.0346     4.8611     0.2588     0.0000     0.0022   119.4068    53.0147     0.5007     7.4477   134.2230   134.2795   206.8154   138.8228    -0.0014     0.0295     0.0199     0.0207     0.1725     2.7221  2579.0000     0.0301     0.0000     0.1670     0.3259     0.0000     0.0000     0.0000     0.5071     0.0000
   9118.0000  1768.6125    34.3922    28.6058   191.2472     0.0073     0.0563     0.0798     0.0333     3.3120     0.2740     0.0012     0.0025   119.0364    51.8441     0.5668     7.4492   133.8067   134.2795   206.8154   129.1001     0.0144     0.0294     0.0172     0.0171     0.1249     2.7193  2514.0000     0.0300     0.0000     0.1398     0.3103     0.0000     0.0000     0.0022     0.5477     0.0000
   9118.5000  1768.6125    34.5533    28.0372   191.2472     0.0072     0.0567     0.0667     0.0327     3.2356     0.2895     0.0060     0.0030   115.9103    51.8441     0.6217     7.4534   130.2927   134.2795   206.8154   132.9402     0.0559     0.0269     0.0199     0.0424     0.0000     2.7215  2455.0000     0.0272     0.0000     0.1043     0.3135     0.0000     0.0000     0.0112     0.5710     0.0000
   9119.0000  1763.9911    33.3459    27.1383   191.2472     0.0072     0.0585     0.0171     0.0322     3.8778     0.3456     0.0150     0.0039   116.7126    51.8441     0.7624     7.4552   131.1945   134.2795   206.5759   128.1698     0.0360     0.0276     0.0203     0.0450     0.0373     2.7229  2406.0000     0.0277     0.0000     0.0000     0.3289     0.0000     0.0000     0.0280     0.6431     0.0000
   9119.5000  1759.0140    35.7655    26.9465   191.2472     0.0070     0.0520     0.0000     0.0297     5.3860     0.3759     0.0223     0.0043   116.9703    51.8441     0.8985     7.4543   131.4842   134.2795   206.4561   132.0030     0.0032     0.0196     0.0166     0.0079     0.9833     2.7243  2358.0000     0.0193     0.0000     0.0000     0.2718     0.0000     0.0000     0.0418     0.6864     0.0000
   9120.0000  1759.0140    35.7655    26.9185   191.2472     0.0070     0.0468     0.0000     0.0265     5.7456     0.3853     0.0283     0.0044   119.6507    51.8441     1.1148     7.4545   134.4972   134.2795   206.4561   133.9667     0.0033     0.0199     0.0195     0.0286     0.7774     2.7254  2309.0000     0.0192     0.0000     0.0000     0.2267     0.0000     0.0000     0.0529     0.7204     0.0000
   9120.5000  1754.0371    35.9067    27.6928   191.2472     0.0071     0.0477     0.0000     0.0270     5.7219     0.3837     0.0281     0.0044   121.3736    51.8441     1.1102     7.4549   136.4340   134.2795   206.0968   137.1018    -0.0099     0.0226     0.0231     0.0092     0.7774     2.7262  2252.0000     0.0217     0.0000     0.0000     0.2344     0.0000     0.0000     0.0526     0.7129     0.0000
   9121.0000  1754.0371    34.6146    28.0792   191.2472     0.0072     0.0485     0.0000     0.0275     5.7009     0.3823     0.0280     0.0044   121.7859    51.8441     1.1062     7.4539   136.8974   134.2795   206.0968   137.2834     0.0262     0.0283     0.0306     0.0437     0.7774     2.7270  2170.0000     0.0272     0.0000     0.0000     0.2413     0.0000     0.0000     0.0525     0.7063     0.0000
   9121.5000  1754.0371    34.7756    29.1705   191.2472     0.0073     0.0490     0.0000     0.0278     5.6871     0.3813     0.0280     0.0044   121.7859    51.8441     1.1035     7.4541   136.8974   134.2795   206.0968   135.5506     0.0642     0.0315     0.0356     0.0350     0.7774     2.7275  2194.0000     0.0309     0.0000     0.0000     0.2458     0.0000     0.0000     0.0523     0.7019     0.0000
   9122.0000  1754.0371    34.2924    29.1705   191.2472     0.0073     0.0492     0.0000     0.0279     5.6828     0.3810     0.0279     0.0043   121.1814    51.8441     1.1026     7.4555   136.2178   134.2795   205.9770   137.0854     0.0280     0.0329     0.0343     0.0227     0.7774     2.7277  2166.0000     0.0326     0.0000     0.0000     0.2472     0.0000     0.0000     0.0523     0.7005     0.0000
   9122.5000  1754.0371    32.3596    29.1705   191.2472     0.0075     0.0492     0.0000     0.0279     5.6828     0.3810     0.0279     0.0043   120.4083    51.8441     1.1026     7.4601   135.3489   134.2795   205.7375   135.7731     0.0538     0.0394     0.0206     0.0296     0.7774     2.7277  2160.0000     0.0398     0.0000     0.0000     0.2472     0.0000     0.0000     0.0523     0.7005     0.0000
   9123.0000  1759.0140    34.3901    28.6608   191.2472     0.0073     0.0492     0.0000     0.0279     5.6828     0.3810     0.0279     0.0043   119.5224    51.8441     1.1026     7.4587   134.3530   134.2795   205.7375   132.3837    -0.0092     0.0297     0.0214     0.0228     0.7774     2.7277  2152.0000     0.0302     0.0000     0.0000     0.2472     0.0000     0.0000     0.0523     0.7005     0.0000
   9123.5000  1759.0140    36.1621    29.6288   191.2472     0.0072     0.0492     0.0000     0.0279     5.6828     0.3810     0.0279     0.0043   119.6822    51.8441     1.1026     7.4617   134.5326   134.2795   205.4980   134.2094     0.0417     0.0276     0.0210     0.0549     0.7774     2.7277  2151.0000     0.0281     0.0000     0.0000     0.2472     0.0000     0.0000     0.0523     0.7005     0.0000
