~Version Information                         
VERS  .          2.0                                 :CWLS Log Ascii Standard - Version 2 
WRAP  .          NO                                  :One line per depth step             
~Well Information Block                      
#MNEM.UNIT  Data Type                                Information                                  
#---------  ---------                                ----------------------------------------     
STRT  .F     3750.0000                               :Start Depth                                 
STOP  .F     4270.0000                               :Stop Depth                                  
STEP  .F    0.50000                                  :Increment                                   
NULL  .    -999.25                                   :Null Data Value                             
COMP  .     Enerplus                                 :Company                                     
WELL  .     State 7-51-33-12                         :Well                                        
FLD   .     Wildcat                                  :Field                                       
LOC   .     NWNE Sec. 33, T 7N , R 51                :Location                                    
LOC1  .     SHL: 671 FNL / 1888 FEL                  :Location1                                   
STAT  .     Colorado                                 :State                                       
CNTY  .     Logan                                    :County                                      
CTRY  .     USA                                      :Country                                     
DATE  .     16-Dec-2009                              :Logging Date                                
UWI   .     05-075-09383-0000                        :Unique Well ID                              
API   .     05-075-09383-0000                        :API Number                                  
SRVC  .     SLB                                      :Service Company                             
~Curve Information Block                     
#MNEN.UNIT                         Curve      Description                       
#---------                         -----      -----------                       
DEPT          .F                   :  0       Index                             
RSOZ          .IN                  :  1       MCFL Standoff                                          
DSOZ          .IN                  :  2       Density Standoff                                       
HRUG          .1/FT                :  3       Hole Rugosity                                          
TEMP          .DEGF                :  4       Temperature                                            
HCAL          .IN                  :  5       Caliper                                                
BS            .IN                  :  6       Bit Size                                               
CS            .FT/HR               :  7       Cable Speed                                            
TENS          .LB                  :  8       Cable Tension                                          
GR_EC         .GAPI                :  9       Environmentally Corrected Gamma Ray                    
GR            .GAPI                : 10       Gamma Ray                                              
SGR           .GAPI                : 11       Standard Gamma Ray                                     
CGR           .GAPI                : 12       Computed Gamma Ray                                     
URAN          .PPM                 : 13       Uranium Concentration                                  
THOR          .PPM                 : 14       Thorium Concentration                                  
POTA          .PERCENT             : 15       Potassium Concentration                                
RXOZ          .OHMM                : 16       MCFL Resistivity                                       
AT10          .OHMM                : 17       10in Array Induction                                   
AT20          .OHMM                : 18       20in Array Induction                                   
AT30          .OHMM                : 19       20in Array Induction                                   
AT60          .OHMM                : 20       60in Array Induction                                   
AT90          .OHMM                : 21       90in Array Induction                                   
SP            .MV                  : 22       Spontaneous Potential                                  
NPHI          .FT3/FT3             : 23       Neutron NPHI Porosity                                  
TNPH          .FT3/FT3             : 24       Neutron TNPH Porosity                                  
PEFZ          .                    : 25       Photoelectic Factor                                    
HDRA          .G/CC                : 26       Density Correction                                     
DPHZ          .FT3/FT3             : 27       Density Porosity                                       
NPHU          .FT3/FT3             : 28       Environmentally Corrected Neutron Porosity             
RHOZ          .G/CC                : 29       Bulk Density                                           
UZ            .                    : 30       Volumetric Photoelectic Factor                         
WCLA_WALK2    .LB/LB               : 31       SpectroLith Weight Clay                                
WQFM_WALK2    .LB/LB               : 32       SpectroLith Weight QFM                                 
WCAR_WALK2    .LB/LB               : 33       SpectroLith Weight Carbonate                           
WPYR_WALK2    .LB/LB               : 34       SpectroLith Weight Pyrite                              
WSID_WALK2    .LB/LB               : 35       SpectroLith Weight Siderite                            
RHGE_WALK2    .G/CC                : 36       SpectroLith Matrix Bulk Density                        
DWAL_WALK2    .LB/LB               : 37       SpectroLith Dry Weight Aluminum(WALK2)                 
DWCA_WALK2    .LB/LB               : 38       SpectroLith Dry Weight Calcium                         
DWSI_WALK2    .LB/LB               : 39       SpectroLith Dry Weight Silicon                         
DWSU_WALK2    .LB/LB               : 40       SpectroLith Dry Weight Sulfur                          
DWTI_WALK2    .LB/LB               : 41       SpectroLith Dry Weight Titanium                        
DWGD_WALK2    .LB/LB               : 42       SpectroLith Dry Weight Gadolinium                      
DWFE_WALK2    .LB/LB               : 43       SpectroLith Dry Weight Iron(WALK2)                     
VCHL          .FT3/FT3             : 44       Elan Volume Chlorite                                   
VILL          .FT3/FT3             : 45       Elan Volume Illite                                     
VQUA          .FT3/FT3             : 46       Elan Volume Quartz                                     
VPYR          .FT3/FT3             : 47       Elan Volume Pyrite                                     
VSM1          .FT3/FT3             : 48       Elan Volume Special Mineral 1 Kerogen                  
VCLC          .FT3/FT3             : 49       Elan Volume Calcite                                    
VDOL          .FT3/FT3             : 50       Elan Volume Dolomite                                   
VSID          .FT3/FT3             : 51       Elan Volume Siderite                                   
VXBW          .FT3/FT3             : 52       Elan Clay Bound Water Volume                           
VXWA          .FT3/FT3             : 53       Elan Flushed Water Volume                              
VUWA          .FT3/FT3             : 54       Elan Water Volume                                      
VXGA          .FT3/FT3             : 55       Elan Flushed Gas Volume                                
VUGA          .FT3/FT3             : 56       Elan Gas Volume                                        
VMHY          .FT3/FT3             : 57       Elan Moved Hydrocarbon Volume                          
PIGN          .FT3/FT3             : 58       Elan Effective Porosity                                
PIGT          .FT3/FT3             : 59       Elan Total Porosity                                    
VCL           .FT3/FT3             : 60       Elan Total Clay Volume                                 
RHGA          .G/CC                : 61       Elan Apparent Grain Density                            
SXBW          .FT3/FT3             : 62       Elan Flushed Bound Water Saturation                    
SUWI          .FT3/FT3             : 63       Elan Water Saturation                                  
SXWI          .FT3/FT3             : 64       Elan Flushed Water Saturation                          
WCHL          .LB/LB               : 65       Elan Weight Percent Chlorite                           
WILL          .LB/LB               : 66       Elan Weight Percent Illite                             
WQUA          .LB/LB               : 67       Elan Weight Percent Quartz                             
WPYR          .LB/LB               : 68       Elan Weight Percent Pyrite                             
WSM1          .LB/LB               : 69       Elan Weight Percent Special Mineral 1 Kerogen          
WCLC          .LB/LB               : 70       Elan Weight Percent Calcite                            
WDOL          .LB/LB               : 71       Elan Weight Percent Dolomite                           
WSID          .LB/LB               : 72       Elan Weight Percent Siderite                           
DWIC_SCHMOKER .LB/LB               : 73       Schmoker TOC                                           
DWIC_TERRATEK .LB/LB               : 74       Terratek TOC                                           
KINT          .MD                  : 75       Intrinsic Permeability                                 
KWTR          .MD                  : 76       Permeability to Water                                  
KGAS          .MD                  : 77       Permeability to Gas                                    
TGAS_ADSORBED .SCF/TON             : 78       Adsorbed Gas                                           
TGAS_FREE     .SCF/TON             : 79       Free Gas                                               
TGAS_TOTAL    .SCF/TON             : 80       Total Gas                                              
CGAS_ADSORBED .BCF/SECTION         : 81       Cumulative Adsorbed Gas                                
CGAS_FREE     .BCF/SECTION         : 82       Cumulative Free Gas                                    
CGAS_TOTAL    .BCF/SECTION         : 83       Cumulative Total Gas                                   
RES_FLAG      .                    : 84       Shale Gas Reservoir Flag                               
PAY_FLAG      .                    : 85       Shale Gas Pay Flag                                     
~Ascii Data Section                          
# ...
   3991.500000      0.000000      0.005848      0.029176    132.194092      6.072979      6.250000   1796.000000   2345.000000    148.965118    165.001694    128.244324     21.513405     13.518638      2.848372      0.689964      3.882137      2.792142      2.787328      2.721971      2.801232      2.838554     -8.437500      0.324397      0.321356      3.982385     -0.000549      0.260670      0.336367      2.264255      9.124644      0.188633      0.160308      0.637548      0.013511      0.000000      2.736178      0.037529      0.264888      0.092130      0.007221      0.001128      0.000003      0.021482      0.037656      0.095473      0.092523      0.005509      0.059818      0.378706      0.092022      0.000052      0.050094      0.188147      0.127448      0.000000      0.060699      0.060699      0.188147      0.238241      0.183223      2.652450      0.210266      0.677385      1.000000      0.056513      0.132352      0.121348      0.013604      0.038487      0.507933      0.129662      0.000100      0.110470      0.078872      0.000730      0.000010      0.000223     29.898436     80.121254    110.019691     12.388150     37.916435     50.304585      1.000000      0.000000
   3992.000000      0.000000      0.005848      0.025934    132.203125      6.080759      6.250000   1785.000000   2420.000000    155.248489    171.898331    134.111816     23.729385     13.992138      3.532434      0.694305      4.110249      2.962039      2.922119      2.902194      2.909665      2.941264     -8.375000      0.312025      0.319847      3.986981     -0.001142      0.259738      0.334867      2.265848      9.141108      0.166705      0.183362      0.632838      0.017095      0.000000      2.732713      0.033166      0.263137      0.102272      0.009137      0.001146      0.000002      0.018547      0.033375      0.084620      0.104843      0.006993      0.070681      0.372529      0.095377      0.000076      0.044399      0.187106      0.126957      0.000000      0.060149      0.060149      0.187106      0.231506      0.162394      2.634019      0.191785      0.678531      1.000000      0.049997      0.117092      0.137255      0.017239      0.045393      0.498735      0.134144      0.000146      0.109983      0.078648      0.000849      0.000010      0.000257     35.262852     79.347977    114.610825     12.358710     37.837536     50.196247      1.000000      0.000000
   3992.500000      0.000000      0.000000      0.016858    132.212173      6.057418      6.250000   1788.000000   2351.000000    164.093643    181.892532    144.400024     24.461145     15.210762      3.730242      0.700532      4.484345      3.090891      3.087315      3.076936      2.987513      3.007235     -8.250000      0.314026      0.308030      3.982582     -0.000713      0.255398      0.323048      2.273269      9.158632      0.155343      0.195431      0.630619      0.018607      0.000000      2.730804      0.030906      0.262312      0.107386      0.009945      0.001099      0.000001      0.017073      0.031439      0.079712      0.111042      0.007679      0.080409      0.380320      0.091327      0.000061      0.041824      0.176186      0.125279      0.000000      0.050906      0.050906      0.176186      0.218010      0.152975      2.617214      0.191845      0.711064      1.000000      0.046582      0.109093      0.143778      0.018723      0.051075      0.503591      0.127042      0.000116      0.107722      0.077606      0.000689      0.000010      0.000185     39.676601     66.943909    106.620514     12.323963     37.759346     50.083309      1.000000      0.000000
   3993.000000      0.000000      0.000000      0.016209    132.221222      6.096320      6.250000   1787.000000   2361.000000    180.452652    199.658920    147.148590     24.061975     15.775887      4.197177      0.598949      4.461171      3.178453      3.187499      3.163679      2.900884      3.019374     -8.437500      0.313820      0.307188      3.961276     -0.001004      0.252392      0.322211      2.278410      9.128660      0.152110      0.203120      0.618723      0.026048      0.000000      2.733340      0.030263      0.257889      0.114054      0.013923      0.000649      0.000001      0.016306      0.030983      0.078556      0.111142      0.010800      0.094529      0.345603      0.118756      0.000055      0.041217      0.168359      0.124423      0.000000      0.043936      0.043936      0.168359      0.209577      0.150756      2.606436      0.196670      0.739032      1.000000      0.045604      0.106803      0.142961      0.026160      0.059649      0.454611      0.164110      0.000103      0.106164      0.076883      0.000634      0.000010      0.000152     46.336468     57.654175    103.990646     12.284739     37.693161     49.977898      1.000000      0.000000
   3993.500000      0.000000      0.013634      0.023989    132.230255      6.115770      6.250000   1781.000000   2420.000000    186.633347    206.308212    150.184708     26.352499     15.895734      4.028318      0.753050      4.358045      3.267279      3.247159      3.291730      3.063012      3.196426     -8.375000      0.328738      0.308944      3.949642     -0.002866      0.258485      0.323967      2.267990      9.063402      0.156416      0.177657      0.632259      0.033668      0.000000      2.739020      0.031119      0.262922      0.107118      0.017995      0.000527      0.000001      0.016315      0.031754      0.080510      0.089167      0.013882      0.099339      0.318665      0.153541      0.000003      0.042243      0.169693      0.120694      0.001201      0.050200      0.048999      0.170894      0.213137      0.154508      2.614474      0.198197      0.706249      0.992972      0.046806      0.109618      0.114860      0.033671      0.062774      0.419779      0.212486      0.000005      0.109329      0.078347      0.000646      0.000010      0.000178     48.763840     66.184196    114.948036     12.238827     37.636032     49.874859      1.000000      0.000000
   3994.000000      0.000000      0.013634      0.044737    132.239304      6.127441      6.250000   1794.000000   2380.000000    190.435379    210.395370    143.657654     26.650068     14.807599      3.743728      0.817936      4.320910      3.015752      3.041104      3.008248      2.961822      2.994987     -8.062500      0.327441      0.322777      3.921633     -0.002909      0.266245      0.337786      2.254722      8.950518      0.141710      0.164287      0.667549      0.026454      0.000000      2.734488      0.028194      0.276041      0.096521      0.014139      0.000392      0.000001      0.015112      0.028468      0.072180      0.072926      0.010813      0.107484      0.325217      0.167007      0.000047      0.037872      0.177985      0.126937      0.000000      0.051048      0.051048      0.177985      0.215857      0.138521      2.591920      0.175451      0.713189      1.000000      0.042475      0.099475      0.095085      0.026549      0.068749      0.433636      0.233941      0.000090      0.113401      0.080212      0.000837      0.000010      0.000220     53.404922     67.705246    121.110168     12.190731     37.570751     49.761482      1.000000      0.000000
   3994.500000      0.000000      0.013634      0.037605    132.248352      6.080759      6.250000   1793.000000   2337.000000    170.810883    189.129745    129.548248     24.634823     13.285917      3.074689      0.822011      3.869600      2.790783      2.804423      2.779769      2.765086      2.773177     -8.250000      0.329296      0.319702      3.949469     -0.003041      0.277017      0.334719      2.236301      8.946083      0.130538      0.129840      0.721524      0.018098      0.000000      2.730822      0.025971      0.296105      0.076734      0.009673      0.000981      0.000000      0.014143      0.025886      0.065633      0.051628      0.007296      0.095043      0.382442      0.144903      0.000018      0.034437      0.192713      0.134396      0.000000      0.058317      0.058317      0.192713      0.227150      0.125956      2.598359      0.151604      0.697388      1.000000      0.039089      0.091546      0.068130      0.018131      0.061528      0.516108      0.205433      0.000035      0.119135      0.082800      0.000999      0.000010      0.000273     47.794601     77.992851    125.787453     12.138366     37.504360     49.642727      1.000000      0.000000
