~Version Information                         
VERS  .          2.0                                 :CWLS Log Ascii Standard - Version 2 
WRAP  .          NO                                  :One line per depth step             
~Well Information Block                      
#MNEM.UNIT  Data Type                                Information                                  
#---------  ---------                                ----------------------------------------     
STRT  .F     3750.0000                               :Start Depth                                 
STOP  .F     4270.0000                               :Stop Depth                                  
STEP  .F    0.50000                                  :Increment                                   
NULL  .    -999.25                                   :Null Data Value                             
COMP  .     Enerplus                                 :Company                                     
WELL  .     State 7-51-33-12                         :Well                                        
FLD   .     Wildcat                                  :Field                                       
LOC   .     NWNE Sec. 33, T 7N , R 51                :Location                                    
LOC1  .     SHL: 671 FNL / 1888 FEL                  :Location1                                   
STAT  .     Colorado                                 :State                                       
CNTY  .     Logan                                    :County                                      
CTRY  .     USA                                      :Country                                     
DATE  .     16-Dec-2009                              :Logging Date                                
UWI   .     05-075-09383-0000                        :Unique Well ID                              
API   .     05-075-09383-0000                        :API Number                                  
SRVC  .     SLB                                      :Service Company                             
~Curve Information Block                     
#MNEN.UNIT                         Curve      Description                       
#---------                         -----      -----------                       
DEPT          .F                   :  0       Index                             
RSOZ          .IN                  :  1       MCFL Standoff                                          
DSOZ          .IN                  :  2       Density Standoff                                       
HRUG          .1/FT                :  3       Hole Rugosity                                          
TEMP          .DEGF                :  4       Temperature                                            
HCAL          .IN                  :  5       Caliper                                                
BS            .IN                  :  6       Bit Size                                               
CS            .FT/HR               :  7       Cable Speed                                            
TENS          .LB                  :  8       Cable Tension                                          
GR_EC         .GAPI                :  9       Environmentally Corrected Gamma Ray                    
GR            .GAPI                : 10       Gamma Ray                                              
SGR           .GAPI                : 11       Standard Gamma Ray                                     
CGR           .GAPI                : 12       Computed Gamma Ray                                     
URAN          .PPM                 : 13       Uranium Concentration                                  
THOR          .PPM                 : 14       Thorium Concentration                                  
POTA          .PERCENT             : 15       Potassium Concentration                                
RXOZ          .OHMM                : 16       MCFL Resistivity                                       
AT10          .OHMM                : 17       10in Array Induction                                   
AT20          .OHMM                : 18       20in Array Induction                                   
AT30          .OHMM                : 19       20in Array Induction                                   
AT60          .OHMM                : 20       60in Array Induction                                   
AT90          .OHMM                : 21       90in Array Induction                                   
SP            .MV                  : 22       Spontaneous Potential                                  
NPHI          .FT3/FT3             : 23       Neutron NPHI Porosity                                  
TNPH          .FT3/FT3             : 24       Neutron TNPH Porosity                                  
PEFZ          .                    : 25       Photoelectic Factor                                    
HDRA          .G/CC                : 26       Density Correction                                     
DPHZ          .FT3/FT3             : 27       Density Porosity                                       
NPHU          .FT3/FT3             : 28       Environmentally Corrected Neutron Porosity             
RHOZ          .G/CC                : 29       Bulk Density                                           
UZ            .                    : 30       Volumetric Photoelectic Factor                         
WCLA_WALK2    .LB/LB               : 31       SpectroLith Weight Clay                                
WQFM_WALK2    .LB/LB               : 32       SpectroLith Weight QFM                                 
WCAR_WALK2    .LB/LB               : 33       SpectroLith Weight Carbonate                           
WPYR_WALK2    .LB/LB               : 34       SpectroLith Weight Pyrite                              
WSID_WALK2    .LB/LB               : 35       SpectroLith Weight Siderite                            
RHGE_WALK2    .G/CC                : 36       SpectroLith Matrix Bulk Density                        
DWAL_WALK2    .LB/LB               : 37       SpectroLith Dry Weight Aluminum(WALK2)                 
DWCA_WALK2    .LB/LB               : 38       SpectroLith Dry Weight Calcium                         
DWSI_WALK2    .LB/LB               : 39       SpectroLith Dry Weight Silicon                         
DWSU_WALK2    .LB/LB               : 40       SpectroLith Dry Weight Sulfur                          
DWTI_WALK2    .LB/LB               : 41       SpectroLith Dry Weight Titanium                        
DWGD_WALK2    .LB/LB               : 42       SpectroLith Dry Weight Gadolinium                      
DWFE_WALK2    .LB/LB               : 43       SpectroLith Dry Weight Iron(WALK2)                     
VCHL          .FT3/FT3             : 44       Elan Volume Chlorite                                   
VILL          .FT3/FT3             : 45       Elan Volume Illite                                     
VQUA          .FT3/FT3             : 46       Elan Volume Quartz                                     
VPYR          .FT3/FT3             : 47       Elan Volume Pyrite                                     
VSM1          .FT3/FT3             : 48       Elan Volume Special Mineral 1 Kerogen                  
VCLC          .FT3/FT3             : 49       Elan Volume Calcite                                    
VDOL          .FT3/FT3             : 50       Elan Volume Dolomite                                   
VSID          .FT3/FT3             : 51       Elan Volume Siderite                                   
VXBW          .FT3/FT3             : 52       Elan Clay Bound Water Volume                           
VXWA          .FT3/FT3             : 53       Elan Flushed Water Volume                              
VUWA          .FT3/FT3             : 54       Elan Water Volume                                      
VXGA          .FT3/FT3             : 55       Elan Flushed Gas Volume                                
VUGA          .FT3/FT3             : 56       Elan Gas Volume                                        
VMHY          .FT3/FT3             : 57       Elan Moved Hydrocarbon Volume                          
PIGN          .FT3/FT3             : 58       Elan Effective Porosity                                
PIGT          .FT3/FT3             : 59       Elan Total Porosity                                    
VCL           .FT3/FT3             : 60       Elan Total Clay Volume                                 
RHGA          .G/CC                : 61       Elan Apparent Grain Density                            
SXBW          .FT3/FT3             : 62       Elan Flushed Bound Water Saturation                    
SUWI          .FT3/FT3             : 63       Elan Water Saturation                                  
SXWI          .FT3/FT3             : 64       Elan Flushed Water Saturation                          
WCHL          .LB/LB               : 65       Elan Weight Percent Chlorite                           
WILL          .LB/LB               : 66       Elan Weight Percent Illite                             
WQUA          .LB/LB               : 67       Elan Weight Percent Quartz                             
WPYR          .LB/LB               : 68       Elan Weight Percent Pyrite                             
WSM1          .LB/LB               : 69       Elan Weight Percent Special Mineral 1 Kerogen          
WCLC          .LB/LB               : 70       Elan Weight Percent Calcite                            
WDOL          .LB/LB               : 71       Elan Weight Percent Dolomite                           
WSID          .LB/LB               : 72       Elan Weight Percent Siderite                           
DWIC_SCHMOKER .LB/LB               : 73       Schmoker TOC                                           
DWIC_TERRATEK .LB/LB               : 74       Terratek TOC                                           
KINT          .MD                  : 75       Intrinsic Permeability                                 
KWTR          .MD                  : 76       Permeability to Water                                  
KGAS          .MD                  : 77       Permeability to Gas                                    
TGAS_ADSORBED .SCF/TON             : 78       Adsorbed Gas                                           
TGAS_FREE     .SCF/TON             : 79       Free Gas                                               
TGAS_TOTAL    .SCF/TON             : 80       Total Gas                                              
CGAS_ADSORBED .BCF/SECTION         : 81       Cumulative Adsorbed Gas                                
CGAS_FREE     .BCF/SECTION         : 82       Cumulative Free Gas                                    
CGAS_TOTAL    .BCF/SECTION         : 83       Cumulative Total Gas                                   
RES_FLAG      .                    : 84       Shale Gas Reservoir Flag                               
PAY_FLAG      .                    : 85       Shale Gas Pay Flag                                     
~Ascii Data Section                          
# ...
   4061.500000      0.000000      0.011151      0.024638    133.460175      6.080759      6.250000   1841.000000   2345.000000    128.846802    142.665161    102.818222     31.012184      8.946060      4.077542      0.999478      3.579945      2.673064      2.696865      2.678447      2.708447      2.677709    -10.312500      0.313782      0.299142      3.943532     -0.002053      0.251595      0.314140      2.279772      9.092789      0.148971      0.232433      0.618596      0.000000      0.000000      2.719256      0.029638      0.257842      0.113685      0.000000      0.001314      0.000006      0.017588      0.029959      0.075958      0.151842      0.000092      0.051283      0.435265      0.026349      0.000118      0.039855      0.189280      0.134342      0.000000      0.054938      0.054938      0.189280      0.229135      0.145771      2.631008      0.173935      0.709753      1.000000      0.044793      0.104903      0.198398      0.000225      0.032871      0.581597      0.036988      0.000225      0.105752      0.076692      0.001065      0.000010      0.000283     25.496403     73.165001     98.661407      8.081562     27.422611     35.504173      1.000000      0.000000
   4062.000000      0.000000      0.000000      0.016857    133.469223      6.119660      6.250000   1840.000000   2339.000000    132.607132    146.559708    107.682007     31.516779      9.495912      3.840443      1.067564      3.656728      2.776721      2.826242      2.816872      2.796978      2.769687    -10.500000      0.314725      0.298899      3.859223     -0.001435      0.244081      0.313896      2.292622      8.944724      0.159721      0.226646      0.613633      0.000000      0.000000      2.721649      0.031777      0.255997      0.111853      0.000000      0.000926      0.000006      0.019044      0.032373      0.082080      0.148990      0.000090      0.051077      0.393947      0.065783      0.000114      0.043067      0.182480      0.130340      0.000000      0.052140      0.052140      0.182480      0.225547      0.157520      2.640658      0.190943      0.714269      1.000000      0.048002      0.112420      0.193061      0.000218      0.032468      0.522035      0.091579      0.000216      0.101893      0.074887      0.001142      0.000010      0.000302     25.183771     69.057571     94.241341      8.056284     27.350069     35.406353      1.000000      0.000000
   4062.500000      0.000000      0.000000      0.023989    133.478256      6.139112      6.250000   1855.000000   2351.000000    130.533325    144.135651    107.933144     31.586029      9.544759      3.783890      1.081006      3.527731      2.630073      2.700199      2.653234      2.658838      2.636403    -10.500000      0.323032      0.301072      3.787213     -0.000996      0.242950      0.316077      2.294555      8.784663      0.159363      0.225271      0.615366      0.000000      0.000000      2.721805      0.031706      0.256642      0.111169      0.000000      0.000758      0.000004      0.019065      0.032284      0.081854      0.148650      0.000090      0.049430      0.363252      0.096029      0.000114      0.042948      0.185348      0.134057      0.000000      0.051291      0.051291      0.185348      0.228296      0.157086      2.648756      0.188124      0.723273      1.000000      0.047894      0.112166      0.192716      0.000221      0.031437      0.481598      0.133751      0.000217      0.101317      0.074615      0.001528      0.000010      0.000387     24.383482     67.882874     92.266357      8.031176     27.281214     35.312389      1.000000      0.000000
   4063.000000      0.000000      0.002283      0.025934    133.487305      6.127441      6.250000   1987.000000   2333.000000    128.288895    141.735168     98.996269     27.472422      8.962525      3.286690      0.940970      3.294116      2.494097      2.536805      2.503001      2.486621      2.482440    -10.437500      0.314701      0.310926      3.763846      0.000766      0.246626      0.325952      2.288269      8.708357      0.161088      0.212259      0.626653      0.000000      0.000000      2.722497      0.032049      0.260837      0.105849      0.000000      0.001301      0.000003      0.019065      0.032385      0.082110      0.138088      0.000099      0.047720      0.342572      0.120296      0.000125      0.043082      0.193524      0.139073      0.000000      0.054451      0.054451      0.193524      0.236606      0.157577      2.656546      0.182084      0.718633      1.000000      0.048424      0.113408      0.180441      0.000243      0.030590      0.457778      0.168877      0.000239      0.103196      0.075498      0.002005      0.000010      0.000513     23.726215     72.271553     95.997772      8.006845     27.213472     35.220318      1.000000      0.000000
   4063.500000      0.000000      0.005195      0.007780    133.496353      6.080759      6.250000   1828.000000   2371.000000    112.338737    124.386665     88.927895     25.883533      7.861275      3.112247      0.883875      3.191076      2.372386      2.366902      2.331165      2.357241      2.324634    -10.875000      0.307006      0.305130      3.803712      0.002549      0.255474      0.320149      2.273139      8.746829      0.150842      0.200007      0.649151      0.000000      0.000000      2.721171      0.030010      0.269201      0.099965      0.000000      0.001896      0.000003      0.017590      0.030061      0.076217      0.132697      0.000065      0.037930      0.381145      0.096235      0.000085      0.039990      0.205575      0.146002      0.000000      0.059573      0.059573      0.205575      0.245565      0.146268      2.668400      0.162850      0.710211      1.000000      0.045280      0.106045      0.174676      0.000161      0.024494      0.513083      0.136097      0.000163      0.107761      0.077624      0.002269      0.000010      0.000590     18.997610     79.605293     98.602905      7.983234     27.141550     35.124783      1.000000      0.000000
   4064.000000      0.000000      0.005195      0.016209    133.505386      6.049638      6.250000   1831.000000   2364.000000    105.996643    117.537086     79.304619     25.846901      6.703458      3.470246      0.820725      3.119865      2.272540      2.221407      2.187978      2.172279      2.195081    -11.187500      0.312461      0.295198      3.895773      0.002054      0.268730      0.310172      2.250471      8.876026      0.128035      0.202645      0.669320      0.000000      0.000000      2.717189      0.025473      0.276699      0.099438      0.000000      0.002077      0.000003      0.014749      0.025270      0.064070      0.132985      0.000036      0.039280      0.453376      0.037667      0.000048      0.033617      0.213651      0.152838      0.000000      0.060814      0.060814      0.213651      0.247268      0.122957      2.651431      0.135953      0.715360      1.000000      0.038394      0.089918      0.176575      0.000091      0.025585      0.615612      0.053732      0.000093      0.114716      0.080809      0.001943      0.000010      0.000483     19.844038     82.090347    101.934387      7.964454     27.062853     35.027306      1.000000      0.000000
   4064.500000      0.000000      0.009047      0.032418    133.514435      6.010736      6.250000   1834.000000   2318.000000     98.462097    109.383423     75.565613     25.152769      6.416986      3.243044      0.821572      3.166829      2.239963      2.234833      2.220418      2.212332      2.226131    -11.437500      0.306568      0.294410      3.917679      0.003101      0.271300      0.309383      2.246077      8.909853      0.107124      0.208778      0.683242      0.000856      0.000000      2.714210      0.021313      0.281874      0.100740      0.000458      0.001530      0.000002      0.012358      0.021085      0.053460      0.137131      0.000383      0.038838      0.464415      0.035096      0.000058      0.028050      0.221483      0.153655      0.000000      0.067828      0.067828      0.221483      0.249533      0.102595      2.649269      0.112410      0.693754      1.000000      0.032159      0.075316      0.182778      0.000962      0.025395      0.633021      0.050256      0.000113      0.116081      0.081426      0.002603      0.000010      0.000697     19.695955     91.748169    111.444122      7.945033     26.982508     34.927540      1.000000      0.000000
