~Version Information                         
VERS  .          2.0                                 :CWLS Log Ascii Standard - Version 2 
WRAP  .          NO                                  :One line per depth step             
~Well Information Block                      
#MNEM.UNIT  Data Type                                Information                                  
#---------  ---------                                ----------------------------------------     
STRT  .F     3750.0000                               :Start Depth                                 
STOP  .F     4270.0000                               :Stop Depth                                  
STEP  .F    0.50000                                  :Increment                                   
NULL  .    -999.25                                   :Null Data Value                             
COMP  .     Enerplus                                 :Company                                     
WELL  .     State 7-51-33-12                         :Well                                        
FLD   .     Wildcat                                  :Field                                       
LOC   .     NWNE Sec. 33, T 7N , R 51                :Location                                    
LOC1  .     SHL: 671 FNL / 1888 FEL                  :Location1                                   
STAT  .     Colorado                                 :State                                       
CNTY  .     Logan                                    :County                                      
CTRY  .     USA                                      :Country                                     
DATE  .     16-Dec-2009                              :Logging Date                                
UWI   .     05-075-09383-0000                        :Unique Well ID                              
API   .     05-075-09383-0000                        :API Number                                  
SRVC  .     SLB                                      :Service Company                             
~Curve Information Block                     
#MNEN.UNIT                         Curve      Description                       
#---------                         -----      -----------                       
DEPT          .F                   :  0       Index                             
RSOZ          .IN                  :  1       MCFL Standoff                                          
DSOZ          .IN                  :  2       Density Standoff                                       
HRUG          .1/FT                :  3       Hole Rugosity                                          
TEMP          .DEGF                :  4       Temperature                                            
HCAL          .IN                  :  5       Caliper                                                
BS            .IN                  :  6       Bit Size                                               
CS            .FT/HR               :  7       Cable Speed                                            
TENS          .LB                  :  8       Cable Tension                                          
GR_EC         .GAPI                :  9       Environmentally Corrected Gamma Ray                    
GR            .GAPI                : 10       Gamma Ray                                              
SGR           .GAPI                : 11       Standard Gamma Ray                                     
CGR           .GAPI                : 12       Computed Gamma Ray                                     
URAN          .PPM                 : 13       Uranium Concentration                                  
THOR          .PPM                 : 14       Thorium Concentration                                  
POTA          .PERCENT             : 15       Potassium Concentration                                
RXOZ          .OHMM                : 16       MCFL Resistivity                                       
AT10          .OHMM                : 17       10in Array Induction                                   
AT20          .OHMM                : 18       20in Array Induction                                   
AT30          .OHMM                : 19       20in Array Induction                                   
AT60          .OHMM                : 20       60in Array Induction                                   
AT90          .OHMM                : 21       90in Array Induction                                   
SP            .MV                  : 22       Spontaneous Potential                                  
NPHI          .FT3/FT3             : 23       Neutron NPHI Porosity                                  
TNPH          .FT3/FT3             : 24       Neutron TNPH Porosity                                  
PEFZ          .                    : 25       Photoelectic Factor                                    
HDRA          .G/CC                : 26       Density Correction                                     
DPHZ          .FT3/FT3             : 27       Density Porosity                                       
NPHU          .FT3/FT3             : 28       Environmentally Corrected Neutron Porosity             
RHOZ          .G/CC                : 29       Bulk Density                                           
UZ            .                    : 30       Volumetric Photoelectic Factor                         
WCLA_WALK2    .LB/LB               : 31       SpectroLith Weight Clay                                
WQFM_WALK2    .LB/LB               : 32       SpectroLith Weight QFM                                 
WCAR_WALK2    .LB/LB               : 33       SpectroLith Weight Carbonate                           
WPYR_WALK2    .LB/LB               : 34       SpectroLith Weight Pyrite                              
WSID_WALK2    .LB/LB               : 35       SpectroLith Weight Siderite                            
RHGE_WALK2    .G/CC                : 36       SpectroLith Matrix Bulk Density                        
DWAL_WALK2    .LB/LB               : 37       SpectroLith Dry Weight Aluminum(WALK2)                 
DWCA_WALK2    .LB/LB               : 38       SpectroLith Dry Weight Calcium                         
DWSI_WALK2    .LB/LB               : 39       SpectroLith Dry Weight Silicon                         
DWSU_WALK2    .LB/LB               : 40       SpectroLith Dry Weight Sulfur                          
DWTI_WALK2    .LB/LB               : 41       SpectroLith Dry Weight Titanium                        
DWGD_WALK2    .LB/LB               : 42       SpectroLith Dry Weight Gadolinium                      
DWFE_WALK2    .LB/LB               : 43       SpectroLith Dry Weight Iron(WALK2)                     
VCHL          .FT3/FT3             : 44       Elan Volume Chlorite                                   
VILL          .FT3/FT3             : 45       Elan Volume Illite                                     
VQUA          .FT3/FT3             : 46       Elan Volume Quartz                                     
VPYR          .FT3/FT3             : 47       Elan Volume Pyrite                                     
VSM1          .FT3/FT3             : 48       Elan Volume Special Mineral 1 Kerogen                  
VCLC          .FT3/FT3             : 49       Elan Volume Calcite                                    
VDOL          .FT3/FT3             : 50       Elan Volume Dolomite                                   
VSID          .FT3/FT3             : 51       Elan Volume Siderite                                   
VXBW          .FT3/FT3             : 52       Elan Clay Bound Water Volume                           
VXWA          .FT3/FT3             : 53       Elan Flushed Water Volume                              
VUWA          .FT3/FT3             : 54       Elan Water Volume                                      
VXGA          .FT3/FT3             : 55       Elan Flushed Gas Volume                                
VUGA          .FT3/FT3             : 56       Elan Gas Volume                                        
VMHY          .FT3/FT3             : 57       Elan Moved Hydrocarbon Volume                          
PIGN          .FT3/FT3             : 58       Elan Effective Porosity                                
PIGT          .FT3/FT3             : 59       Elan Total Porosity                                    
VCL           .FT3/FT3             : 60       Elan Total Clay Volume                                 
RHGA          .G/CC                : 61       Elan Apparent Grain Density                            
SXBW          .FT3/FT3             : 62       Elan Flushed Bound Water Saturation                    
SUWI          .FT3/FT3             : 63       Elan Water Saturation                                  
SXWI          .FT3/FT3             : 64       Elan Flushed Water Saturation                          
WCHL          .LB/LB               : 65       Elan Weight Percent Chlorite                           
WILL          .LB/LB               : 66       Elan Weight Percent Illite                             
WQUA          .LB/LB               : 67       Elan Weight Percent Quartz                             
WPYR          .LB/LB               : 68       Elan Weight Percent Pyrite                             
WSM1          .LB/LB               : 69       Elan Weight Percent Special Mineral 1 Kerogen          
WCLC          .LB/LB               : 70       Elan Weight Percent Calcite                            
WDOL          .LB/LB               : 71       Elan Weight Percent Dolomite                           
WSID          .LB/LB               : 72       Elan Weight Percent Siderite                           
DWIC_SCHMOKER .LB/LB               : 73       Schmoker TOC                                           
DWIC_TERRATEK .LB/LB               : 74       Terratek TOC                                           
KINT          .MD                  : 75       Intrinsic Permeability                                 
KWTR          .MD                  : 76       Permeability to Water                                  
KGAS          .MD                  : 77       Permeability to Gas                                    
TGAS_ADSORBED .SCF/TON             : 78       Adsorbed Gas                                           
TGAS_FREE     .SCF/TON             : 79       Free Gas                                               
TGAS_TOTAL    .SCF/TON             : 80       Total Gas                                              
CGAS_ADSORBED .BCF/SECTION         : 81       Cumulative Adsorbed Gas                                
CGAS_FREE     .BCF/SECTION         : 82       Cumulative Free Gas                                    
CGAS_TOTAL    .BCF/SECTION         : 83       Cumulative Total Gas                                   
RES_FLAG      .                    : 84       Shale Gas Reservoir Flag                               
PAY_FLAG      .                    : 85       Shale Gas Pay Flag                                     
~Ascii Data Section                          
# ...
   3785.000000      0.000000      0.000000      0.030474    128.459137      6.127441      6.250000   1797.000000   2306.000000    164.801315    182.074539     99.603523     65.992439      4.246208     10.209276      1.865231      1.793881      1.468950      1.507117      1.497299      1.504737      1.488949      1.937500      0.372305      0.362019      3.108309      0.000702      0.178163      0.376646      2.405341      7.531612      0.475303      0.524697      0.000000      0.000000      0.000000      2.742055      0.090877      0.000000      0.305720      0.000000      0.004553      0.000007      0.053725      0.090053      0.227801      0.399307      0.000115      0.033657      0.000000      0.000000      0.000130      0.120839      0.128098      0.123990      0.000000      0.004108      0.004108      0.128098      0.248937      0.438693      2.809714      0.485420      0.967930      1.000000      0.129506      0.347816      0.501434      0.000272      0.020734      0.000000      0.000000      0.000238      0.069811      0.059050      0.000261      0.000010      0.000011     16.169779      4.862815     21.032595     23.567015     59.646622     83.213638      0.000000      0.000000
   3785.500000      0.000000      0.000000      0.024638    128.468170      6.119660      6.250000   1795.000000   2317.000000    160.381653    177.256592    100.422195     67.977913      3.976003     10.506763      1.922997      1.855795      1.510505      1.533153      1.519952      1.527125      1.518509      1.750000      0.358574      0.354884      3.159425     -0.000597      0.181525      0.369610      2.399593      7.638502      0.500642      0.492691      0.000000      0.006668      0.000000      2.751187      0.094531      0.000000      0.298789      0.003564      0.003412      0.000005      0.056345      0.095058      0.240462      0.380246      0.002897      0.025818      0.000000      0.000000      0.000071      0.127555      0.127893      0.117153      0.000000      0.010741      0.010741      0.127893      0.255448      0.463075      2.846286      0.499338      0.916018      1.000000      0.136127      0.365599      0.475485      0.006822      0.015838      0.000000      0.000000      0.000129      0.071374      0.059857      0.000190      0.000010      0.000014     12.351108     12.746039     25.097147     23.550100     59.641533     83.191635      0.000000      0.000000
   3786.000000      0.000000      0.009135      0.009077    128.477219      6.127441      6.250000   1801.000000   2269.000000    156.341934    172.728516     99.287590     67.980293      3.755345     10.161268      1.982132      1.908813      1.558242      1.599692      1.583500      1.588710      1.577604      1.625000      0.343296      0.340098      3.247671      0.000867      0.170161      0.354995      2.419025      7.910811      0.578827      0.391134      0.000000      0.030039      0.000000      2.778208      0.105393      0.001742      0.277431      0.016056      0.002699      0.000005      0.062751      0.068013      0.322159      0.314428      0.012913      0.006095      0.000000      0.000094      0.000000      0.163522      0.098482      0.086876      0.014295      0.025900      0.011605      0.112776      0.276298      0.553694      2.971217      0.591831      0.770340      0.873247      0.095990      0.482734      0.387501      0.029966      0.003685      0.000000      0.000124      0.000000      0.066120      0.057127      0.000046      0.000010      0.000006      2.873834     30.492599     33.366432     23.537212     59.628231     83.165443      1.000000      0.000000
   3786.500000      0.000000      0.017919      0.016209    128.486267      6.127441      6.250000   1797.000000   2299.000000    147.364563    162.810196     99.343338     65.656258      4.027403      9.765449      1.922644      2.060989      1.603491      1.639837      1.630179      1.636996      1.634384      2.312500      0.338455      0.329169      3.323994      0.003656      0.154430      0.344148      2.445924      8.180256      0.610404      0.336480      0.000000      0.053116      0.000000      2.803875      0.109620      0.002608      0.265937      0.028391      0.002835      0.000004      0.068430      0.036649      0.374912      0.275743      0.022978      0.000000      0.000000      0.000762      0.000000      0.185020      0.074032      0.070658      0.029903      0.033277      0.003375      0.103935      0.288956      0.596582      3.047284      0.640307      0.679825      0.712293      0.051331      0.557509      0.337241      0.052918      0.000000      0.000000      0.001001      0.000000      0.058984      0.053348      0.000024      0.000010      0.000004      0.000000     38.751740     38.751740     23.534189     59.596153     83.130341      1.000000      0.000000
   3787.000000      0.000000      0.028668      0.038253    128.495300      6.143001      6.250000   1796.000000   2304.000000    145.623276    160.768631     93.693443     59.617596      4.037354      9.141749      1.698936      1.956764      1.584816      1.628466      1.610664      1.612140      1.608934      1.750000      0.339688      0.323197      3.343473      0.007342      0.146865      0.338204      2.458861      8.268601      0.608702      0.335612      0.000000      0.055686      0.000000      2.796515      0.109394      0.016304      0.255645      0.029764      0.002651      0.000005      0.062605      0.030984      0.381309      0.276853      0.024238      0.000000      0.000000      0.000916      0.000000      0.187396      0.070833      0.068165      0.027470      0.030138      0.002668      0.098303      0.285699      0.599690      3.051717      0.655922      0.693417      0.720562      0.043136      0.563616      0.336565      0.055485      0.000000      0.000000      0.001197      0.000000      0.055608      0.051530      0.000022      0.000010      0.000004      0.000000     34.915359     34.915359     23.534189     59.554932     83.089119      1.000000      0.000000
   3787.500000      0.000000      0.027310      0.022693    128.504349      6.092430      6.250000   1804.000000   2261.000000    139.687973    154.583862     95.753593     61.604877      4.059352      9.577180      1.733241      1.867997      1.493531      1.531857      1.526255      1.520180      1.523529      1.625000      0.365006      0.328281      3.258311      0.007385      0.158546      0.343264      2.438887      7.997191      0.521585      0.416750      0.011808      0.049856      0.000000      2.781703      0.097499      0.032271      0.258582      0.026648      0.001969      0.000006      0.055145      0.039186      0.312351      0.338901      0.021527      0.001164      0.000000      0.009070      0.000000      0.155221      0.118122      0.100366      0.004459      0.022215      0.017756      0.122581      0.277801      0.506758      2.988335      0.558747      0.818774      0.963625      0.055103      0.466325      0.416134      0.049773      0.000701      0.000000      0.011965      0.000000      0.060836      0.054336      0.000089      0.000010      0.000009      0.546796     25.950054     26.496851     23.534189     59.517593     83.051781      1.000000      0.000000
   3788.000000      0.000000      0.023252      0.019451    128.513397      6.115770      6.250000   1788.000000   2332.000000    143.758194    158.913162     94.664497     58.314804      4.268471      8.986230      1.654250      1.703612      1.446164      1.464416      1.466752      1.458273      1.461623      1.937500      0.363924      0.351449      3.128422      0.006389      0.171372      0.366214      2.416953      7.614287      0.484013      0.449081      0.021411      0.045494      0.000000      2.773944      0.092141      0.035841      0.263829      0.024317      0.002053      0.000007      0.052111      0.048524      0.271662      0.349976      0.019238      0.014048      0.000000      0.015654      0.000000      0.136794      0.144103      0.122778      0.000000      0.021325      0.021325      0.144103      0.280898      0.456981      2.932589      0.486990      0.852017      1.000000      0.069831      0.415067      0.439787      0.045522      0.008660      0.000000      0.021133      0.000000      0.066676      0.057418      0.000214      0.000010      0.000026      6.753201     25.139715     31.892918     23.533609     59.490070     83.023682      1.000000      0.000000
