~Version Information                         
VERS  .          2.0                                 :CWLS Log Ascii Standard - Version 2 
WRAP  .          NO                                  :One line per depth step             
~Well Information Block                      
#MNEM.UNIT  Data Type                                Information                                  
#---------  ---------                                ----------------------------------------     
STRT  .F     3750.0000                               :Start Depth                                 
STOP  .F     4270.0000                               :Stop Depth                                  
STEP  .F    0.50000                                  :Increment                                   
NULL  .    -999.25                                   :Null Data Value                             
COMP  .     Enerplus                                 :Company                                     
WELL  .     State 7-51-33-12                         :Well                                        
FLD   .     Wildcat                                  :Field                                       
LOC   .     NWNE Sec. 33, T 7N , R 51                :Location                                    
LOC1  .     SHL: 671 FNL / 1888 FEL                  :Location1                                   
STAT  .     Colorado                                 :State                                       
CNTY  .     Logan                                    :County                                      
CTRY  .     USA                                      :Country                                     
DATE  .     16-Dec-2009                              :Logging Date                                
UWI   .     05-075-09383-0000                        :Unique Well ID                              
API   .     05-075-09383-0000                        :API Number                                  
SRVC  .     SLB                                      :Service Company                             
~Curve Information Block                     
#MNEN.UNIT                         Curve      Description                       
#---------                         -----      -----------                       
DEPT          .F                   :  0       Index                             
RSOZ          .IN                  :  1       MCFL Standoff                                          
DSOZ          .IN                  :  2       Density Standoff                                       
HRUG          .1/FT                :  3       Hole Rugosity                                          
TEMP          .DEGF                :  4       Temperature                                            
HCAL          .IN                  :  5       Caliper                                                
BS            .IN                  :  6       Bit Size                                               
CS            .FT/HR               :  7       Cable Speed                                            
TENS          .LB                  :  8       Cable Tension                                          
GR_EC         .GAPI                :  9       Environmentally Corrected Gamma Ray                    
GR            .GAPI                : 10       Gamma Ray                                              
SGR           .GAPI                : 11       Standard Gamma Ray                                     
CGR           .GAPI                : 12       Computed Gamma Ray                                     
URAN          .PPM                 : 13       Uranium Concentration                                  
THOR          .PPM                 : 14       Thorium Concentration                                  
POTA          .PERCENT             : 15       Potassium Concentration                                
RXOZ          .OHMM                : 16       MCFL Resistivity                                       
AT10          .OHMM                : 17       10in Array Induction                                   
AT20          .OHMM                : 18       20in Array Induction                                   
AT30          .OHMM                : 19       20in Array Induction                                   
AT60          .OHMM                : 20       60in Array Induction                                   
AT90          .OHMM                : 21       90in Array Induction                                   
SP            .MV                  : 22       Spontaneous Potential                                  
NPHI          .FT3/FT3             : 23       Neutron NPHI Porosity                                  
TNPH          .FT3/FT3             : 24       Neutron TNPH Porosity                                  
PEFZ          .                    : 25       Photoelectic Factor                                    
HDRA          .G/CC                : 26       Density Correction                                     
DPHZ          .FT3/FT3             : 27       Density Porosity                                       
NPHU          .FT3/FT3             : 28       Environmentally Corrected Neutron Porosity             
RHOZ          .G/CC                : 29       Bulk Density                                           
UZ            .                    : 30       Volumetric Photoelectic Factor                         
WCLA_WALK2    .LB/LB               : 31       SpectroLith Weight Clay                                
WQFM_WALK2    .LB/LB               : 32       SpectroLith Weight QFM                                 
WCAR_WALK2    .LB/LB               : 33       SpectroLith Weight Carbonate                           
WPYR_WALK2    .LB/LB               : 34       SpectroLith Weight Pyrite                              
WSID_WALK2    .LB/LB               : 35       SpectroLith Weight Siderite                            
RHGE_WALK2    .G/CC                : 36       SpectroLith Matrix Bulk Density                        
DWAL_WALK2    .LB/LB               : 37       SpectroLith Dry Weight Aluminum(WALK2)                 
DWCA_WALK2    .LB/LB               : 38       SpectroLith Dry Weight Calcium                         
DWSI_WALK2    .LB/LB               : 39       SpectroLith Dry Weight Silicon                         
DWSU_WALK2    .LB/LB               : 40       SpectroLith Dry Weight Sulfur                          
DWTI_WALK2    .LB/LB               : 41       SpectroLith Dry Weight Titanium                        
DWGD_WALK2    .LB/LB               : 42       SpectroLith Dry Weight Gadolinium                      
DWFE_WALK2    .LB/LB               : 43       SpectroLith Dry Weight Iron(WALK2)                     
VCHL          .FT3/FT3             : 44       Elan Volume Chlorite                                   
VILL          .FT3/FT3             : 45       Elan Volume Illite                                     
VQUA          .FT3/FT3             : 46       Elan Volume Quartz                                     
VPYR          .FT3/FT3             : 47       Elan Volume Pyrite                                     
VSM1          .FT3/FT3             : 48       Elan Volume Special Mineral 1 Kerogen                  
VCLC          .FT3/FT3             : 49       Elan Volume Calcite                                    
VDOL          .FT3/FT3             : 50       Elan Volume Dolomite                                   
VSID          .FT3/FT3             : 51       Elan Volume Siderite                                   
VXBW          .FT3/FT3             : 52       Elan Clay Bound Water Volume                           
VXWA          .FT3/FT3             : 53       Elan Flushed Water Volume                              
VUWA          .FT3/FT3             : 54       Elan Water Volume                                      
VXGA          .FT3/FT3             : 55       Elan Flushed Gas Volume                                
VUGA          .FT3/FT3             : 56       Elan Gas Volume                                        
VMHY          .FT3/FT3             : 57       Elan Moved Hydrocarbon Volume                          
PIGN          .FT3/FT3             : 58       Elan Effective Porosity                                
PIGT          .FT3/FT3             : 59       Elan Total Porosity                                    
VCL           .FT3/FT3             : 60       Elan Total Clay Volume                                 
RHGA          .G/CC                : 61       Elan Apparent Grain Density                            
SXBW          .FT3/FT3             : 62       Elan Flushed Bound Water Saturation                    
SUWI          .FT3/FT3             : 63       Elan Water Saturation                                  
SXWI          .FT3/FT3             : 64       Elan Flushed Water Saturation                          
WCHL          .LB/LB               : 65       Elan Weight Percent Chlorite                           
WILL          .LB/LB               : 66       Elan Weight Percent Illite                             
WQUA          .LB/LB               : 67       Elan Weight Percent Quartz                             
WPYR          .LB/LB               : 68       Elan Weight Percent Pyrite                             
WSM1          .LB/LB               : 69       Elan Weight Percent Special Mineral 1 Kerogen          
WCLC          .LB/LB               : 70       Elan Weight Percent Calcite                            
WDOL          .LB/LB               : 71       Elan Weight Percent Dolomite                           
WSID          .LB/LB               : 72       Elan Weight Percent Siderite                           
DWIC_SCHMOKER .LB/LB               : 73       Schmoker TOC                                           
DWIC_TERRATEK .LB/LB               : 74       Terratek TOC                                           
KINT          .MD                  : 75       Intrinsic Permeability                                 
KWTR          .MD                  : 76       Permeability to Water                                  
KGAS          .MD                  : 77       Permeability to Gas                                    
TGAS_ADSORBED .SCF/TON             : 78       Adsorbed Gas                                           
TGAS_FREE     .SCF/TON             : 79       Free Gas                                               
TGAS_TOTAL    .SCF/TON             : 80       Total Gas                                              
CGAS_ADSORBED .BCF/SECTION         : 81       Cumulative Adsorbed Gas                                
CGAS_FREE     .BCF/SECTION         : 82       Cumulative Free Gas                                    
CGAS_TOTAL    .BCF/SECTION         : 83       Cumulative Total Gas                                   
RES_FLAG      .                    : 84       Shale Gas Reservoir Flag                               
PAY_FLAG      .                    : 85       Shale Gas Pay Flag                                     
~Ascii Data Section                          
   3750.000000      0.000000      0.007867      0.016857    127.826088      6.143001      6.250000   1821.000000   2297.000000    139.004166    153.461105     90.214371     59.730412      3.978512      9.084653      1.714893      1.732844      1.399882      1.417833      1.403035      1.418107      1.415308      2.375000      0.366941      0.353925      3.139226      0.001536      0.167354      0.368664      2.423825      7.660735      0.544391      0.439512      0.000000      0.016097      0.000000      2.763145      0.100681      0.000000      0.288205      0.008604      0.004542      0.000004      0.059588      0.096424      0.269792      0.353510      0.006872      0.000000      0.000000      0.000000      0.000000      0.141843      0.131559      0.114442      0.000000      0.017117      0.017117      0.131559      0.273402      0.508059      2.935601      0.518808      0.869890      1.000000      0.137190      0.407539      0.439194      0.016077      0.000000      0.000000      0.000000      0.000000      0.064835      0.056453      0.000114      0.000010      0.000009      0.000000     19.936186     19.936186     23.676237     62.289639     85.965874      0.000000      0.000000
   3750.500000      0.000000      0.007867      0.027231    127.835129      6.135221      6.250000   1822.000000   2286.000000    139.651672    154.232407     93.043861     62.196224      3.982235      9.510125      1.777068      1.797086      1.449944      1.482706      1.474377      1.476475      1.482492      2.312500      0.371515      0.362506      3.107129      0.001505      0.170636      0.377119      2.418212      7.566113      0.534576      0.458795      0.000000      0.006629      0.000000      2.755715      0.099318      0.000000      0.290587      0.003543      0.004543      0.000008      0.058830      0.101457      0.256648      0.364806      0.002853      0.002818      0.000000      0.000000      0.000024      0.136141      0.135252      0.115704      0.000000      0.019548      0.019548      0.135252      0.271393      0.494246      2.909061      0.501638      0.855470      1.000000      0.145266      0.390144      0.456102      0.006716      0.001729      0.000000      0.000000      0.000044      0.066338      0.057241      0.000150      0.000010      0.000015      1.348869     22.823116     24.171986     23.676237     62.268623     85.944862      0.000000      0.000000
   3751.000000      0.000000      0.005947      0.029175    127.844177      6.143001      6.250000   1819.000000   2298.000000    141.376328    156.079987     97.344185     63.860405      4.242061      9.715205      1.833050      1.873812      1.500950      1.529931      1.522788      1.523397      1.522634      2.625000      0.372091      0.365417      3.119399     -0.001686      0.179831      0.379982      2.402488      7.550170      0.541057      0.456055      0.000000      0.002888      0.000000      2.754011      0.100219      0.000000      0.289126      0.001544      0.005064      0.000009      0.059208      0.101984      0.257982      0.359769      0.001260      0.004046      0.000000      0.000000      0.000040      0.136848      0.138071      0.114109      0.000000      0.023963      0.023963      0.138071      0.274920      0.496814      2.904255      0.497776      0.826448      1.000000      0.146973      0.394729      0.452740      0.002986      0.002498      0.000000      0.000000      0.000074      0.070586      0.059450      0.000152      0.000010      0.000019      1.948801     28.163893     30.112694     23.674818     62.244621     85.919441      1.000000      0.000000
   3751.500000      0.000000      0.005947      0.032417    127.853218      6.143001      6.250000   1823.000000   2319.000000    141.898895    156.656906     99.693336     64.671432      4.480786     10.099736      1.811721      1.922693      1.506050      1.539998      1.528011      1.534827      1.534321      2.250000      0.355081      0.365794      3.189155     -0.002553      0.181887      0.380351      2.398973      7.708533      0.546453      0.441969      0.000000      0.011578      0.000000      2.760446      0.100966      0.000000      0.287758      0.006189      0.004820      0.000008      0.059690      0.102905      0.260311      0.348944      0.004901      0.004028      0.000000      0.000000      0.000009      0.138084      0.140820      0.113270      0.000000      0.027549      0.027549      0.140820      0.278904      0.501299      2.919793      0.495095      0.804364      1.000000      0.148326      0.398363      0.439193      0.011614      0.002487      0.000000      0.000000      0.000017      0.071543      0.059944      0.000132      0.000010      0.000019      1.940439     32.431057     34.371494     23.672781     62.215195     85.887978      1.000000      0.000000
   3752.000000      0.000000      0.005947      0.040198    127.862259      6.150782      6.250000   1827.000000   2285.000000    140.430115    154.978638     97.800446     63.605343      4.322254      9.501575      1.855584      1.884581      1.494589      1.528664      1.520738      1.524341      1.524843      2.562500      0.342605      0.349510      3.283204     -0.002917      0.179553      0.364307      2.402965      7.948104      0.592672      0.375659      0.000000      0.031669      0.000000      2.780898      0.107257      0.001631      0.274417      0.016927      0.004912      0.000007      0.063666      0.079582      0.312998      0.300151      0.013353      0.000000      0.000000      0.000602      0.000000      0.160549      0.114350      0.098168      0.018415      0.034597      0.016183      0.132765      0.293314      0.553129      2.991078      0.547363      0.739409      0.861298      0.114259      0.477111      0.376298      0.031522      0.000000      0.000000      0.000811      0.000000      0.070456      0.059384      0.000058      0.000010      0.000010      0.000000     40.665062     40.665062     23.670757     62.181358     85.852112      1.000000      0.000000
   3752.500000      0.000000      0.016718      0.018802    127.871307      6.127441      6.250000   1828.000000   2299.000000    138.140381    152.619202     94.593979     59.983097      4.432772      9.354274      1.682644      1.812998      1.465520      1.492057      1.487135      1.492258      1.492493      3.062500      0.334981      0.330028      3.332017     -0.003421      0.178635      0.344998      2.404534      8.071157      0.592207      0.357148      0.000000      0.050645      0.000000      2.801194      0.107194      0.008424      0.263203      0.027070      0.004642      0.000006      0.067279      0.037089      0.352691      0.285912      0.021413      0.000000      0.000000      0.000833      0.000000      0.174379      0.100119      0.092175      0.027563      0.035507      0.007944      0.127683      0.302061      0.564159      3.031549      0.577296      0.721910      0.784125      0.053198      0.537086      0.358094      0.050501      0.000000      0.000000      0.001120      0.000000      0.070030      0.059163      0.000047      0.000010      0.000009      0.000000     41.712559     41.712559     23.670757     62.138863     85.809616      1.000000      0.000000
   3753.000000      0.000000      0.039351      0.040846    127.880348      6.135221      6.250000   1823.000000   2335.000000    139.336899    153.884766     93.329956     60.056465      4.129592      9.403009      1.678329      1.787360      1.443676      1.464558      1.457878      1.459314      1.460522      2.750000      0.360332      0.324454      3.289554     -0.004656      0.185282      0.339451      2.393168      7.933368      0.614366      0.347303      0.000000      0.038331      0.000000      2.794802      0.110144      0.018754      0.247571      0.020488      0.004920      0.000005      0.067217      0.042330      0.361035      0.277591      0.016158      0.000000      0.000000      0.001009      0.000000      0.179046      0.089852      0.088565      0.032979      0.034266      0.001287      0.122831      0.301877      0.582411      3.023607      0.593108      0.721033      0.731510      0.060858      0.551092      0.348493      0.038196      0.000000      0.000000      0.001361      0.000000      0.073130      0.060760      0.000041      0.000010      0.000008      0.000000     40.450428     40.450428     23.670757     62.095242     85.765999      1.000000      0.000000
