~Version Information                         
VERS  .          2.0                                 :CWLS Log Ascii Standard - Version 2 
WRAP  .          NO                                  :One line per depth step             
~Well Information Block                      
#MNEM.UNIT  Data Type                                Information                                  
#---------  ---------                                ----------------------------------------     
STRT  .F     3750.0000                               :Start Depth                                 
STOP  .F     4270.0000                               :Stop Depth                                  
STEP  .F    0.50000                                  :Increment                                   
NULL  .    -999.25                                   :Null Data Value                             
COMP  .     Enerplus                                 :Company                                     
WELL  .     State 7-51-33-12                         :Well                                        
FLD   .     Wildcat                                  :Field                                       
LOC   .     NWNE Sec. 33, T 7N , R 51                :Location                                    
LOC1  .     SHL: 671 FNL / 1888 FEL                  :Location1                                   
STAT  .     Colorado                                 :State                                       
CNTY  .     Logan                                    :County                                      
CTRY  .     USA                                      :Country                                     
DATE  .     16-Dec-2009                              :Logging Date                                
UWI   .     05-075-09383-0000                        :Unique Well ID                              
API   .     05-075-09383-0000                        :API Number                                  
SRVC  .     SLB                                      :Service Company                             
~Curve Information Block                     
#MNEN.UNIT                         Curve      Description                       
#---------                         -----      -----------                       
DEPT          .F                   :  0       Index                             
RSOZ          .IN                  :  1       MCFL Standoff                                          
DSOZ          .IN                  :  2       Density Standoff                                       
HRUG          .1/FT                :  3       Hole Rugosity                                          
TEMP          .DEGF                :  4       Temperature                                            
HCAL          .IN                  :  5       Caliper                                                
BS            .IN                  :  6       Bit Size                                               
CS            .FT/HR               :  7       Cable Speed                                            
TENS          .LB                  :  8       Cable Tension                                          
GR_EC         .GAPI                :  9       Environmentally Corrected Gamma Ray                    
GR            .GAPI                : 10       Gamma Ray                                              
SGR           .GAPI                : 11       Standard Gamma Ray                                     
CGR           .GAPI                : 12       Computed Gamma Ray                                     
URAN          .PPM                 : 13       Uranium Concentration                                  
THOR          .PPM                 : 14       Thorium Concentration                                  
POTA          .PERCENT             : 15       Potassium Concentration                                
RXOZ          .OHMM                : 16       MCFL Resistivity                                       
AT10          .OHMM                : 17       10in Array Induction                                   
AT20          .OHMM                : 18       20in Array Induction                                   
AT30          .OHMM                : 19       20in Array Induction                                   
AT60          .OHMM                : 20       60in Array Induction                                   
AT90          .OHMM                : 21       90in Array Induction                                   
SP            .MV                  : 22       Spontaneous Potential                                  
NPHI          .FT3/FT3             : 23       Neutron NPHI Porosity                                  
TNPH          .FT3/FT3             : 24       Neutron TNPH Porosity                                  
PEFZ          .                    : 25       Photoelectic Factor                                    
HDRA          .G/CC                : 26       Density Correction                                     
DPHZ          .FT3/FT3             : 27       Density Porosity                                       
NPHU          .FT3/FT3             : 28       Environmentally Corrected Neutron Porosity             
RHOZ          .G/CC                : 29       Bulk Density                                           
UZ            .                    : 30       Volumetric Photoelectic Factor                         
WCLA_WALK2    .LB/LB               : 31       SpectroLith Weight Clay                                
WQFM_WALK2    .LB/LB               : 32       SpectroLith Weight QFM                                 
WCAR_WALK2    .LB/LB               : 33       SpectroLith Weight Carbonate                           
WPYR_WALK2    .LB/LB               : 34       SpectroLith Weight Pyrite                              
WSID_WALK2    .LB/LB               : 35       SpectroLith Weight Siderite                            
RHGE_WALK2    .G/CC                : 36       SpectroLith Matrix Bulk Density                        
DWAL_WALK2    .LB/LB               : 37       SpectroLith Dry Weight Aluminum(WALK2)                 
DWCA_WALK2    .LB/LB               : 38       SpectroLith Dry Weight Calcium                         
DWSI_WALK2    .LB/LB               : 39       SpectroLith Dry Weight Silicon                         
DWSU_WALK2    .LB/LB               : 40       SpectroLith Dry Weight Sulfur                          
DWTI_WALK2    .LB/LB               : 41       SpectroLith Dry Weight Titanium                        
DWGD_WALK2    .LB/LB               : 42       SpectroLith Dry Weight Gadolinium                      
DWFE_WALK2    .LB/LB               : 43       SpectroLith Dry Weight Iron(WALK2)                     
VCHL          .FT3/FT3             : 44       Elan Volume Chlorite                                   
VILL          .FT3/FT3             : 45       Elan Volume Illite                                     
VQUA          .FT3/FT3             : 46       Elan Volume Quartz                                     
VPYR          .FT3/FT3             : 47       Elan Volume Pyrite                                     
VSM1          .FT3/FT3             : 48       Elan Volume Special Mineral 1 Kerogen                  
VCLC          .FT3/FT3             : 49       Elan Volume Calcite                                    
VDOL          .FT3/FT3             : 50       Elan Volume Dolomite                                   
VSID          .FT3/FT3             : 51       Elan Volume Siderite                                   
VXBW          .FT3/FT3             : 52       Elan Clay Bound Water Volume                           
VXWA          .FT3/FT3             : 53       Elan Flushed Water Volume                              
VUWA          .FT3/FT3             : 54       Elan Water Volume                                      
VXGA          .FT3/FT3             : 55       Elan Flushed Gas Volume                                
VUGA          .FT3/FT3             : 56       Elan Gas Volume                                        
VMHY          .FT3/FT3             : 57       Elan Moved Hydrocarbon Volume                          
PIGN          .FT3/FT3             : 58       Elan Effective Porosity                                
PIGT          .FT3/FT3             : 59       Elan Total Porosity                                    
VCL           .FT3/FT3             : 60       Elan Total Clay Volume                                 
RHGA          .G/CC                : 61       Elan Apparent Grain Density                            
SXBW          .FT3/FT3             : 62       Elan Flushed Bound Water Saturation                    
SUWI          .FT3/FT3             : 63       Elan Water Saturation                                  
SXWI          .FT3/FT3             : 64       Elan Flushed Water Saturation                          
WCHL          .LB/LB               : 65       Elan Weight Percent Chlorite                           
WILL          .LB/LB               : 66       Elan Weight Percent Illite                             
WQUA          .LB/LB               : 67       Elan Weight Percent Quartz                             
WPYR          .LB/LB               : 68       Elan Weight Percent Pyrite                             
WSM1          .LB/LB               : 69       Elan Weight Percent Special Mineral 1 Kerogen          
WCLC          .LB/LB               : 70       Elan Weight Percent Calcite                            
WDOL          .LB/LB               : 71       Elan Weight Percent Dolomite                           
WSID          .LB/LB               : 72       Elan Weight Percent Siderite                           
DWIC_SCHMOKER .LB/LB               : 73       Schmoker TOC                                           
DWIC_TERRATEK .LB/LB               : 74       Terratek TOC                                           
KINT          .MD                  : 75       Intrinsic Permeability                                 
KWTR          .MD                  : 76       Permeability to Water                                  
KGAS          .MD                  : 77       Permeability to Gas                                    
TGAS_ADSORBED .SCF/TON             : 78       Adsorbed Gas                                           
TGAS_FREE     .SCF/TON             : 79       Free Gas                                               
TGAS_TOTAL    .SCF/TON             : 80       Total Gas                                              
CGAS_ADSORBED .BCF/SECTION         : 81       Cumulative Adsorbed Gas                                
CGAS_FREE     .BCF/SECTION         : 82       Cumulative Free Gas                                    
CGAS_TOTAL    .BCF/SECTION         : 83       Cumulative Total Gas                                   
RES_FLAG      .                    : 84       Shale Gas Reservoir Flag                               
PAY_FLAG      .                    : 85       Shale Gas Pay Flag                                     
~Ascii Data Section                          
# ...
   3921.500000      0.000000      0.000000      0.018154    130.927994      5.909593      6.250000   1782.000000   2337.000000     65.627541     73.258095     47.006737      0.397193      5.790858      1.196573     -0.182658      2.802982      2.228700      2.137600      2.081788      2.064702      2.029994     -7.125000      0.259751      0.260517      4.455354      0.002053      0.257703      0.275127      2.269329     10.229451      0.058634      0.000000      0.908630      0.032736      0.000000      2.754847      0.012060      0.339213      0.013336      0.018090      0.000938      0.000002      0.017800      0.000004      0.040989      0.000000      0.012608      0.018007      0.539051      0.128771      0.000000      0.019521      0.225016      0.165831      0.016033      0.075219      0.059186      0.241049      0.260570      0.060514      2.743446      0.074915      0.687953      0.933487      0.000007      0.056596      0.000000      0.031015      0.011540      0.720121      0.180723      0.000000      0.108921      0.078159      0.003669      0.000010      0.001021      8.977328     97.484001    106.461327     15.958698     47.655113     63.613811      1.000000      0.000000
   3922.000000      0.000000      0.000000      0.041495    130.937042      5.932934      6.250000   1779.000000   2311.000000     94.947563    105.869438     70.820168      0.323142      8.797441      1.536549     -0.244776      2.668596      2.183560      2.110403      2.073980      2.066065      2.049844     -7.062500      0.281749      0.270197      4.490254      0.002101      0.260462      0.284945      2.264610     10.289789      0.086278      0.000000      0.865796      0.047926      0.000000      2.773530      0.018029      0.314953      0.019937      0.026906      0.000333      0.000003      0.024503      0.000004      0.059877      0.000000      0.018276      0.029709      0.499205      0.131943      0.000000      0.028516      0.215817      0.163049      0.016654      0.069422      0.052768      0.232471      0.260987      0.088397      2.741536      0.109261      0.701373      0.928362      0.000007      0.082780      0.000000      0.045012      0.019063      0.667731      0.185407      0.000000      0.110362      0.078822      0.000825      0.000010      0.000221     14.829860     90.169632    104.999489     15.949839     47.558903     63.508743      1.000000      0.000000
   3922.500000      0.000000      0.000000      0.028528    130.946091      5.952384      6.250000   1779.000000   2283.000000    129.653564    144.434036     99.597603      1.043013     12.251691      2.166004     -0.312921      2.629858      2.192491      2.130738      2.110612      2.111955      2.108796     -6.562500      0.314679      0.305642      4.561116      0.002140      0.261376      0.320641      2.263047     10.445511      0.084506      0.000000      0.861873      0.053621      0.000000      2.787190      0.017765      0.297343      0.019645      0.030285      0.000000      0.000005      0.031351      0.000004      0.056226      0.000000      0.019285      0.051514      0.616602      0.000000      0.000000      0.026777      0.229591      0.160776      0.000000      0.068815      0.068815      0.229591      0.256368      0.083007      2.678334      0.104447      0.700271      1.000000      0.000007      0.079073      0.000000      0.048316      0.033624      0.838980      0.000000      0.000000      0.110841      0.079042      0.000697      0.000010      0.000187     26.157482     89.453514    115.610992     15.935234     47.470097     63.405331      1.000000      0.000000
   3923.000000      0.000000      0.000000      0.023989    130.955124      5.999066      6.250000   1780.000000   2300.000000    157.187927    174.719681    119.340950      3.757752     14.302054      3.058711     -0.316939      2.901714      2.338830      2.256693      2.231901      2.249834      2.234541     -5.875000      0.325255      0.329009      4.625408      0.002474      0.255120      0.343990      2.273745     10.638977      0.126147      0.000000      0.826325      0.047528      0.000000      2.788317      0.026350      0.278292      0.029137      0.026671      0.000000      0.000005      0.036020      0.000004      0.085130      0.000000      0.016760      0.058742      0.589303      0.000000      0.000000      0.040542      0.209518      0.151650      0.000000      0.057869      0.057869      0.209518      0.250061      0.125677      2.660842      0.162130      0.723801      1.000000      0.000007      0.119496      0.000000      0.041910      0.038269      0.800318      0.000000      0.000000      0.107577      0.077539      0.000415      0.000010      0.000107     29.770864     74.878777    104.649643     15.909492     47.382057     63.291550      1.000000      0.000000
   3923.500000      0.000000      0.000000      0.013616    130.964172      6.045748      6.250000   1779.000000   2318.000000    158.035477    175.273911    120.634171      5.715556     14.306293      3.151605     -0.225739      3.344812      2.464419      2.396655      2.371821      2.369689      2.373793     -5.562500      0.326860      0.322114      4.711428      0.001811      0.250692      0.337126      2.281316     10.870160      0.139860      0.000000      0.817602      0.042538      0.000000      2.785476      0.028885      0.274480      0.031941      0.023603      0.000269      0.000005      0.036797      0.000004      0.096067      0.000000      0.015135      0.056061      0.591069      0.000000      0.000000      0.045751      0.195913      0.144288      0.000000      0.051625      0.051625      0.195913      0.241664      0.141822      2.662798      0.189315      0.736490      1.000000      0.000007      0.133256      0.000000      0.037401      0.036092      0.793245      0.000000      0.000000      0.105286      0.076475      0.000323      0.000010      0.000081     28.076677     66.585854     94.662529     15.880054     47.308014     63.188068      1.000000      0.000000
   3924.000000      0.000000      0.000000      0.019451    130.973221      6.034077      6.250000   1782.000000   2293.000000    152.561768    169.296570    117.325920      6.772826     13.807318      3.209622     -0.177832      3.521509      2.507496      2.444553      2.437191      2.449073      2.432990     -5.312500      0.311012      0.309620      4.776235      0.001506      0.249188      0.324644      2.283889     11.031163      0.182745      0.000000      0.774958      0.042297      0.000000      2.780602      0.036860      0.271771      0.040759      0.022920      0.000606      0.000006      0.034852      0.000004      0.129237      0.000000      0.015764      0.043419      0.571222      0.000000      0.000000      0.061547      0.178805      0.135097      0.000000      0.043708      0.043708      0.178805      0.240352      0.190789      2.692207      0.256071      0.755556      1.000000      0.000007      0.177003      0.000000      0.038464      0.027600      0.756927      0.000000      0.000000      0.104511      0.076114      0.000207      0.000010      0.000051     21.470568     56.317287     77.787857     15.852199     47.241951     63.094151      1.000000      0.000000
   3924.500000      0.000000      0.013225      0.015561    130.982254      6.045748      6.250000   1781.000000   2303.000000    147.109299    163.155914    121.543373      7.548271     14.187336      3.115253     -0.119307      3.579185      2.515357      2.478923      2.466992      2.466207      2.461980     -5.312500      0.316146      0.306429      4.831054      0.004431      0.246227      0.321451      2.288951     11.180619      0.193421      0.000000      0.752692      0.053887      0.000000      2.785849      0.039313      0.270767      0.043472      0.029425      0.000894      0.000006      0.033639      0.000004      0.138019      0.000000      0.020757      0.038052      0.558818      0.000000      0.000000      0.065729      0.178621      0.132526      0.000000      0.046095      0.046095      0.178621      0.244350      0.203752      2.718247      0.268996      0.741941      1.000000      0.000007      0.188209      0.000000      0.050425      0.024083      0.737276      0.000000      0.000000      0.102991      0.075402      0.000249      0.000010      0.000067     18.734756     59.268349     78.003105     15.830873     47.186012     63.016884      1.000000      0.000000
