~Version Information                         
VERS  .          2.0                                 :CWLS Log Ascii Standard - Version 2 
WRAP  .          NO                                  :One line per depth step             
~Well Information Block                      
#MNEM.UNIT  Data Type                                Information                                  
#---------  ---------                                ----------------------------------------     
STRT  .F     3750.0000                               :Start Depth                                 
STOP  .F     4270.0000                               :Stop Depth                                  
STEP  .F    0.50000                                  :Increment                                   
NULL  .    -999.25                                   :Null Data Value                             
COMP  .     Enerplus                                 :Company                                     
WELL  .     State 7-51-33-12                         :Well                                        
FLD   .     Wildcat                                  :Field                                       
LOC   .     NWNE Sec. 33, T 7N , R 51                :Location                                    
LOC1  .     SHL: 671 FNL / 1888 FEL                  :Location1                                   
STAT  .     Colorado                                 :State                                       
CNTY  .     Logan                                    :County                                      
CTRY  .     USA                                      :Country                                     
DATE  .     16-Dec-2009                              :Logging Date                                
UWI   .     05-075-09383-0000                        :Unique Well ID                              
API   .     05-075-09383-0000                        :API Number                                  
SRVC  .     SLB                                      :Service Company                             
~Curve Information Block                     
#MNEN.UNIT                         Curve      Description                       
#---------                         -----      -----------                       
DEPT          .F                   :  0       Index                             
RSOZ          .IN                  :  1       MCFL Standoff                                          
DSOZ          .IN                  :  2       Density Standoff                                       
HRUG          .1/FT                :  3       Hole Rugosity                                          
TEMP          .DEGF                :  4       Temperature                                            
HCAL          .IN                  :  5       Caliper                                                
BS            .IN                  :  6       Bit Size                                               
CS            .FT/HR               :  7       Cable Speed                                            
TENS          .LB                  :  8       Cable Tension                                          
GR_EC         .GAPI                :  9       Environmentally Corrected Gamma Ray                    
GR            .GAPI                : 10       Gamma Ray                                              
SGR           .GAPI                : 11       Standard Gamma Ray                                     
CGR           .GAPI                : 12       Computed Gamma Ray                                     
URAN          .PPM                 : 13       Uranium Concentration                                  
THOR          .PPM                 : 14       Thorium Concentration                                  
POTA          .PERCENT             : 15       Potassium Concentration                                
RXOZ          .OHMM                : 16       MCFL Resistivity                                       
AT10          .OHMM                : 17       10in Array Induction                                   
AT20          .OHMM                : 18       20in Array Induction                                   
AT30          .OHMM                : 19       20in Array Induction                                   
AT60          .OHMM                : 20       60in Array Induction                                   
AT90          .OHMM                : 21       90in Array Induction                                   
SP            .MV                  : 22       Spontaneous Potential                                  
NPHI          .FT3/FT3             : 23       Neutron NPHI Porosity                                  
TNPH          .FT3/FT3             : 24       Neutron TNPH Porosity                                  
PEFZ          .                    : 25       Photoelectic Factor                                    
HDRA          .G/CC                : 26       Density Correction                                     
DPHZ          .FT3/FT3             : 27       Density Porosity                                       
NPHU          .FT3/FT3             : 28       Environmentally Corrected Neutron Porosity             
RHOZ          .G/CC                : 29       Bulk Density                                           
UZ            .                    : 30       Volumetric Photoelectic Factor                         
WCLA_WALK2    .LB/LB               : 31       SpectroLith Weight Clay                                
WQFM_WALK2    .LB/LB               : 32       SpectroLith Weight QFM                                 
WCAR_WALK2    .LB/LB               : 33       SpectroLith Weight Carbonate                           
WPYR_WALK2    .LB/LB               : 34       SpectroLith Weight Pyrite                              
WSID_WALK2    .LB/LB               : 35       SpectroLith Weight Siderite                            
RHGE_WALK2    .G/CC                : 36       SpectroLith Matrix Bulk Density                        
DWAL_WALK2    .LB/LB               : 37       SpectroLith Dry Weight Aluminum(WALK2)                 
DWCA_WALK2    .LB/LB               : 38       SpectroLith Dry Weight Calcium                         
DWSI_WALK2    .LB/LB               : 39       SpectroLith Dry Weight Silicon                         
DWSU_WALK2    .LB/LB               : 40       SpectroLith Dry Weight Sulfur                          
DWTI_WALK2    .LB/LB               : 41       SpectroLith Dry Weight Titanium                        
DWGD_WALK2    .LB/LB               : 42       SpectroLith Dry Weight Gadolinium                      
DWFE_WALK2    .LB/LB               : 43       SpectroLith Dry Weight Iron(WALK2)                     
VCHL          .FT3/FT3             : 44       Elan Volume Chlorite                                   
VILL          .FT3/FT3             : 45       Elan Volume Illite                                     
VQUA          .FT3/FT3             : 46       Elan Volume Quartz                                     
VPYR          .FT3/FT3             : 47       Elan Volume Pyrite                                     
VSM1          .FT3/FT3             : 48       Elan Volume Special Mineral 1 Kerogen                  
VCLC          .FT3/FT3             : 49       Elan Volume Calcite                                    
VDOL          .FT3/FT3             : 50       Elan Volume Dolomite                                   
VSID          .FT3/FT3             : 51       Elan Volume Siderite                                   
VXBW          .FT3/FT3             : 52       Elan Clay Bound Water Volume                           
VXWA          .FT3/FT3             : 53       Elan Flushed Water Volume                              
VUWA          .FT3/FT3             : 54       Elan Water Volume                                      
VXGA          .FT3/FT3             : 55       Elan Flushed Gas Volume                                
VUGA          .FT3/FT3             : 56       Elan Gas Volume                                        
VMHY          .FT3/FT3             : 57       Elan Moved Hydrocarbon Volume                          
PIGN          .FT3/FT3             : 58       Elan Effective Porosity                                
PIGT          .FT3/FT3             : 59       Elan Total Porosity                                    
VCL           .FT3/FT3             : 60       Elan Total Clay Volume                                 
RHGA          .G/CC                : 61       Elan Apparent Grain Density                            
SXBW          .FT3/FT3             : 62       Elan Flushed Bound Water Saturation                    
SUWI          .FT3/FT3             : 63       Elan Water Saturation                                  
SXWI          .FT3/FT3             : 64       Elan Flushed Water Saturation                          
WCHL          .LB/LB               : 65       Elan Weight Percent Chlorite                           
WILL          .LB/LB               : 66       Elan Weight Percent Illite                             
WQUA          .LB/LB               : 67       Elan Weight Percent Quartz                             
WPYR          .LB/LB               : 68       Elan Weight Percent Pyrite                             
WSM1          .LB/LB               : 69       Elan Weight Percent Special Mineral 1 Kerogen          
WCLC          .LB/LB               : 70       Elan Weight Percent Calcite                            
WDOL          .LB/LB               : 71       Elan Weight Percent Dolomite                           
WSID          .LB/LB               : 72       Elan Weight Percent Siderite                           
DWIC_SCHMOKER .LB/LB               : 73       Schmoker TOC                                           
DWIC_TERRATEK .LB/LB               : 74       Terratek TOC                                           
KINT          .MD                  : 75       Intrinsic Permeability                                 
KWTR          .MD                  : 76       Permeability to Water                                  
KGAS          .MD                  : 77       Permeability to Gas                                    
TGAS_ADSORBED .SCF/TON             : 78       Adsorbed Gas                                           
TGAS_FREE     .SCF/TON             : 79       Free Gas                                               
TGAS_TOTAL    .SCF/TON             : 80       Total Gas                                              
CGAS_ADSORBED .BCF/SECTION         : 81       Cumulative Adsorbed Gas                                
CGAS_FREE     .BCF/SECTION         : 82       Cumulative Free Gas                                    
CGAS_TOTAL    .BCF/SECTION         : 83       Cumulative Total Gas                                   
RES_FLAG      .                    : 84       Shale Gas Reservoir Flag                               
PAY_FLAG      .                    : 85       Shale Gas Pay Flag                                     
~Ascii Data Section                          
# ...
   4163.000000      0.000000      0.011096      0.022044    135.296005      6.096320      6.250000   1846.000000   2420.000000    108.231285    119.750755     92.748596     27.584816      8.473738      3.618830      0.890376      3.908843      2.782727      2.702561      2.645301      2.609719      2.627937    -14.125000      0.280701      0.272251      4.212690      0.002954      0.229091      0.287013      2.318254      9.864850      0.098007      0.037352      0.845950      0.018692      0.000000      2.731434      0.019499      0.342360      0.034537      0.009991      0.001311      0.000004      0.010020      0.020349      0.051593      0.004955      0.007882      0.050352      0.451687      0.195255      0.000000      0.027071      0.188535      0.138145      0.002322      0.052712      0.050390      0.190857      0.217928      0.099013      2.690414      0.124218      0.723815      0.987833      0.029326      0.068682      0.006240      0.018692      0.031110      0.581756      0.264194      0.000000      0.094324      0.071285      0.001498      0.000010      0.000360     24.071424     70.585449     94.656876      2.828408     10.965178     13.793587      1.000000      0.000000
   4163.500000      0.000000      0.008729      0.018802    135.305038      6.045748      6.250000   1840.000000   2379.000000    104.793968    116.224846     88.864235     25.198038      8.236544      3.429477      0.792197      3.912772      2.798149      2.783472      2.726977      2.675197      2.691061    -14.812500      0.283286      0.268668      4.296387      0.001655      0.237697      0.283381      2.303538     10.001774      0.112652      0.030915      0.832980      0.023453      0.000000      2.739835      0.022413      0.337539      0.035745      0.016403      0.000607      0.000004      0.010917      0.009530      0.073542      0.003799      0.009800      0.041841      0.487775      0.145756      0.000000      0.036194      0.183909      0.134806      0.007855      0.056958      0.049103      0.191764      0.227958      0.119266      2.700742      0.158774      0.702977      0.959036      0.013860      0.098793      0.004828      0.023453      0.026087      0.633964      0.199017      0.000000      0.098649      0.073353      0.001413      0.000010      0.000398     20.184855     76.767136     96.951988      2.804140     10.894013     13.698153      1.000000      0.000000
   4164.000000      0.000000      0.007932      0.022692    135.314087      6.045748      6.250000   1838.000000   2350.000000    108.170097    119.969246     96.765945     26.760365      9.032959      3.165529      0.922715      3.981821      2.820379      2.807325      2.788197      2.735847      2.740367    -15.312500      0.309439      0.282609      4.339756      0.001689      0.249674      0.297470      2.283057     10.019700      0.119307      0.033569      0.821048      0.026076      0.000000      2.739650      0.023736      0.333103      0.038158      0.014954      0.000586      0.000004      0.012139      0.024271      0.061538      0.003713      0.010773      0.045529      0.451329      0.164744      0.000007      0.032288      0.191888      0.135243      0.013920      0.070565      0.056645      0.205808      0.238096      0.118097      2.704941      0.135610      0.657131      0.932363      0.035712      0.083636      0.004775      0.026084      0.028720      0.593478      0.227582      0.000013      0.104762      0.076231      0.001349      0.000010      0.000427     22.221619     95.969635    118.191254      2.783920     10.817107     13.601027      1.000000      0.000000
   4164.500000      0.000000      0.009676      0.007780    135.323135      6.026297      6.250000   1837.000000   2341.000000    116.161934    128.951447     95.256859     24.784521      9.182996      2.475646      0.932498      3.918655      2.840199      2.815079      2.774874      2.678646      2.706651    -15.312500      0.329895      0.298939      4.358318      0.002238      0.258204      0.313930      2.268471     10.003166      0.114291      0.055121      0.810323      0.020265      0.000000      2.733746      0.022738      0.329116      0.044216      0.010832      0.001136      0.000002      0.011950      0.022974      0.058249      0.015613      0.008272      0.054173      0.504124      0.099388      0.000016      0.030563      0.204618      0.136568      0.002012      0.070061      0.068050      0.206629      0.237192      0.111785      2.667895      0.128852      0.660932      0.990265      0.034232      0.080171      0.020330      0.020282      0.034605      0.671309      0.139040      0.000031      0.109182      0.078280      0.000942      0.000010      0.000290     26.775055     95.907333    122.682388      2.761857     10.721818     13.483675      1.000000      0.000000
   4165.000000      0.000000      0.025794      0.009725    135.332169      6.034077      6.250000   1838.000000   2339.000000    105.977547    117.602440     83.961098     21.466774      8.173330      2.085256      0.817741      3.856060      2.915284      2.896830      2.818562      2.776287      2.766249    -15.500000      0.305011      0.286334      4.402225      0.008794      0.242541      0.301243      2.295255     10.214099      0.104030      0.064211      0.819738      0.012022      0.000000      2.727647      0.020697      0.332616      0.043388      0.006426      0.001556      0.000000      0.011148      0.021219      0.053800      0.026321      0.005009      0.047137      0.545552      0.074129      0.000060      0.028228      0.198544      0.134937      0.000000      0.063607      0.063607      0.198544      0.226772      0.103247      2.665175      0.124479      0.679631      1.000000      0.031223      0.073124      0.033847      0.012130      0.029735      0.717418      0.102411      0.000112      0.101108      0.074517      0.000864      0.000010      0.000248     23.007097     86.065536    109.072632      2.735443     10.627199     13.362642      1.000000      0.000000
   4165.500000      0.000000      0.049111      0.024638    135.341217      5.999066      6.250000   1840.000000   2326.000000     85.490753     95.025856     63.880257     16.223989      6.287279      1.879856      0.566123      4.622172      3.025439      2.983264      2.943049      2.917520      2.881883    -15.312500      0.258830      0.253275      4.488807      0.018104      0.212684      0.267711      2.346310     10.629086      0.110570      0.070215      0.809098      0.010117      0.000000      2.727335      0.021998      0.328661      0.045614      0.005407      0.001778      0.000000      0.011998      0.023307      0.059094      0.043226      0.004354      0.026290      0.590740      0.043552      0.000044      0.031006      0.178387      0.129857      0.000000      0.048530      0.048530      0.178387      0.209393      0.113407      2.696305      0.148076      0.727950      1.000000      0.033155      0.077647      0.053736      0.010191      0.016033      0.750994      0.058165      0.000080      0.086228      0.067344      0.000559      0.000010      0.000135     12.404856     64.243034     76.647888      2.712478     10.541287     13.253765      1.000000      0.000000
   4166.000000      0.000000      0.074441      0.018802    135.350266      6.045748      6.250000   1838.000000   2354.000000     67.447678     74.804840     51.572464     13.012423      5.051744      1.516516      0.452558      5.045518      3.131773      3.094444      3.084939      3.128292      2.996316    -15.312500      0.227422      0.223214      4.522311      0.029432      0.181939      0.236975      2.398885     10.930543      0.116528      0.063264      0.811664      0.008544      0.000000      2.728147      0.023184      0.329615      0.042218      0.004567      0.001660      0.000001      0.012883      0.025348      0.064269      0.048653      0.003791      0.007528      0.608290      0.048774      0.000027      0.033721      0.159597      0.124822      0.000000      0.034775      0.034775      0.159597      0.193319      0.123339      2.729641      0.174434      0.782105      1.000000      0.034908      0.081754      0.058553      0.008591      0.004445      0.748639      0.063062      0.000048      0.071567      0.059957      0.000426      0.000010      0.000081      3.438850     45.030861     48.469711      2.699821     10.475733     13.175553      1.000000      0.000000
