~Version Information                         
VERS  .          2.0                                 :CWLS Log Ascii Standard - Version 2 
WRAP  .          NO                                  :One line per depth step             
~Well Information Block                      
#MNEM.UNIT  Data Type                                Information                                  
#---------  ---------                                ----------------------------------------     
STRT  .F     3750.0000                               :Start Depth                                 
STOP  .F     4270.0000                               :Stop Depth                                  
STEP  .F    0.50000                                  :Increment                                   
NULL  .    -999.25                                   :Null Data Value                             
COMP  .     Enerplus                                 :Company                                     
WELL  .     State 7-51-33-12                         :Well                                        
FLD   .     Wildcat                                  :Field                                       
LOC   .     NWNE Sec. 33, T 7N , R 51                :Location                                    
LOC1  .     SHL: 671 FNL / 1888 FEL                  :Location1                                   
STAT  .     Colorado                                 :State                                       
CNTY  .     Logan                                    :County                                      
CTRY  .     USA                                      :Country                                     
DATE  .     16-Dec-2009                              :Logging Date                                
UWI   .     05-075-09383-0000                        :Unique Well ID                              
API   .     05-075-09383-0000                        :API Number                                  
SRVC  .     SLB                                      :Service Company                             
~Curve Information Block                     
#MNEN.UNIT                         Curve      Description                       
#---------                         -----      -----------                       
DEPT          .F                   :  0       Index                             
RSOZ          .IN                  :  1       MCFL Standoff                                          
DSOZ          .IN                  :  2       Density Standoff                                       
HRUG          .1/FT                :  3       Hole Rugosity                                          
TEMP          .DEGF                :  4       Temperature                                            
HCAL          .IN                  :  5       Caliper                                                
BS            .IN                  :  6       Bit Size                                               
CS            .FT/HR               :  7       Cable Speed                                            
TENS          .LB                  :  8       Cable Tension                                          
GR_EC         .GAPI                :  9       Environmentally Corrected Gamma Ray                    
GR            .GAPI                : 10       Gamma Ray                                              
SGR           .GAPI                : 11       Standard Gamma Ray                                     
CGR           .GAPI                : 12       Computed Gamma Ray                                     
URAN          .PPM                 : 13       Uranium Concentration                                  
THOR          .PPM                 : 14       Thorium Concentration                                  
POTA          .PERCENT             : 15       Potassium Concentration                                
RXOZ          .OHMM                : 16       MCFL Resistivity                                       
AT10          .OHMM                : 17       10in Array Induction                                   
AT20          .OHMM                : 18       20in Array Induction                                   
AT30          .OHMM                : 19       20in Array Induction                                   
AT60          .OHMM                : 20       60in Array Induction                                   
AT90          .OHMM                : 21       90in Array Induction                                   
SP            .MV                  : 22       Spontaneous Potential                                  
NPHI          .FT3/FT3             : 23       Neutron NPHI Porosity                                  
TNPH          .FT3/FT3             : 24       Neutron TNPH Porosity                                  
PEFZ          .                    : 25       Photoelectic Factor                                    
HDRA          .G/CC                : 26       Density Correction                                     
DPHZ          .FT3/FT3             : 27       Density Porosity                                       
NPHU          .FT3/FT3             : 28       Environmentally Corrected Neutron Porosity             
RHOZ          .G/CC                : 29       Bulk Density                                           
UZ            .                    : 30       Volumetric Photoelectic Factor                         
WCLA_WALK2    .LB/LB               : 31       SpectroLith Weight Clay                                
WQFM_WALK2    .LB/LB               : 32       SpectroLith Weight QFM                                 
WCAR_WALK2    .LB/LB               : 33       SpectroLith Weight Carbonate                           
WPYR_WALK2    .LB/LB               : 34       SpectroLith Weight Pyrite                              
WSID_WALK2    .LB/LB               : 35       SpectroLith Weight Siderite                            
RHGE_WALK2    .G/CC                : 36       SpectroLith Matrix Bulk Density                        
DWAL_WALK2    .LB/LB               : 37       SpectroLith Dry Weight Aluminum(WALK2)                 
DWCA_WALK2    .LB/LB               : 38       SpectroLith Dry Weight Calcium                         
DWSI_WALK2    .LB/LB               : 39       SpectroLith Dry Weight Silicon                         
DWSU_WALK2    .LB/LB               : 40       SpectroLith Dry Weight Sulfur                          
DWTI_WALK2    .LB/LB               : 41       SpectroLith Dry Weight Titanium                        
DWGD_WALK2    .LB/LB               : 42       SpectroLith Dry Weight Gadolinium                      
DWFE_WALK2    .LB/LB               : 43       SpectroLith Dry Weight Iron(WALK2)                     
VCHL          .FT3/FT3             : 44       Elan Volume Chlorite                                   
VILL          .FT3/FT3             : 45       Elan Volume Illite                                     
VQUA          .FT3/FT3             : 46       Elan Volume Quartz                                     
VPYR          .FT3/FT3             : 47       Elan Volume Pyrite                                     
VSM1          .FT3/FT3             : 48       Elan Volume Special Mineral 1 Kerogen                  
VCLC          .FT3/FT3             : 49       Elan Volume Calcite                                    
VDOL          .FT3/FT3             : 50       Elan Volume Dolomite                                   
VSID          .FT3/FT3             : 51       Elan Volume Siderite                                   
VXBW          .FT3/FT3             : 52       Elan Clay Bound Water Volume                           
VXWA          .FT3/FT3             : 53       Elan Flushed Water Volume                              
VUWA          .FT3/FT3             : 54       Elan Water Volume                                      
VXGA          .FT3/FT3             : 55       Elan Flushed Gas Volume                                
VUGA          .FT3/FT3             : 56       Elan Gas Volume                                        
VMHY          .FT3/FT3             : 57       Elan Moved Hydrocarbon Volume                          
PIGN          .FT3/FT3             : 58       Elan Effective Porosity                                
PIGT          .FT3/FT3             : 59       Elan Total Porosity                                    
VCL           .FT3/FT3             : 60       Elan Total Clay Volume                                 
RHGA          .G/CC                : 61       Elan Apparent Grain Density                            
SXBW          .FT3/FT3             : 62       Elan Flushed Bound Water Saturation                    
SUWI          .FT3/FT3             : 63       Elan Water Saturation                                  
SXWI          .FT3/FT3             : 64       Elan Flushed Water Saturation                          
WCHL          .LB/LB               : 65       Elan Weight Percent Chlorite                           
WILL          .LB/LB               : 66       Elan Weight Percent Illite                             
WQUA          .LB/LB               : 67       Elan Weight Percent Quartz                             
WPYR          .LB/LB               : 68       Elan Weight Percent Pyrite                             
WSM1          .LB/LB               : 69       Elan Weight Percent Special Mineral 1 Kerogen          
WCLC          .LB/LB               : 70       Elan Weight Percent Calcite                            
WDOL          .LB/LB               : 71       Elan Weight Percent Dolomite                           
WSID          .LB/LB               : 72       Elan Weight Percent Siderite                           
DWIC_SCHMOKER .LB/LB               : 73       Schmoker TOC                                           
DWIC_TERRATEK .LB/LB               : 74       Terratek TOC                                           
KINT          .MD                  : 75       Intrinsic Permeability                                 
KWTR          .MD                  : 76       Permeability to Water                                  
KGAS          .MD                  : 77       Permeability to Gas                                    
TGAS_ADSORBED .SCF/TON             : 78       Adsorbed Gas                                           
TGAS_FREE     .SCF/TON             : 79       Free Gas                                               
TGAS_TOTAL    .SCF/TON             : 80       Total Gas                                              
CGAS_ADSORBED .BCF/SECTION         : 81       Cumulative Adsorbed Gas                                
CGAS_FREE     .BCF/SECTION         : 82       Cumulative Free Gas                                    
CGAS_TOTAL    .BCF/SECTION         : 83       Cumulative Total Gas                                   
RES_FLAG      .                    : 84       Shale Gas Reservoir Flag                               
PAY_FLAG      .                    : 85       Shale Gas Pay Flag                                     
~Ascii Data Section                          
# ...
   3886.500000      0.000000      0.000000      0.025933    130.294952      6.127441      6.250000   1797.000000   2302.000000    180.084106    198.959152    142.904678     29.808792     14.155445      5.724945      0.652361      4.238980      3.185376      3.140414      3.163180      3.188268      3.217432     -2.187500      0.308249      0.303951      3.985077     -0.001441      0.227391      0.318969      2.321162      9.342676      0.267400      0.183409      0.490637      0.058554      0.000000      2.767822      0.053200      0.210274      0.131232      0.032903      0.001514      0.000006      0.027257      0.050164      0.147496      0.117090      0.024805      0.059553      0.148525      0.222918      0.000000      0.076406      0.132683      0.104202      0.020361      0.048842      0.028481      0.153043      0.229449      0.274066      2.743346      0.332996      0.680863      0.866960      0.071961      0.195439      0.146785      0.058554      0.036624      0.190409      0.300228      0.000000      0.093476      0.070877      0.000510      0.000010      0.000163     28.510990     61.382027     89.893021     17.300476     52.889206     70.189682      1.000000      0.000000
   3887.000000      0.000000      0.015554      0.042143    130.304001      6.135221      6.250000   1794.000000   2320.000000    181.316925    200.247849    145.034058     32.145348     14.087173      6.233047      0.693356      4.140377      3.010504      3.021225      3.025945      3.027939      3.072818     -2.250000      0.323240      0.304365      3.966151     -0.002918      0.228146      0.319385      2.319871      9.293521      0.275891      0.193063      0.470035      0.061010      0.000000      2.768679      0.054889      0.202615      0.136847      0.032610      0.001081      0.000004      0.028597      0.047892      0.156097      0.125564      0.025812      0.057573      0.139263      0.215990      0.000000      0.080222      0.130309      0.104942      0.021277      0.046644      0.025367      0.151586      0.231809      0.284211      2.748240      0.346072      0.692295      0.859640      0.068790      0.207101      0.157612      0.061010      0.035452      0.178764      0.291271      0.000000      0.093852      0.071058      0.000523      0.000010      0.000161     27.598377     58.659069     86.257446     17.271696     52.827244     70.098938      1.000000      0.000000
   3887.500000      0.000000      0.034274      0.027231    130.313049      6.127441      6.250000   1798.000000   2313.000000    182.976868    202.155106    148.206696     32.799538     14.317827      6.351341      0.708926      4.136302      2.914297      2.905416      2.897702      2.907093      2.939842     -2.125000      0.348430      0.325639      3.967952     -0.004299      0.229450      0.340628      2.317640      9.289469      0.298781      0.207615      0.431014      0.062590      0.000000      2.772160      0.059443      0.188109      0.145685      0.033454      0.001043      0.000002      0.031276      0.061768      0.156609      0.137250      0.026296      0.054684      0.099928      0.222117      0.000020      0.082171      0.140528      0.107304      0.018628      0.051852      0.033224      0.159156      0.241328      0.300549      2.761715      0.340497      0.674204      0.882955      0.089396      0.209362      0.173591      0.062626      0.033929      0.129248      0.301812      0.000037      0.094503      0.071372      0.000450      0.000010      0.000142     26.412424     65.279846     91.692268     17.243853     52.768063     70.011917      1.000000      0.000000
   3888.000000      0.000000      0.040067      0.016857    130.322083      6.139112      6.250000   1793.000000   2313.000000    185.441833    204.765945    145.461151     32.501785     14.052987      6.010813      0.750806      3.990883      2.964566      2.971933      2.966058      2.951889      2.995830     -2.187500      0.335622      0.337975      3.910344     -0.004389      0.228542      0.352898      2.319193      9.160278      0.315823      0.234939      0.393109      0.056130      0.000000      2.770073      0.062834      0.174018      0.155749      0.030002      0.001472      0.000002      0.033657      0.064974      0.164738      0.159197      0.023484      0.052103      0.112135      0.181261      0.000036      0.086437      0.145845      0.103135      0.009790      0.052499      0.042709      0.155635      0.242071      0.316149      2.751348      0.357071      0.662677      0.937095      0.094483      0.221276      0.202306      0.056194      0.032481      0.145726      0.247468      0.000066      0.094050      0.071153      0.000336      0.000010      0.000108     25.285349     66.057648     91.342995     17.217232     52.702263     69.919495      1.000000      0.000000
   3888.500000      0.000000      0.024514      0.022044    130.331131      6.127441      6.250000   1794.000000   2328.000000    182.398758    201.516403    143.291946     33.670677     13.356592      5.856661      0.841060      3.948979      2.955861      2.992063      2.988505      2.974406      3.022266     -2.437500      0.331397      0.329523      3.734680     -0.002360      0.223207      0.344503      2.328316      8.780602      0.320032      0.274806      0.359802      0.045361      0.000000      2.763432      0.063671      0.161636      0.168034      0.024245      0.001682      0.000005      0.034881      0.066222      0.167903      0.194439      0.019092      0.046812      0.104885      0.165295      0.000034      0.088097      0.140695      0.100075      0.006526      0.047146      0.040620      0.147221      0.235318      0.322223      2.742918      0.374375      0.679758      0.955673      0.095741      0.224222      0.245661      0.045420      0.029014      0.135515      0.224365      0.000063      0.091398      0.069872      0.000365      0.000010      0.000111     22.585976     59.096771     81.682747     17.191730     52.635635     69.827362      1.000000      0.000000
   3889.000000      0.000000      0.005794      0.021396    130.340179      6.135221      6.250000   1788.000000   2309.000000    177.876205    196.447891    137.672913     33.140778     12.694289      5.929487      0.799638      3.731628      2.975269      2.963954      2.989814      2.985562      3.028031     -2.187500      0.344533      0.330748      3.563761     -0.000589      0.219179      0.345723      2.335204      8.401685      0.311784      0.301535      0.351729      0.034952      0.000000      2.755873      0.062030      0.158635      0.173800      0.018682      0.001752      0.000007      0.034619      0.064525      0.163600      0.216467      0.014727      0.044661      0.094199      0.169401      0.000052      0.085840      0.146527      0.101175      0.000000      0.045352      0.045352      0.146527      0.232367      0.313965      2.731595      0.369415      0.690485      1.000000      0.093314      0.218538      0.273570      0.035047      0.027689      0.121744      0.230003      0.000095      0.089410      0.068904      0.000620      0.000010      0.000188     21.554190     56.686981     78.241173     17.168861     52.575794     69.744659      1.000000      0.000000
   3889.500000      0.000000      0.000000      0.020747    130.349213      6.119660      6.250000   1789.000000   2290.000000    167.980713    185.655197    131.897064     31.061045     12.225948      5.319203      0.790138      3.927729      3.016150      2.976511      3.015683      2.981170      3.034849     -2.375000      0.344309      0.337867      3.527444      0.000210      0.216287      0.352792      2.340149      8.332363      0.295674      0.321567      0.352129      0.030630      0.000000      2.750420      0.058825      0.158784      0.178962      0.016371      0.001387      0.000007      0.033122      0.060954      0.154546      0.232322      0.012904      0.040987      0.081930      0.179915      0.000124      0.081089      0.155229      0.105229      0.000000      0.050000      0.050000      0.155229      0.236318      0.296589      2.731211      0.343135      0.677894      1.000000      0.088618      0.207541      0.295167      0.030872      0.025546      0.106449      0.245577      0.000230      0.087989      0.068209      0.001067      0.000010      0.000337     19.885929     62.371845     82.257774     17.146973     52.518223     69.665192      1.000000      0.000000
