~Version Information                         
VERS  .          2.0                                 :CWLS Log Ascii Standard - Version 2 
WRAP  .          NO                                  :One line per depth step             
~Well Information Block                      
#MNEM.UNIT  Data Type                                Information                                  
#---------  ---------                                ----------------------------------------     
STRT  .F     3750.0000                               :Start Depth                                 
STOP  .F     4270.0000                               :Stop Depth                                  
STEP  .F    0.50000                                  :Increment                                   
NULL  .    -999.25                                   :Null Data Value                             
COMP  .     Enerplus                                 :Company                                     
WELL  .     State 7-51-33-12                         :Well                                        
FLD   .     Wildcat                                  :Field                                       
LOC   .     NWNE Sec. 33, T 7N , R 51                :Location                                    
LOC1  .     SHL: 671 FNL / 1888 FEL                  :Location1                                   
STAT  .     Colorado                                 :State                                       
CNTY  .     Logan                                    :County                                      
CTRY  .     USA                                      :Country                                     
DATE  .     16-Dec-2009                              :Logging Date                                
UWI   .     05-075-09383-0000                        :Unique Well ID                              
API   .     05-075-09383-0000                        :API Number                                  
SRVC  .     SLB                                      :Service Company                             
~Curve Information Block                     
#MNEN.UNIT                         Curve      Description                       
#---------                         -----      -----------                       
DEPT          .F                   :  0       Index                             
RSOZ          .IN                  :  1       MCFL Standoff                                          
DSOZ          .IN                  :  2       Density Standoff                                       
HRUG          .1/FT                :  3       Hole Rugosity                                          
TEMP          .DEGF                :  4       Temperature                                            
HCAL          .IN                  :  5       Caliper                                                
BS            .IN                  :  6       Bit Size                                               
CS            .FT/HR               :  7       Cable Speed                                            
TENS          .LB                  :  8       Cable Tension                                          
GR_EC         .GAPI                :  9       Environmentally Corrected Gamma Ray                    
GR            .GAPI                : 10       Gamma Ray                                              
SGR           .GAPI                : 11       Standard Gamma Ray                                     
CGR           .GAPI                : 12       Computed Gamma Ray                                     
URAN          .PPM                 : 13       Uranium Concentration                                  
THOR          .PPM                 : 14       Thorium Concentration                                  
POTA          .PERCENT             : 15       Potassium Concentration                                
RXOZ          .OHMM                : 16       MCFL Resistivity                                       
AT10          .OHMM                : 17       10in Array Induction                                   
AT20          .OHMM                : 18       20in Array Induction                                   
AT30          .OHMM                : 19       20in Array Induction                                   
AT60          .OHMM                : 20       60in Array Induction                                   
AT90          .OHMM                : 21       90in Array Induction                                   
SP            .MV                  : 22       Spontaneous Potential                                  
NPHI          .FT3/FT3             : 23       Neutron NPHI Porosity                                  
TNPH          .FT3/FT3             : 24       Neutron TNPH Porosity                                  
PEFZ          .                    : 25       Photoelectic Factor                                    
HDRA          .G/CC                : 26       Density Correction                                     
DPHZ          .FT3/FT3             : 27       Density Porosity                                       
NPHU          .FT3/FT3             : 28       Environmentally Corrected Neutron Porosity             
RHOZ          .G/CC                : 29       Bulk Density                                           
UZ            .                    : 30       Volumetric Photoelectic Factor                         
WCLA_WALK2    .LB/LB               : 31       SpectroLith Weight Clay                                
WQFM_WALK2    .LB/LB               : 32       SpectroLith Weight QFM                                 
WCAR_WALK2    .LB/LB               : 33       SpectroLith Weight Carbonate                           
WPYR_WALK2    .LB/LB               : 34       SpectroLith Weight Pyrite                              
WSID_WALK2    .LB/LB               : 35       SpectroLith Weight Siderite                            
RHGE_WALK2    .G/CC                : 36       SpectroLith Matrix Bulk Density                        
DWAL_WALK2    .LB/LB               : 37       SpectroLith Dry Weight Aluminum(WALK2)                 
DWCA_WALK2    .LB/LB               : 38       SpectroLith Dry Weight Calcium                         
DWSI_WALK2    .LB/LB               : 39       SpectroLith Dry Weight Silicon                         
DWSU_WALK2    .LB/LB               : 40       SpectroLith Dry Weight Sulfur                          
DWTI_WALK2    .LB/LB               : 41       SpectroLith Dry Weight Titanium                        
DWGD_WALK2    .LB/LB               : 42       SpectroLith Dry Weight Gadolinium                      
DWFE_WALK2    .LB/LB               : 43       SpectroLith Dry Weight Iron(WALK2)                     
VCHL          .FT3/FT3             : 44       Elan Volume Chlorite                                   
VILL          .FT3/FT3             : 45       Elan Volume Illite                                     
VQUA          .FT3/FT3             : 46       Elan Volume Quartz                                     
VPYR          .FT3/FT3             : 47       Elan Volume Pyrite                                     
VSM1          .FT3/FT3             : 48       Elan Volume Special Mineral 1 Kerogen                  
VCLC          .FT3/FT3             : 49       Elan Volume Calcite                                    
VDOL          .FT3/FT3             : 50       Elan Volume Dolomite                                   
VSID          .FT3/FT3             : 51       Elan Volume Siderite                                   
VXBW          .FT3/FT3             : 52       Elan Clay Bound Water Volume                           
VXWA          .FT3/FT3             : 53       Elan Flushed Water Volume                              
VUWA          .FT3/FT3             : 54       Elan Water Volume                                      
VXGA          .FT3/FT3             : 55       Elan Flushed Gas Volume                                
VUGA          .FT3/FT3             : 56       Elan Gas Volume                                        
VMHY          .FT3/FT3             : 57       Elan Moved Hydrocarbon Volume                          
PIGN          .FT3/FT3             : 58       Elan Effective Porosity                                
PIGT          .FT3/FT3             : 59       Elan Total Porosity                                    
VCL           .FT3/FT3             : 60       Elan Total Clay Volume                                 
RHGA          .G/CC                : 61       Elan Apparent Grain Density                            
SXBW          .FT3/FT3             : 62       Elan Flushed Bound Water Saturation                    
SUWI          .FT3/FT3             : 63       Elan Water Saturation                                  
SXWI          .FT3/FT3             : 64       Elan Flushed Water Saturation                          
WCHL          .LB/LB               : 65       Elan Weight Percent Chlorite                           
WILL          .LB/LB               : 66       Elan Weight Percent Illite                             
WQUA          .LB/LB               : 67       Elan Weight Percent Quartz                             
WPYR          .LB/LB               : 68       Elan Weight Percent Pyrite                             
WSM1          .LB/LB               : 69       Elan Weight Percent Special Mineral 1 Kerogen          
WCLC          .LB/LB               : 70       Elan Weight Percent Calcite                            
WDOL          .LB/LB               : 71       Elan Weight Percent Dolomite                           
WSID          .LB/LB               : 72       Elan Weight Percent Siderite                           
DWIC_SCHMOKER .LB/LB               : 73       Schmoker TOC                                           
DWIC_TERRATEK .LB/LB               : 74       Terratek TOC                                           
KINT          .MD                  : 75       Intrinsic Permeability                                 
KWTR          .MD                  : 76       Permeability to Water                                  
KGAS          .MD                  : 77       Permeability to Gas                                    
TGAS_ADSORBED .SCF/TON             : 78       Adsorbed Gas                                           
TGAS_FREE     .SCF/TON             : 79       Free Gas                                               
TGAS_TOTAL    .SCF/TON             : 80       Total Gas                                              
CGAS_ADSORBED .BCF/SECTION         : 81       Cumulative Adsorbed Gas                                
CGAS_FREE     .BCF/SECTION         : 82       Cumulative Free Gas                                    
CGAS_TOTAL    .BCF/SECTION         : 83       Cumulative Total Gas                                   
RES_FLAG      .                    : 84       Shale Gas Reservoir Flag                               
PAY_FLAG      .                    : 85       Shale Gas Pay Flag                                     
~Ascii Data Section                          
# ...
   3956.500000      0.000000      0.000000      0.031769    131.561050      6.127441      6.250000   1782.000000   2273.000000    179.186935    197.967941    145.351944     25.565817     15.111906      5.203519      0.509342      4.129029      3.018743      2.947376      2.986667      2.935088      2.907737     -6.000000      0.358652      0.349370      4.505346     -0.001312      0.236863      0.364182      2.304964     10.494223      0.354770      0.060439      0.517863      0.066927      0.000000      2.792624      0.070583      0.220395      0.088140      0.035772      0.000707      0.000003      0.037888      0.072475      0.183755      0.027479      0.027808      0.039803      0.196286      0.189870      0.000048      0.096414      0.136957      0.100580      0.029104      0.065481      0.036377      0.166062      0.262476      0.352644      2.807336      0.367327      0.605680      0.824739      0.106145      0.248589      0.035171      0.067020      0.024991      0.256914      0.261080      0.000091      0.098228      0.073153      0.000125      0.000010      0.000047     19.428486     84.230934    103.659424     14.339789     42.841339     57.181129      1.000000      0.000000
   3957.000000      0.000000      0.000000      0.025934    131.570084      6.135221      6.250000   1777.000000   2283.000000    197.389633    217.998672    155.359879     30.049494     15.802106      5.758392      0.659762      3.768570      2.931931      2.977819      3.044755      2.996068      3.002305     -6.187500      0.353319      0.357279      4.464366     -0.001537      0.227818      0.371996      2.320431     10.463282      0.389253      0.067079      0.478200      0.065469      0.000000      2.797113      0.077443      0.205650      0.092928      0.034993      0.000740      0.000004      0.042172      0.080199      0.203339      0.030956      0.027436      0.044210      0.171159      0.187897      0.000048      0.106690      0.123295      0.089107      0.024770      0.058959      0.034188      0.148065      0.254756      0.390228      2.801941      0.418794      0.601806      0.832706      0.116465      0.272757      0.039286      0.065564      0.027524      0.222131      0.256183      0.000090      0.093689      0.070979      0.000068      0.000010      0.000025     21.397120     75.343658     96.740776     14.320314     42.756905     57.077217      1.000000      0.000000
   3957.500000      0.000000      0.000000      0.024637    131.579132      6.135221      6.250000   1770.000000   2406.000000    205.435928    226.885056    165.738388     32.341530     16.795176      6.399354      0.675624      3.759742      2.931317      2.942881      2.982807      2.960887      2.919743     -5.875000      0.347451      0.349347      4.395643     -0.000528      0.216505      0.364163      2.339776     10.381653      0.443708      0.055646      0.427231      0.073414      0.000000      2.807172      0.086221      0.186703      0.100068      0.039240      0.001471      0.000003      0.046663      0.093059      0.235945      0.028197      0.031293      0.033147      0.053496      0.268008      0.000032      0.123798      0.090458      0.076931      0.042567      0.056094      0.013527      0.133025      0.256823      0.452802      2.859555      0.482036      0.578320      0.680009      0.132786      0.310980      0.035160      0.073479      0.020277      0.068218      0.359042      0.000058      0.088096      0.068261      0.000063      0.000010      0.000024     15.763230     71.098213     86.861443     14.298722     42.680870     56.979591      1.000000      0.000000
   3958.000000      0.000000      0.000000      0.019451    131.588181      6.139112      6.250000   1794.000000   2298.000000    209.994431    231.877060    171.527603     35.859898     16.982727      6.290997      0.886541      3.804802      2.982763      3.023387      2.969580      2.949647      2.932963     -5.687500      0.343573      0.343101      4.360878     -0.000295      0.210933      0.357983      2.349304     10.338363      0.451511      0.106234      0.368641      0.073614      0.000000      2.804500      0.087382      0.164922      0.123599      0.039347      0.001966      0.000006      0.047165      0.095365      0.241792      0.069525      0.031599      0.032824      0.053893      0.225816      0.000032      0.126866      0.081617      0.072025      0.040672      0.050263      0.009592      0.122289      0.249155      0.464022      2.850260      0.509185      0.588977      0.667411      0.135126      0.316460      0.086090      0.073678      0.019939      0.068244      0.300405      0.000058      0.085376      0.066923      0.000048      0.000010      0.000017     15.500319     63.457092     78.957413     14.282682     42.608521     56.891205      1.000000      0.000000
   3958.500000      0.000000      0.000000      0.015561    131.597214      6.115770      6.250000   1791.000000   2260.000000    208.155624    230.099365    172.282593     34.080750     17.167284      5.673127      0.894777      4.049462      2.921015      3.005470      3.032480      2.994139      2.975018     -5.937500      0.359681      0.334608      4.307943     -0.000065      0.208318      0.349562      2.353776     10.230864      0.427201      0.152737      0.343975      0.076087      0.000000      2.799808      0.083742      0.155753      0.141136      0.040669      0.002291      0.000008      0.044634      0.090559      0.229606      0.105438      0.032781      0.037094      0.052736      0.209320      0.000034      0.120472      0.084311      0.074870      0.037651      0.047092      0.009441      0.121962      0.242434      0.440636      2.835292      0.496927      0.613876      0.691287      0.127849      0.299418      0.130084      0.076155      0.022451      0.066536      0.277447      0.000061      0.084107      0.066295      0.000061      0.000010      0.000020     17.452702     59.347580     76.800278     14.266847     42.543686     56.810532      1.000000      0.000000
   3959.000000      0.000000      0.000000      0.013616    131.606262      6.139112      6.250000   1761.000000   2418.000000    202.931183    224.077774    168.026566     34.676826     16.643988      5.686245      0.925128      4.129461      2.951553      3.035944      2.994103      2.979750      2.979562     -5.625000      0.368551      0.345333      4.268654     -0.000184      0.210559      0.360194      2.349945     10.122279      0.375570      0.198367      0.351831      0.074232      0.000000      2.789805      0.074721      0.158673      0.153536      0.039677      0.001496      0.000008      0.039571      0.078711      0.199566      0.134910      0.031650      0.048689      0.105224      0.162412      0.000059      0.104710      0.116520      0.087441      0.017550      0.046629      0.029080      0.134070      0.238780      0.382987      2.790491      0.438521      0.652201      0.869101      0.112364      0.263153      0.168305      0.074350      0.029798      0.134243      0.217679      0.000107      0.085194      0.066833      0.000087      0.000010      0.000027     23.163961     58.866669     82.030632     14.248981     42.482933     56.731915      1.000000      0.000000
   3959.500000      0.000000      0.000000      0.026582    131.615311      6.127441      6.250000   1775.000000   2371.000000    189.826157    209.722290    159.457611     36.258018     15.477165      6.089352      0.942748      3.604280      2.942046      3.033726      2.912513      2.953828      2.995499     -5.187500      0.370143      0.345805      4.242414      0.000564      0.213792      0.360662      2.344416     10.038143      0.356838      0.175198      0.388757      0.079206      0.000000      2.791749      0.070994      0.172400      0.144608      0.043568      0.001007      0.000007      0.036871      0.074307      0.188402      0.117840      0.033531      0.043972      0.081399      0.210772      0.000035      0.098853      0.133579      0.094452      0.017311      0.056438      0.039127      0.150890      0.249742      0.361562      2.813161      0.395819      0.625965      0.885273      0.106761      0.250031      0.147956      0.079276      0.027084      0.104517      0.284312      0.000064      0.086769      0.067610      0.000182      0.000010      0.000064     21.054291     71.425636     92.479927     14.225309     42.422771     56.648079      1.000000      0.000000
