~Version Information                         
VERS  .          2.0                                 :CWLS Log Ascii Standard - Version 2 
WRAP  .          NO                                  :One line per depth step             
~Well Information Block                      
#MNEM.UNIT  Data Type                                Information                                  
#---------  ---------                                ----------------------------------------     
STRT  .F     3750.0000                               :Start Depth                                 
STOP  .F     4270.0000                               :Stop Depth                                  
STEP  .F    0.50000                                  :Increment                                   
NULL  .    -999.25                                   :Null Data Value                             
COMP  .     Enerplus                                 :Company                                     
WELL  .     State 7-51-33-12                         :Well                                        
FLD   .     Wildcat                                  :Field                                       
LOC   .     NWNE Sec. 33, T 7N , R 51                :Location                                    
LOC1  .     SHL: 671 FNL / 1888 FEL                  :Location1                                   
STAT  .     Colorado                                 :State                                       
CNTY  .     Logan                                    :County                                      
CTRY  .     USA                                      :Country                                     
DATE  .     16-Dec-2009                              :Logging Date                                
UWI   .     05-075-09383-0000                        :Unique Well ID                              
API   .     05-075-09383-0000                        :API Number                                  
SRVC  .     SLB                                      :Service Company                             
~Curve Information Block                     
#MNEN.UNIT                         Curve      Description                       
#---------                         -----      -----------                       
DEPT          .F                   :  0       Index                             
RSOZ          .IN                  :  1       MCFL Standoff                                          
DSOZ          .IN                  :  2       Density Standoff                                       
HRUG          .1/FT                :  3       Hole Rugosity                                          
TEMP          .DEGF                :  4       Temperature                                            
HCAL          .IN                  :  5       Caliper                                                
BS            .IN                  :  6       Bit Size                                               
CS            .FT/HR               :  7       Cable Speed                                            
TENS          .LB                  :  8       Cable Tension                                          
GR_EC         .GAPI                :  9       Environmentally Corrected Gamma Ray                    
GR            .GAPI                : 10       Gamma Ray                                              
SGR           .GAPI                : 11       Standard Gamma Ray                                     
CGR           .GAPI                : 12       Computed Gamma Ray                                     
URAN          .PPM                 : 13       Uranium Concentration                                  
THOR          .PPM                 : 14       Thorium Concentration                                  
POTA          .PERCENT             : 15       Potassium Concentration                                
RXOZ          .OHMM                : 16       MCFL Resistivity                                       
AT10          .OHMM                : 17       10in Array Induction                                   
AT20          .OHMM                : 18       20in Array Induction                                   
AT30          .OHMM                : 19       20in Array Induction                                   
AT60          .OHMM                : 20       60in Array Induction                                   
AT90          .OHMM                : 21       90in Array Induction                                   
SP            .MV                  : 22       Spontaneous Potential                                  
NPHI          .FT3/FT3             : 23       Neutron NPHI Porosity                                  
TNPH          .FT3/FT3             : 24       Neutron TNPH Porosity                                  
PEFZ          .                    : 25       Photoelectic Factor                                    
HDRA          .G/CC                : 26       Density Correction                                     
DPHZ          .FT3/FT3             : 27       Density Porosity                                       
NPHU          .FT3/FT3             : 28       Environmentally Corrected Neutron Porosity             
RHOZ          .G/CC                : 29       Bulk Density                                           
UZ            .                    : 30       Volumetric Photoelectic Factor                         
WCLA_WALK2    .LB/LB               : 31       SpectroLith Weight Clay                                
WQFM_WALK2    .LB/LB               : 32       SpectroLith Weight QFM                                 
WCAR_WALK2    .LB/LB               : 33       SpectroLith Weight Carbonate                           
WPYR_WALK2    .LB/LB               : 34       SpectroLith Weight Pyrite                              
WSID_WALK2    .LB/LB               : 35       SpectroLith Weight Siderite                            
RHGE_WALK2    .G/CC                : 36       SpectroLith Matrix Bulk Density                        
DWAL_WALK2    .LB/LB               : 37       SpectroLith Dry Weight Aluminum(WALK2)                 
DWCA_WALK2    .LB/LB               : 38       SpectroLith Dry Weight Calcium                         
DWSI_WALK2    .LB/LB               : 39       SpectroLith Dry Weight Silicon                         
DWSU_WALK2    .LB/LB               : 40       SpectroLith Dry Weight Sulfur                          
DWTI_WALK2    .LB/LB               : 41       SpectroLith Dry Weight Titanium                        
DWGD_WALK2    .LB/LB               : 42       SpectroLith Dry Weight Gadolinium                      
DWFE_WALK2    .LB/LB               : 43       SpectroLith Dry Weight Iron(WALK2)                     
VCHL          .FT3/FT3             : 44       Elan Volume Chlorite                                   
VILL          .FT3/FT3             : 45       Elan Volume Illite                                     
VQUA          .FT3/FT3             : 46       Elan Volume Quartz                                     
VPYR          .FT3/FT3             : 47       Elan Volume Pyrite                                     
VSM1          .FT3/FT3             : 48       Elan Volume Special Mineral 1 Kerogen                  
VCLC          .FT3/FT3             : 49       Elan Volume Calcite                                    
VDOL          .FT3/FT3             : 50       Elan Volume Dolomite                                   
VSID          .FT3/FT3             : 51       Elan Volume Siderite                                   
VXBW          .FT3/FT3             : 52       Elan Clay Bound Water Volume                           
VXWA          .FT3/FT3             : 53       Elan Flushed Water Volume                              
VUWA          .FT3/FT3             : 54       Elan Water Volume                                      
VXGA          .FT3/FT3             : 55       Elan Flushed Gas Volume                                
VUGA          .FT3/FT3             : 56       Elan Gas Volume                                        
VMHY          .FT3/FT3             : 57       Elan Moved Hydrocarbon Volume                          
PIGN          .FT3/FT3             : 58       Elan Effective Porosity                                
PIGT          .FT3/FT3             : 59       Elan Total Porosity                                    
VCL           .FT3/FT3             : 60       Elan Total Clay Volume                                 
RHGA          .G/CC                : 61       Elan Apparent Grain Density                            
SXBW          .FT3/FT3             : 62       Elan Flushed Bound Water Saturation                    
SUWI          .FT3/FT3             : 63       Elan Water Saturation                                  
SXWI          .FT3/FT3             : 64       Elan Flushed Water Saturation                          
WCHL          .LB/LB               : 65       Elan Weight Percent Chlorite                           
WILL          .LB/LB               : 66       Elan Weight Percent Illite                             
WQUA          .LB/LB               : 67       Elan Weight Percent Quartz                             
WPYR          .LB/LB               : 68       Elan Weight Percent Pyrite                             
WSM1          .LB/LB               : 69       Elan Weight Percent Special Mineral 1 Kerogen          
WCLC          .LB/LB               : 70       Elan Weight Percent Calcite                            
WDOL          .LB/LB               : 71       Elan Weight Percent Dolomite                           
WSID          .LB/LB               : 72       Elan Weight Percent Siderite                           
DWIC_SCHMOKER .LB/LB               : 73       Schmoker TOC                                           
DWIC_TERRATEK .LB/LB               : 74       Terratek TOC                                           
KINT          .MD                  : 75       Intrinsic Permeability                                 
KWTR          .MD                  : 76       Permeability to Water                                  
KGAS          .MD                  : 77       Permeability to Gas                                    
TGAS_ADSORBED .SCF/TON             : 78       Adsorbed Gas                                           
TGAS_FREE     .SCF/TON             : 79       Free Gas                                               
TGAS_TOTAL    .SCF/TON             : 80       Total Gas                                              
CGAS_ADSORBED .BCF/SECTION         : 81       Cumulative Adsorbed Gas                                
CGAS_FREE     .BCF/SECTION         : 82       Cumulative Free Gas                                    
CGAS_TOTAL    .BCF/SECTION         : 83       Cumulative Total Gas                                   
RES_FLAG      .                    : 84       Shale Gas Reservoir Flag                               
PAY_FLAG      .                    : 85       Shale Gas Pay Flag                                     
~Ascii Data Section                          
# ...
   3820.000000      0.000000      0.030207      0.043440    129.092178      6.150782      6.250000   1793.000000   2360.000000    220.211700    243.025574    162.887924     62.302753     12.425117      9.515550      1.781966      2.566404      1.991818      2.037402      2.043163      2.043197      2.065953      0.500000      0.399023      0.400028      3.092760     -0.003565      0.217433      0.413841      2.338189      7.299911      0.596552      0.369386      0.000000      0.034062      0.000000      2.779501      0.107776      0.014089      0.261628      0.018206      0.004756      0.000018      0.061093      0.083495      0.301536      0.254841      0.013918      0.064688      0.000000      0.000325      0.000000      0.155518      0.105695      0.078617      0.019984      0.047062      0.027078      0.125679      0.281197      0.540549      2.858572      0.553056      0.625535      0.840990      0.123319      0.472837      0.328668      0.033799      0.040927      0.000000      0.000450      0.000000      0.088552      0.068484      0.000026      0.000010      0.000007     31.898863     57.794865     89.693726     22.853424     57.115654     79.969078      1.000000      0.000000
   3820.500000      0.000000      0.030744      0.014264    129.101212      6.139112      6.250000   1811.000000   2266.000000    211.314026    233.334167    156.285843     61.211899     11.711829      9.120391      1.789805      2.586596      2.019580      2.098397      2.099548      2.063483      2.095481      0.562500      0.384785      0.381465      3.066324     -0.003935      0.212808      0.395734      2.346099      7.260173      0.620586      0.347778      0.004030      0.027606      0.000000      2.780651      0.110965      0.029379      0.238493      0.014756      0.003965      0.000016      0.062559      0.069599      0.334316      0.247687      0.011407      0.050653      0.000000      0.003130      0.000000      0.169571      0.082201      0.066910      0.031436      0.046727      0.015291      0.113637      0.283208      0.573486      2.896867      0.598751      0.588808      0.723367      0.101721      0.518760      0.316101      0.027412      0.031712      0.000000      0.004292      0.000000      0.086288      0.067373      0.000020      0.000010      0.000006     24.716684     57.195869     81.912552     22.820988     57.056885     79.877869      1.000000      1.000000
   3821.000000      0.000000      0.032330      0.012967    129.110260      6.139112      6.250000   1793.000000   2326.000000    199.539246    220.332382    147.584946     59.137383     10.866462      8.160180      1.840364      2.562670      2.009584      2.081127      2.091832      2.065847      2.097922      0.312500      0.380030      0.369358      3.111141     -0.004937      0.207972      0.383865      2.354368      7.390320      0.658814      0.316168      0.000000      0.025018      0.000000      2.791040      0.115939      0.027716      0.228283      0.013372      0.003269      0.000012      0.069041      0.056928      0.374215      0.233824      0.010432      0.031979      0.000000      0.000067      0.000000      0.187203      0.063021      0.056167      0.042331      0.049185      0.006854      0.105352      0.292555      0.618346      2.957058      0.639890      0.533139      0.598195      0.082586      0.576368      0.296198      0.024885      0.019872      0.000000      0.000091      0.000000      0.083939      0.066211      0.000015      0.000010      0.000005     15.488551     60.000690     75.489243     22.795771     56.998528     79.794296      1.000000      0.000000
   3821.500000      0.000000      0.025787      0.018153    129.119308      6.127441      6.250000   1783.000000   2357.000000    192.815155    213.024582    137.504700     55.722500      9.984015      7.783539      1.717942      2.400045      1.989283      2.052085      2.051735      2.047420      2.064448      0.250000      0.387179      0.365965      3.199268     -0.004287      0.199047      0.380532      2.369630      7.645276      0.693122      0.291429      0.000000      0.015449      0.000000      2.795996      0.120308      0.022165      0.223529      0.008258      0.002895      0.000010      0.075339      0.068896      0.389699      0.223035      0.006509      0.018789      0.000000      0.000000      0.000000      0.196143      0.053529      0.049596      0.043399      0.047333      0.003934      0.096928      0.293071      0.654738      2.988510      0.669267      0.511675      0.552256      0.098968      0.594334      0.279761      0.015375      0.011562      0.000000      0.000000      0.000000      0.079645      0.064067      0.000011      0.000010      0.000004      9.011069     57.376144     66.387215     22.779913     56.937092     79.717003      1.000000      0.000000
   3822.000000      0.000000      0.006463      0.019450    129.128342      6.143001      6.250000   1790.000000   2287.000000    190.014847    209.777084    134.778107     53.047405      9.877270      7.424742      1.632932      2.335575      1.930875      1.992737      1.999161      2.000817      2.012007      0.375000      0.383306      0.381030      3.297984     -0.002954      0.191653      0.395307      2.382273      7.920133      0.726366      0.268255      0.000000      0.005379      0.000000      2.786430      0.124459      0.006378      0.236950      0.002875      0.002085      0.000009      0.075233      0.104337      0.380593      0.209208      0.002254      0.011538      0.000000      0.000000      0.000000      0.196161      0.053594      0.048915      0.042314      0.046994      0.004680      0.095908      0.292070      0.681091      2.999698      0.671625      0.510014      0.558806      0.149107      0.577463      0.261069      0.005297      0.007064      0.000000      0.000000      0.000000      0.076130      0.062291      0.000010      0.000010      0.000003      5.505240     56.669827     62.175068     22.770626     56.877964     79.648590      1.000000      0.000000
   3822.500000      0.000000      0.017353      0.022693    129.137390      6.166342      6.250000   1787.000000   2306.000000    193.620544    213.523361    133.553009     52.715763      9.708177      7.614469      1.582390      2.279921      1.892600      1.949261      1.951858      1.977677      1.989860      0.187500      0.388404      0.378866      3.333326     -0.003236      0.190843      0.393189      2.383658      8.009318      0.719975      0.277008      0.000000      0.003017      0.000000      2.774430      0.123667      0.000000      0.249888      0.001612      0.001838      0.000012      0.070377      0.111844      0.370747      0.215051      0.001259      0.015382      0.000000      0.000000      0.000000      0.192354      0.053937      0.049633      0.039425      0.043730      0.004304      0.093363      0.285716      0.674945      2.982223      0.673233      0.531615      0.577718      0.159343      0.560787      0.267532      0.002950      0.009387      0.000000      0.000000      0.000000      0.075747      0.062096      0.000010      0.000010      0.000003      7.316362     52.709354     60.025719     22.764923     56.819252     79.584175      1.000000      0.000000
   3823.000000      0.000000      0.017353      0.022693    129.146439      6.150782      6.250000   1787.000000   2306.000000    198.468536    219.029831    139.774979     54.907192     10.288248      8.004869      1.635556      2.229558      1.850373      1.904942      1.901074      1.918382      1.941571      0.312500      0.378393      0.377966      3.318427     -0.003114      0.193406      0.392309      2.379276      7.959934      0.588470      0.411530      0.000000      0.000000      0.000000      2.762448      0.106693      0.000000      0.276065      0.000000      0.001181      0.000014      0.064687      0.111593      0.282290      0.307385      0.000053      0.043842      0.000000      0.000000      0.000080      0.149743      0.098678      0.076346      0.006336      0.028669      0.022332      0.105014      0.254758      0.543627      2.845182      0.587787      0.727003      0.939662      0.159720      0.428963      0.384167      0.000124      0.026880      0.000000      0.000000      0.000146      0.076960      0.062712      0.000039      0.000010      0.000007     20.949169     34.623451     55.572620     22.757339     56.764610     79.521950      1.000000      0.000000
