~Version Information                         
VERS  .          2.0                                 :CWLS Log Ascii Standard - Version 2 
WRAP  .          NO                                  :One line per depth step             
~Well Information Block                      
#MNEM.UNIT  Data Type                                Information                                  
#---------  ---------                                ----------------------------------------     
STRT  .F     3750.0000                               :Start Depth                                 
STOP  .F     4270.0000                               :Stop Depth                                  
STEP  .F    0.50000                                  :Increment                                   
NULL  .    -999.25                                   :Null Data Value                             
COMP  .     Enerplus                                 :Company                                     
WELL  .     State 7-51-33-12                         :Well                                        
FLD   .     Wildcat                                  :Field                                       
LOC   .     NWNE Sec. 33, T 7N , R 51                :Location                                    
LOC1  .     SHL: 671 FNL / 1888 FEL                  :Location1                                   
STAT  .     Colorado                                 :State                                       
CNTY  .     Logan                                    :County                                      
CTRY  .     USA                                      :Country                                     
DATE  .     16-Dec-2009                              :Logging Date                                
UWI   .     05-075-09383-0000                        :Unique Well ID                              
API   .     05-075-09383-0000                        :API Number                                  
SRVC  .     SLB                                      :Service Company                             
~Curve Information Block                     
#MNEN.UNIT                         Curve      Description                       
#---------                         -----      -----------                       
DEPT          .F                   :  0       Index                             
RSOZ          .IN                  :  1       MCFL Standoff                                          
DSOZ          .IN                  :  2       Density Standoff                                       
HRUG          .1/FT                :  3       Hole Rugosity                                          
TEMP          .DEGF                :  4       Temperature                                            
HCAL          .IN                  :  5       Caliper                                                
BS            .IN                  :  6       Bit Size                                               
CS            .FT/HR               :  7       Cable Speed                                            
TENS          .LB                  :  8       Cable Tension                                          
GR_EC         .GAPI                :  9       Environmentally Corrected Gamma Ray                    
GR            .GAPI                : 10       Gamma Ray                                              
SGR           .GAPI                : 11       Standard Gamma Ray                                     
CGR           .GAPI                : 12       Computed Gamma Ray                                     
URAN          .PPM                 : 13       Uranium Concentration                                  
THOR          .PPM                 : 14       Thorium Concentration                                  
POTA          .PERCENT             : 15       Potassium Concentration                                
RXOZ          .OHMM                : 16       MCFL Resistivity                                       
AT10          .OHMM                : 17       10in Array Induction                                   
AT20          .OHMM                : 18       20in Array Induction                                   
AT30          .OHMM                : 19       20in Array Induction                                   
AT60          .OHMM                : 20       60in Array Induction                                   
AT90          .OHMM                : 21       90in Array Induction                                   
SP            .MV                  : 22       Spontaneous Potential                                  
NPHI          .FT3/FT3             : 23       Neutron NPHI Porosity                                  
TNPH          .FT3/FT3             : 24       Neutron TNPH Porosity                                  
PEFZ          .                    : 25       Photoelectic Factor                                    
HDRA          .G/CC                : 26       Density Correction                                     
DPHZ          .FT3/FT3             : 27       Density Porosity                                       
NPHU          .FT3/FT3             : 28       Environmentally Corrected Neutron Porosity             
RHOZ          .G/CC                : 29       Bulk Density                                           
UZ            .                    : 30       Volumetric Photoelectic Factor                         
WCLA_WALK2    .LB/LB               : 31       SpectroLith Weight Clay                                
WQFM_WALK2    .LB/LB               : 32       SpectroLith Weight QFM                                 
WCAR_WALK2    .LB/LB               : 33       SpectroLith Weight Carbonate                           
WPYR_WALK2    .LB/LB               : 34       SpectroLith Weight Pyrite                              
WSID_WALK2    .LB/LB               : 35       SpectroLith Weight Siderite                            
RHGE_WALK2    .G/CC                : 36       SpectroLith Matrix Bulk Density                        
DWAL_WALK2    .LB/LB               : 37       SpectroLith Dry Weight Aluminum(WALK2)                 
DWCA_WALK2    .LB/LB               : 38       SpectroLith Dry Weight Calcium                         
DWSI_WALK2    .LB/LB               : 39       SpectroLith Dry Weight Silicon                         
DWSU_WALK2    .LB/LB               : 40       SpectroLith Dry Weight Sulfur                          
DWTI_WALK2    .LB/LB               : 41       SpectroLith Dry Weight Titanium                        
DWGD_WALK2    .LB/LB               : 42       SpectroLith Dry Weight Gadolinium                      
DWFE_WALK2    .LB/LB               : 43       SpectroLith Dry Weight Iron(WALK2)                     
VCHL          .FT3/FT3             : 44       Elan Volume Chlorite                                   
VILL          .FT3/FT3             : 45       Elan Volume Illite                                     
VQUA          .FT3/FT3             : 46       Elan Volume Quartz                                     
VPYR          .FT3/FT3             : 47       Elan Volume Pyrite                                     
VSM1          .FT3/FT3             : 48       Elan Volume Special Mineral 1 Kerogen                  
VCLC          .FT3/FT3             : 49       Elan Volume Calcite                                    
VDOL          .FT3/FT3             : 50       Elan Volume Dolomite                                   
VSID          .FT3/FT3             : 51       Elan Volume Siderite                                   
VXBW          .FT3/FT3             : 52       Elan Clay Bound Water Volume                           
VXWA          .FT3/FT3             : 53       Elan Flushed Water Volume                              
VUWA          .FT3/FT3             : 54       Elan Water Volume                                      
VXGA          .FT3/FT3             : 55       Elan Flushed Gas Volume                                
VUGA          .FT3/FT3             : 56       Elan Gas Volume                                        
VMHY          .FT3/FT3             : 57       Elan Moved Hydrocarbon Volume                          
PIGN          .FT3/FT3             : 58       Elan Effective Porosity                                
PIGT          .FT3/FT3             : 59       Elan Total Porosity                                    
VCL           .FT3/FT3             : 60       Elan Total Clay Volume                                 
RHGA          .G/CC                : 61       Elan Apparent Grain Density                            
SXBW          .FT3/FT3             : 62       Elan Flushed Bound Water Saturation                    
SUWI          .FT3/FT3             : 63       Elan Water Saturation                                  
SXWI          .FT3/FT3             : 64       Elan Flushed Water Saturation                          
WCHL          .LB/LB               : 65       Elan Weight Percent Chlorite                           
WILL          .LB/LB               : 66       Elan Weight Percent Illite                             
WQUA          .LB/LB               : 67       Elan Weight Percent Quartz                             
WPYR          .LB/LB               : 68       Elan Weight Percent Pyrite                             
WSM1          .LB/LB               : 69       Elan Weight Percent Special Mineral 1 Kerogen          
WCLC          .LB/LB               : 70       Elan Weight Percent Calcite                            
WDOL          .LB/LB               : 71       Elan Weight Percent Dolomite                           
WSID          .LB/LB               : 72       Elan Weight Percent Siderite                           
DWIC_SCHMOKER .LB/LB               : 73       Schmoker TOC                                           
DWIC_TERRATEK .LB/LB               : 74       Terratek TOC                                           
KINT          .MD                  : 75       Intrinsic Permeability                                 
KWTR          .MD                  : 76       Permeability to Water                                  
KGAS          .MD                  : 77       Permeability to Gas                                    
TGAS_ADSORBED .SCF/TON             : 78       Adsorbed Gas                                           
TGAS_FREE     .SCF/TON             : 79       Free Gas                                               
TGAS_TOTAL    .SCF/TON             : 80       Total Gas                                              
CGAS_ADSORBED .BCF/SECTION         : 81       Cumulative Adsorbed Gas                                
CGAS_FREE     .BCF/SECTION         : 82       Cumulative Free Gas                                    
CGAS_TOTAL    .BCF/SECTION         : 83       Cumulative Total Gas                                   
RES_FLAG      .                    : 84       Shale Gas Reservoir Flag                               
PAY_FLAG      .                    : 85       Shale Gas Pay Flag                                     
~Ascii Data Section                          
# ...
   4233.000000      0.000000      0.051656      0.018802    136.562088      5.785108      6.250000   1790.000000   2424.000000     43.371964     48.703823     32.010563      3.990042      4.107419      0.449143      0.141462      4.127157      3.523577      3.511562      3.531138      3.457962      3.554684    -19.375000      0.201008      0.184609      4.674791      0.021431      0.144148      0.197019      2.463507     11.581319      0.083153      0.048406      0.852199      0.016242      0.000000      2.729212      0.016543      0.344684      0.037748      0.011662      0.001864      0.000000      0.007561      0.018440      0.046752      0.041612      0.007512      0.000000      0.637663      0.075809      0.000098      0.024530      0.147585      0.114942      0.000000      0.032643      0.032643      0.147585      0.172115      0.089722      2.752675      0.142523      0.778819      1.000000      0.024536      0.057463      0.048388      0.016448      0.000000      0.758291      0.094707      0.000166      0.054404      0.050877      0.000455      0.000010      0.000091      0.000000     41.752224     41.752224      0.767147      2.032840      2.799987      1.000000      0.000000
   4233.500000      0.021931      0.045585      0.023341    136.571136      5.722866      6.250000   1795.000000   2377.000000     34.521885     38.881886     27.321152      3.696109      3.550147      0.367699      0.139298      5.125651      3.687584      3.677408      3.677959      3.640988      3.697978    -19.500000      0.195682      0.176435      4.683982      0.018809      0.148763      0.188499      2.455615     11.569552      0.083697      0.051288      0.852601      0.012413      0.000000      2.724823      0.016652      0.344833      0.036681      0.006635      0.002260      0.000000      0.008377      0.018189      0.046118      0.044793      0.005804      0.000000      0.678254      0.039428      0.000144      0.024198      0.143072      0.112311      0.000000      0.030762      0.030762      0.143072      0.167270      0.088505      2.741434      0.144662      0.784993      1.000000      0.024161      0.056585      0.051996      0.012686      0.000000      0.805155      0.049171      0.000245      0.056452      0.051986      0.000338      0.000010      0.000067      0.000000     39.476391     39.476391      0.767147      1.988107      2.755254      1.000000      0.000000
   4234.000000      0.033976      0.036812      0.028528    136.580170      5.691745      6.250000   1803.000000   2414.000000     30.276493     34.151478     24.694242      2.128916      3.359791      0.232672      0.076668      4.990149      3.518111      3.553524      3.687316      3.636406      3.715120    -19.500000      0.196518      0.177471      4.670835      0.014616      0.152688      0.189576      2.448903     11.507791      0.082293      0.046913      0.867889      0.002905      0.000000      2.720776      0.016372      0.350516      0.029897      0.001553      0.002263      0.000000      0.008907      0.017627      0.044692      0.040782      0.001490      0.000000      0.710609      0.017581      0.000202      0.023449      0.143568      0.112246      0.000000      0.031322      0.031322      0.143568      0.167017      0.085768      2.726020      0.140401      0.781831      1.000000      0.023539      0.055128      0.047594      0.003273      0.000000      0.848076      0.022043      0.000346      0.058204      0.052929      0.000312      0.000010      0.000062      0.000000     40.310066     40.310066      0.767147      1.945948      2.713095      1.000000      0.000000
   4234.500000      0.023328      0.028299      0.025935    136.589218      5.707305      6.250000   1789.000000   2444.000000     28.144194     31.722473     23.145788      2.939802      3.001679      0.410949      0.090555      5.142947      3.877804      3.756579      3.851151      3.846218      3.857073    -19.125000      0.187153      0.177545      4.643167      0.009066      0.153348      0.189654      2.447775     11.434731      0.073192      0.042305      0.878598      0.005906      0.000000      2.720997      0.014562      0.354497      0.028662      0.003157      0.002124      0.000000      0.007634      0.015653      0.039687      0.036866      0.002837      0.000000      0.690966      0.045007      0.000178      0.020823      0.147983      0.111033      0.000000      0.036951      0.036951      0.147983      0.168807      0.076163      2.733205      0.123356      0.750306      1.000000      0.020893      0.048931      0.043003      0.006231      0.000000      0.824236      0.056402      0.000304      0.058499      0.053088      0.000413      0.000010      0.000094      0.000000     47.580742     47.580742      0.767147      1.903016      2.670163      1.000000      0.000000
   4235.000000      0.019733      0.021517      0.025934    136.598267      5.668404      6.250000   1788.000000   2456.000000     28.486794     32.168926     25.110479      2.030993      3.425105      0.262554      0.066210      6.161066      4.207717      4.116805      4.134743      4.097468      4.169286    -19.687500      0.171278      0.168882      4.574464      0.007063      0.148934      0.180603      2.455323     11.297795      0.068504      0.023495      0.895008      0.012993      0.000000      2.726405      0.013629      0.360598      0.024163      0.009361      0.002097      0.000000      0.006048      0.014856      0.037668      0.020985      0.006091      0.000000      0.618044      0.134517      0.000133      0.019764      0.139146      0.106875      0.008795      0.041066      0.032271      0.147942      0.167706      0.072288      2.757376      0.117849      0.722415      0.940550      0.019630      0.045974      0.024231      0.013244      0.000000      0.729820      0.166875      0.000226      0.056528      0.052027      0.000690      0.000010      0.000180      0.000000     52.723480     52.723480      0.767147      1.852365      2.619511      1.000000      0.000000
   4235.500000      0.000000      0.020888      0.022044    136.607300      5.683964      6.250000   1793.000000   2401.000000     37.979843     42.856831     34.111729      2.237951      4.802799      0.098195      0.105595      6.048966      3.757685      3.954900      3.951366      3.854984      3.944126    -19.750000      0.183996      0.167210      4.487516      0.007758      0.145538      0.178855      2.461130     11.107400      0.078797      0.017385      0.890157      0.013661      0.000000      2.731548      0.015677      0.358794      0.023460      0.013525      0.002195      0.000000      0.006359      0.017509      0.044392      0.015617      0.006380      0.000000      0.568238      0.180961      0.000073      0.023292      0.131716      0.108904      0.011823      0.034635      0.022812      0.143539      0.166831      0.085193      2.767815      0.139615      0.758705      0.917632      0.023023      0.053920      0.017946      0.013805      0.000000      0.667774      0.223410      0.000123      0.055020      0.051211      0.000579      0.000010      0.000131      0.000000     44.366623     44.366623      0.767147      1.796065      2.563212      1.000000      0.000000
   4236.000000      0.000000      0.030695      0.022044    136.616348      5.738427      6.250000   1794.000000   2372.000000     51.876949     58.385113     40.314388      4.159601      5.463855      0.410775      0.157279      4.511758      3.525953      3.544739      3.492681      3.409615      3.510952    -19.812500      0.204572      0.184898      4.450795      0.016878      0.146092      0.197306      2.460182     11.012568      0.081930      0.001099      0.900226      0.016745      0.000000      2.733073      0.016300      0.360501      0.018025      0.012303      0.002293      0.000000      0.007795      0.000004      0.066776      0.000414      0.007670      0.001058      0.577324      0.172298      0.000000      0.031801      0.142655      0.113943      0.000000      0.028712      0.028712      0.142655      0.174456      0.098581      2.765301      0.182287      0.798731      1.000000      0.000006      0.081931      0.000480      0.016765      0.000603      0.685341      0.214874      0.000000      0.055265      0.051344      0.000645      0.000010      0.000124      0.465510     36.797329     37.262840      0.767147      1.748577      2.515724      1.000000      0.000000
