~Version Information                         
VERS  .          2.0                                 :CWLS Log Ascii Standard - Version 2 
WRAP  .          NO                                  :One line per depth step             
~Well Information Block                      
#MNEM.UNIT  Data Type                                Information                                  
#---------  ---------                                ----------------------------------------     
STRT  .F     3750.0000                               :Start Depth                                 
STOP  .F     4270.0000                               :Stop Depth                                  
STEP  .F    0.50000                                  :Increment                                   
NULL  .    -999.25                                   :Null Data Value                             
COMP  .     Enerplus                                 :Company                                     
WELL  .     State 7-51-33-12                         :Well                                        
FLD   .     Wildcat                                  :Field                                       
LOC   .     NWNE Sec. 33, T 7N , R 51                :Location                                    
LOC1  .     SHL: 671 FNL / 1888 FEL                  :Location1                                   
STAT  .     Colorado                                 :State                                       
CNTY  .     Logan                                    :County                                      
CTRY  .     USA                                      :Country                                     
DATE  .     16-Dec-2009                              :Logging Date                                
UWI   .     05-075-09383-0000                        :Unique Well ID                              
API   .     05-075-09383-0000                        :API Number                                  
SRVC  .     SLB                                      :Service Company                             
~Curve Information Block                     
#MNEN.UNIT                         Curve      Description                       
#---------                         -----      -----------                       
DEPT          .F                   :  0       Index                             
RSOZ          .IN                  :  1       MCFL Standoff                                          
DSOZ          .IN                  :  2       Density Standoff                                       
HRUG          .1/FT                :  3       Hole Rugosity                                          
TEMP          .DEGF                :  4       Temperature                                            
HCAL          .IN                  :  5       Caliper                                                
BS            .IN                  :  6       Bit Size                                               
CS            .FT/HR               :  7       Cable Speed                                            
TENS          .LB                  :  8       Cable Tension                                          
GR_EC         .GAPI                :  9       Environmentally Corrected Gamma Ray                    
GR            .GAPI                : 10       Gamma Ray                                              
SGR           .GAPI                : 11       Standard Gamma Ray                                     
CGR           .GAPI                : 12       Computed Gamma Ray                                     
URAN          .PPM                 : 13       Uranium Concentration                                  
THOR          .PPM                 : 14       Thorium Concentration                                  
POTA          .PERCENT             : 15       Potassium Concentration                                
RXOZ          .OHMM                : 16       MCFL Resistivity                                       
AT10          .OHMM                : 17       10in Array Induction                                   
AT20          .OHMM                : 18       20in Array Induction                                   
AT30          .OHMM                : 19       20in Array Induction                                   
AT60          .OHMM                : 20       60in Array Induction                                   
AT90          .OHMM                : 21       90in Array Induction                                   
SP            .MV                  : 22       Spontaneous Potential                                  
NPHI          .FT3/FT3             : 23       Neutron NPHI Porosity                                  
TNPH          .FT3/FT3             : 24       Neutron TNPH Porosity                                  
PEFZ          .                    : 25       Photoelectic Factor                                    
HDRA          .G/CC                : 26       Density Correction                                     
DPHZ          .FT3/FT3             : 27       Density Porosity                                       
NPHU          .FT3/FT3             : 28       Environmentally Corrected Neutron Porosity             
RHOZ          .G/CC                : 29       Bulk Density                                           
UZ            .                    : 30       Volumetric Photoelectic Factor                         
WCLA_WALK2    .LB/LB               : 31       SpectroLith Weight Clay                                
WQFM_WALK2    .LB/LB               : 32       SpectroLith Weight QFM                                 
WCAR_WALK2    .LB/LB               : 33       SpectroLith Weight Carbonate                           
WPYR_WALK2    .LB/LB               : 34       SpectroLith Weight Pyrite                              
WSID_WALK2    .LB/LB               : 35       SpectroLith Weight Siderite                            
RHGE_WALK2    .G/CC                : 36       SpectroLith Matrix Bulk Density                        
DWAL_WALK2    .LB/LB               : 37       SpectroLith Dry Weight Aluminum(WALK2)                 
DWCA_WALK2    .LB/LB               : 38       SpectroLith Dry Weight Calcium                         
DWSI_WALK2    .LB/LB               : 39       SpectroLith Dry Weight Silicon                         
DWSU_WALK2    .LB/LB               : 40       SpectroLith Dry Weight Sulfur                          
DWTI_WALK2    .LB/LB               : 41       SpectroLith Dry Weight Titanium                        
DWGD_WALK2    .LB/LB               : 42       SpectroLith Dry Weight Gadolinium                      
DWFE_WALK2    .LB/LB               : 43       SpectroLith Dry Weight Iron(WALK2)                     
VCHL          .FT3/FT3             : 44       Elan Volume Chlorite                                   
VILL          .FT3/FT3             : 45       Elan Volume Illite                                     
VQUA          .FT3/FT3             : 46       Elan Volume Quartz                                     
VPYR          .FT3/FT3             : 47       Elan Volume Pyrite                                     
VSM1          .FT3/FT3             : 48       Elan Volume Special Mineral 1 Kerogen                  
VCLC          .FT3/FT3             : 49       Elan Volume Calcite                                    
VDOL          .FT3/FT3             : 50       Elan Volume Dolomite                                   
VSID          .FT3/FT3             : 51       Elan Volume Siderite                                   
VXBW          .FT3/FT3             : 52       Elan Clay Bound Water Volume                           
VXWA          .FT3/FT3             : 53       Elan Flushed Water Volume                              
VUWA          .FT3/FT3             : 54       Elan Water Volume                                      
VXGA          .FT3/FT3             : 55       Elan Flushed Gas Volume                                
VUGA          .FT3/FT3             : 56       Elan Gas Volume                                        
VMHY          .FT3/FT3             : 57       Elan Moved Hydrocarbon Volume                          
PIGN          .FT3/FT3             : 58       Elan Effective Porosity                                
PIGT          .FT3/FT3             : 59       Elan Total Porosity                                    
VCL           .FT3/FT3             : 60       Elan Total Clay Volume                                 
RHGA          .G/CC                : 61       Elan Apparent Grain Density                            
SXBW          .FT3/FT3             : 62       Elan Flushed Bound Water Saturation                    
SUWI          .FT3/FT3             : 63       Elan Water Saturation                                  
SXWI          .FT3/FT3             : 64       Elan Flushed Water Saturation                          
WCHL          .LB/LB               : 65       Elan Weight Percent Chlorite                           
WILL          .LB/LB               : 66       Elan Weight Percent Illite                             
WQUA          .LB/LB               : 67       Elan Weight Percent Quartz                             
WPYR          .LB/LB               : 68       Elan Weight Percent Pyrite                             
WSM1          .LB/LB               : 69       Elan Weight Percent Special Mineral 1 Kerogen          
WCLC          .LB/LB               : 70       Elan Weight Percent Calcite                            
WDOL          .LB/LB               : 71       Elan Weight Percent Dolomite                           
WSID          .LB/LB               : 72       Elan Weight Percent Siderite                           
DWIC_SCHMOKER .LB/LB               : 73       Schmoker TOC                                           
DWIC_TERRATEK .LB/LB               : 74       Terratek TOC                                           
KINT          .MD                  : 75       Intrinsic Permeability                                 
KWTR          .MD                  : 76       Permeability to Water                                  
KGAS          .MD                  : 77       Permeability to Gas                                    
TGAS_ADSORBED .SCF/TON             : 78       Adsorbed Gas                                           
TGAS_FREE     .SCF/TON             : 79       Free Gas                                               
TGAS_TOTAL    .SCF/TON             : 80       Total Gas                                              
CGAS_ADSORBED .BCF/SECTION         : 81       Cumulative Adsorbed Gas                                
CGAS_FREE     .BCF/SECTION         : 82       Cumulative Free Gas                                    
CGAS_TOTAL    .BCF/SECTION         : 83       Cumulative Total Gas                                   
RES_FLAG      .                    : 84       Shale Gas Reservoir Flag                               
PAY_FLAG      .                    : 85       Shale Gas Pay Flag                                     
~Ascii Data Section                          
# ...
   4026.500000      0.000000      0.014177      0.017505    132.827133      6.127441      6.250000   1821.000000   2388.000000    154.790619    171.014587    122.087646     34.952290     10.884812      4.201838      1.193715      3.660438      2.710620      2.752081      2.734692      2.723643      2.724900     -9.187500      0.324303      0.302774      3.866512      0.003376      0.236824      0.317786      2.305032      9.006442      0.165091      0.111356      0.690288      0.033264      0.000000      2.750592      0.032845      0.284494      0.080584      0.026060      0.000954      0.000001      0.015485      0.019459      0.101571      0.053998      0.013871      0.068091      0.282503      0.235498      0.000001      0.050762      0.174246      0.128827      0.000000      0.045418      0.045418      0.174246      0.225008      0.171792      2.684399      0.225602      0.739343      1.000000      0.028363      0.136754      0.068783      0.033271      0.042549      0.368000      0.322277      0.000003      0.098208      0.073143      0.001589      0.000010      0.000400     33.028713     59.358257     92.386971      9.901902     33.117508     43.019409      1.000000      0.000000
   4027.000000      0.000000      0.021903      0.023341    132.836166      6.127441      6.250000   1827.000000   2333.000000    149.664200    165.350861    120.016525     33.862782     10.729710      3.907390      1.184429      3.690229      2.752919      2.816784      2.782118      2.765172      2.762343     -9.312500      0.329024      0.309052      3.906160      0.005281      0.237980      0.324074      2.303055      9.091582      0.152225      0.101751      0.714124      0.031900      0.000000      2.746558      0.030286      0.293355      0.073980      0.022321      0.000504      0.000002      0.014850      0.031203      0.079112      0.045500      0.013280      0.069821      0.270951      0.263121      0.000001      0.041509      0.185501      0.131646      0.000000      0.053855      0.053855      0.185501      0.227011      0.151824      2.687241      0.182852      0.709676      1.000000      0.045551      0.106678      0.058046      0.031902      0.043697      0.353493      0.360631      0.000001      0.098792      0.073421      0.001725      0.000010      0.000458     33.919704     70.453064    104.372772      9.868793     33.058002     42.926796      1.000000      0.000000
   4027.500000      0.000000      0.029633      0.020748    132.845215      6.104100      6.250000   1819.000000   2406.000000    143.266998    158.457306    111.783684     31.586975     10.048068      3.529499      1.124513      3.672950      2.691657      2.754253      2.734619      2.714433      2.711066     -9.187500      0.316032      0.312227      3.964123      0.007600      0.241514      0.327255      2.297010      9.204106      0.137221      0.113242      0.719608      0.029929      0.000000      2.740642      0.027300      0.295393      0.076127      0.018418      0.000095      0.000001      0.013932      0.027953      0.070874      0.054058      0.012400      0.068791      0.299713      0.235849      0.000040      0.037187      0.193135      0.134936      0.000000      0.058198      0.058198      0.193135      0.230322      0.136015      2.678626      0.161457      0.698664      1.000000      0.041115      0.096290      0.069483      0.030012      0.043377      0.393961      0.325687      0.000075      0.100586      0.074270      0.001985      0.000010      0.000542     33.670738     76.343231    110.013969      9.834821     32.987434     42.822254      1.000000      0.000000
   4028.000000      0.000000      0.020486      0.016209    132.854263      6.092430      6.250000   1828.000000   2389.000000    134.949478    149.340073    107.263512     30.233210      9.607909      3.701562      1.021091      3.712345      2.657820      2.682664      2.660911      2.638465      2.641152     -9.000000      0.324001      0.304327      3.999816      0.005940      0.251067      0.319343      2.280675      9.225939      0.133115      0.134377      0.702831      0.029677      0.000000      2.736678      0.026484      0.289157      0.084365      0.015862      0.000000      0.000001      0.013982      0.026911      0.068231      0.072865      0.012185      0.063077      0.345119      0.177135      0.000007      0.035800      0.198076      0.137624      0.000592      0.061045      0.060453      0.198669      0.234469      0.130943      2.675556      0.152687      0.692729      0.997018      0.039842      0.093308      0.094274      0.029685      0.040035      0.456627      0.246216      0.000013      0.105480      0.076565      0.001743      0.000010      0.000484     31.076084     80.660172    111.736252      9.801187     32.911171     42.712357      1.000000      0.000000
   4028.500000      0.000000      0.012760      0.016857    132.863312      6.096320      6.250000   1831.000000   2341.000000    130.412918    144.293259    104.131020     29.795080      9.259440      3.581845      1.017578      3.682211      2.628272      2.652499      2.621117      2.596233      2.607917     -9.375000      0.317679      0.309248      4.000156      0.004200      0.254679      0.324274      2.274499      9.203645      0.133565      0.142119      0.695444      0.028873      0.000000      2.735873      0.026573      0.286410      0.087375      0.015433      0.000056      0.000002      0.014075      0.026839      0.068050      0.079867      0.011785      0.059433      0.349212      0.164739      0.000016      0.035705      0.204354      0.139030      0.000000      0.065324      0.065324      0.204354      0.240059      0.130594      2.678038      0.148734      0.680338      1.000000      0.039991      0.093657      0.103996      0.028896      0.037964      0.465009      0.230456      0.000031      0.107348      0.077433      0.001934      0.000010      0.000561     29.468637     86.558426    116.027061      9.770365     32.831165     42.601532      1.000000      0.000000
   4029.000000      0.000000      0.008703      0.007780    132.872345      6.080759      6.250000   1826.000000   2387.000000    125.564690    139.031052    100.188263     28.665001      8.987551      3.628654      0.947784      3.597943      2.557086      2.590898      2.561333      2.530946      2.549674     -9.437500      0.326145      0.303279      4.012532      0.002250      0.256370      0.318293      2.271608      9.221280      0.131964      0.120130      0.719544      0.028362      0.000000      2.739018      0.026255      0.295369      0.078120      0.018198      0.000293      0.000004      0.013203      0.026514      0.067225      0.064773      0.011573      0.055960      0.349505      0.181791      0.000007      0.035272      0.202437      0.141007      0.004944      0.066374      0.061430      0.207381      0.242653      0.129011      2.687784      0.145360      0.679943      0.976160      0.039498      0.092502      0.084324      0.028370      0.035738      0.465300      0.254255      0.000013      0.108227      0.077839      0.002139      0.000010      0.000621     27.740620     88.070778    115.811401      9.741217     32.745544     42.486763      1.000000      0.000000
   4029.500000      0.000000      0.011915      0.019451    132.881393      6.057418      6.250000   1839.000000   2419.000000    120.257393    133.301453     97.766502     27.966528      8.706864      3.660638      0.904121      3.493034      2.486734      2.525587      2.478705      2.450000      2.476672     -9.312500      0.313203      0.310617      4.014400      0.003128      0.253771      0.325645      2.276052      9.242238      0.135236      0.084353      0.752465      0.027945      0.000000      2.741800      0.026906      0.307608      0.063213      0.019134      0.001266      0.000006      0.013008      0.027154      0.068847      0.039532      0.011396      0.051266      0.333331      0.220355      0.000009      0.036123      0.207477      0.143280      0.004510      0.068707      0.064197      0.211987      0.248110      0.132124      2.705405      0.145594      0.675891      0.978725      0.040479      0.094801      0.051500      0.027956      0.032763      0.444077      0.308407      0.000017      0.106878      0.077215      0.002603      0.000010      0.000766     25.431108     90.998711    116.429817      9.713812     32.658535     42.372345      1.000000      0.000000
