~Version Information                         
VERS  .          2.0                                 :CWLS Log Ascii Standard - Version 2 
WRAP  .          NO                                  :One line per depth step             
~Well Information Block                      
#MNEM.UNIT  Data Type                                Information                                  
#---------  ---------                                ----------------------------------------     
STRT  .F     3750.0000                               :Start Depth                                 
STOP  .F     4270.0000                               :Stop Depth                                  
STEP  .F    0.50000                                  :Increment                                   
NULL  .    -999.25                                   :Null Data Value                             
COMP  .     Enerplus                                 :Company                                     
WELL  .     State 7-51-33-12                         :Well                                        
FLD   .     Wildcat                                  :Field                                       
LOC   .     NWNE Sec. 33, T 7N , R 51                :Location                                    
LOC1  .     SHL: 671 FNL / 1888 FEL                  :Location1                                   
STAT  .     Colorado                                 :State                                       
CNTY  .     Logan                                    :County                                      
CTRY  .     USA                                      :Country                                     
DATE  .     16-Dec-2009                              :Logging Date                                
UWI   .     05-075-09383-0000                        :Unique Well ID                              
API   .     05-075-09383-0000                        :API Number                                  
SRVC  .     SLB                                      :Service Company                             
~Curve Information Block                     
#MNEN.UNIT                         Curve      Description                       
#---------                         -----      -----------                       
DEPT          .F                   :  0       Index                             
RSOZ          .IN                  :  1       MCFL Standoff                                          
DSOZ          .IN                  :  2       Density Standoff                                       
HRUG          .1/FT                :  3       Hole Rugosity                                          
TEMP          .DEGF                :  4       Temperature                                            
HCAL          .IN                  :  5       Caliper                                                
BS            .IN                  :  6       Bit Size                                               
CS            .FT/HR               :  7       Cable Speed                                            
TENS          .LB                  :  8       Cable Tension                                          
GR_EC         .GAPI                :  9       Environmentally Corrected Gamma Ray                    
GR            .GAPI                : 10       Gamma Ray                                              
SGR           .GAPI                : 11       Standard Gamma Ray                                     
CGR           .GAPI                : 12       Computed Gamma Ray                                     
URAN          .PPM                 : 13       Uranium Concentration                                  
THOR          .PPM                 : 14       Thorium Concentration                                  
POTA          .PERCENT             : 15       Potassium Concentration                                
RXOZ          .OHMM                : 16       MCFL Resistivity                                       
AT10          .OHMM                : 17       10in Array Induction                                   
AT20          .OHMM                : 18       20in Array Induction                                   
AT30          .OHMM                : 19       20in Array Induction                                   
AT60          .OHMM                : 20       60in Array Induction                                   
AT90          .OHMM                : 21       90in Array Induction                                   
SP            .MV                  : 22       Spontaneous Potential                                  
NPHI          .FT3/FT3             : 23       Neutron NPHI Porosity                                  
TNPH          .FT3/FT3             : 24       Neutron TNPH Porosity                                  
PEFZ          .                    : 25       Photoelectic Factor                                    
HDRA          .G/CC                : 26       Density Correction                                     
DPHZ          .FT3/FT3             : 27       Density Porosity                                       
NPHU          .FT3/FT3             : 28       Environmentally Corrected Neutron Porosity             
RHOZ          .G/CC                : 29       Bulk Density                                           
UZ            .                    : 30       Volumetric Photoelectic Factor                         
WCLA_WALK2    .LB/LB               : 31       SpectroLith Weight Clay                                
WQFM_WALK2    .LB/LB               : 32       SpectroLith Weight QFM                                 
WCAR_WALK2    .LB/LB               : 33       SpectroLith Weight Carbonate                           
WPYR_WALK2    .LB/LB               : 34       SpectroLith Weight Pyrite                              
WSID_WALK2    .LB/LB               : 35       SpectroLith Weight Siderite                            
RHGE_WALK2    .G/CC                : 36       SpectroLith Matrix Bulk Density                        
DWAL_WALK2    .LB/LB               : 37       SpectroLith Dry Weight Aluminum(WALK2)                 
DWCA_WALK2    .LB/LB               : 38       SpectroLith Dry Weight Calcium                         
DWSI_WALK2    .LB/LB               : 39       SpectroLith Dry Weight Silicon                         
DWSU_WALK2    .LB/LB               : 40       SpectroLith Dry Weight Sulfur                          
DWTI_WALK2    .LB/LB               : 41       SpectroLith Dry Weight Titanium                        
DWGD_WALK2    .LB/LB               : 42       SpectroLith Dry Weight Gadolinium                      
DWFE_WALK2    .LB/LB               : 43       SpectroLith Dry Weight Iron(WALK2)                     
VCHL          .FT3/FT3             : 44       Elan Volume Chlorite                                   
VILL          .FT3/FT3             : 45       Elan Volume Illite                                     
VQUA          .FT3/FT3             : 46       Elan Volume Quartz                                     
VPYR          .FT3/FT3             : 47       Elan Volume Pyrite                                     
VSM1          .FT3/FT3             : 48       Elan Volume Special Mineral 1 Kerogen                  
VCLC          .FT3/FT3             : 49       Elan Volume Calcite                                    
VDOL          .FT3/FT3             : 50       Elan Volume Dolomite                                   
VSID          .FT3/FT3             : 51       Elan Volume Siderite                                   
VXBW          .FT3/FT3             : 52       Elan Clay Bound Water Volume                           
VXWA          .FT3/FT3             : 53       Elan Flushed Water Volume                              
VUWA          .FT3/FT3             : 54       Elan Water Volume                                      
VXGA          .FT3/FT3             : 55       Elan Flushed Gas Volume                                
VUGA          .FT3/FT3             : 56       Elan Gas Volume                                        
VMHY          .FT3/FT3             : 57       Elan Moved Hydrocarbon Volume                          
PIGN          .FT3/FT3             : 58       Elan Effective Porosity                                
PIGT          .FT3/FT3             : 59       Elan Total Porosity                                    
VCL           .FT3/FT3             : 60       Elan Total Clay Volume                                 
RHGA          .G/CC                : 61       Elan Apparent Grain Density                            
SXBW          .FT3/FT3             : 62       Elan Flushed Bound Water Saturation                    
SUWI          .FT3/FT3             : 63       Elan Water Saturation                                  
SXWI          .FT3/FT3             : 64       Elan Flushed Water Saturation                          
WCHL          .LB/LB               : 65       Elan Weight Percent Chlorite                           
WILL          .LB/LB               : 66       Elan Weight Percent Illite                             
WQUA          .LB/LB               : 67       Elan Weight Percent Quartz                             
WPYR          .LB/LB               : 68       Elan Weight Percent Pyrite                             
WSM1          .LB/LB               : 69       Elan Weight Percent Special Mineral 1 Kerogen          
WCLC          .LB/LB               : 70       Elan Weight Percent Calcite                            
WDOL          .LB/LB               : 71       Elan Weight Percent Dolomite                           
WSID          .LB/LB               : 72       Elan Weight Percent Siderite                           
DWIC_SCHMOKER .LB/LB               : 73       Schmoker TOC                                           
DWIC_TERRATEK .LB/LB               : 74       Terratek TOC                                           
KINT          .MD                  : 75       Intrinsic Permeability                                 
KWTR          .MD                  : 76       Permeability to Water                                  
KGAS          .MD                  : 77       Permeability to Gas                                    
TGAS_ADSORBED .SCF/TON             : 78       Adsorbed Gas                                           
TGAS_FREE     .SCF/TON             : 79       Free Gas                                               
TGAS_TOTAL    .SCF/TON             : 80       Total Gas                                              
CGAS_ADSORBED .BCF/SECTION         : 81       Cumulative Adsorbed Gas                                
CGAS_FREE     .BCF/SECTION         : 82       Cumulative Free Gas                                    
CGAS_TOTAL    .BCF/SECTION         : 83       Cumulative Total Gas                                   
RES_FLAG      .                    : 84       Shale Gas Reservoir Flag                               
PAY_FLAG      .                    : 85       Shale Gas Pay Flag                                     
~Ascii Data Section                          
# ...
   4131.500000      0.000000      0.017469      0.029825    134.726257      6.096320      6.250000   1838.000000   2327.000000    136.551224    151.084900    112.497765     27.048534     10.915094      3.613534      0.861959      4.113870      2.962476      2.991952      2.963891      2.970817      2.867805    -12.312500      0.320976      0.305616      4.148901      0.004762      0.243146      0.320631      2.294221      9.622323      0.132465      0.123857      0.721860      0.021819      0.000000      2.732857      0.026354      0.296230      0.076278      0.011662      0.001323      0.000007      0.013971      0.026984      0.068417      0.064063      0.009060      0.064390      0.402538      0.138864      0.000075      0.035898      0.189710      0.130198      0.000000      0.059512      0.059512      0.189710      0.225608      0.131300      2.658425      0.159117      0.686299      1.000000      0.039748      0.093088      0.082464      0.021961      0.040661      0.529896      0.192040      0.000141      0.101416      0.074662      0.001104      0.000010      0.000317     31.486626     79.979378    111.466003      4.287485     15.578974     19.866459      1.000000      0.000000
   4132.000000      0.000000      0.017469      0.005835    134.735306      6.080759      6.250000   1836.000000   2409.000000    129.416336    143.295776    107.683098     28.228945     10.072325      4.033624      0.854758      4.200307      2.953627      2.957434      2.922352      2.884710      2.880672    -12.750000      0.313550      0.304942      4.153833      0.004744      0.245751      0.319955      2.289765      9.616470      0.139916      0.115392      0.722344      0.022347      0.000000      2.734997      0.027837      0.296410      0.073354      0.011945      0.001090      0.000006      0.014927      0.028419      0.072054      0.061274      0.009237      0.056804      0.408644      0.132499      0.000047      0.037806      0.193217      0.129660      0.000000      0.063557      0.063557      0.193217      0.231023      0.138279      2.672568      0.163647      0.671059      1.000000      0.041932      0.098204      0.079009      0.022427      0.035932      0.538856      0.183551      0.000088      0.102748      0.075288      0.001093      0.000010      0.000333     27.824181     85.590523    113.414703      4.256070     15.499173     19.755243      1.000000      0.000000
   4132.500000      0.000000      0.016318      0.018154    134.744354      6.065198      6.250000   1831.000000   2400.000000    128.227432    142.083740    107.049026     27.139862     10.059774      4.040563      0.794016      4.082171      2.855218      2.861249      2.854026      2.820870      2.814580    -12.500000      0.295745      0.300826      4.114286      0.004860      0.244672      0.315828      2.291611      9.532009      0.159313      0.109591      0.695977      0.035118      0.000000      2.745173      0.031696      0.286609      0.078727      0.019749      0.000566      0.000004      0.016348      0.032436      0.082241      0.060514      0.014525      0.050336      0.329540      0.190599      0.000015      0.043151      0.187295      0.129915      0.009348      0.066728      0.057381      0.196643      0.239794      0.157828      2.713397      0.179950      0.660663      0.952464      0.047684      0.111675      0.077742      0.035138      0.031723      0.432945      0.263065      0.000028      0.102196      0.075029      0.001438      0.000010      0.000459     24.564861     89.798637    114.363495      4.228364     15.413939     19.642303      1.000000      0.000000
   4133.000000      0.000000      0.010743      0.022692    134.753387      6.057418      6.250000   1840.000000   2374.000000    134.563980    149.159836    106.629662     29.262890      9.739912      4.714283      0.795044      3.697374      2.770632      2.748678      2.749813      2.764619      2.774642    -12.125000      0.299747      0.290843      4.042117      0.003783      0.244639      0.305789      2.291668      9.365025      0.158856      0.121401      0.685192      0.034551      0.000000      2.743950      0.031605      0.282599      0.083765      0.019722      0.001068      0.000003      0.016083      0.017423      0.098251      0.068609      0.014298      0.052985      0.356902      0.157257      0.000000      0.048931      0.179289      0.128489      0.006056      0.056856      0.050800      0.185345      0.234276      0.164605      2.696780      0.208861      0.693243      0.967326      0.025586      0.133270      0.088045      0.034551      0.033356      0.468382      0.216810      0.000000      0.102178      0.075021      0.001442      0.000010      0.000432     25.828863     76.519287    102.348152      4.203883     15.324444     19.528326      1.000000      0.000000
   4133.500000      0.000000      0.024006      0.027880    134.762436      6.092430      6.250000   1844.000000   2363.000000    142.058472    157.207138    111.666801     29.449831     10.291215      5.173543      0.726825      3.748613      2.785919      2.798535      2.791628      2.815061      2.852422    -12.437500      0.305815      0.291275      4.064018      0.001485      0.250456      0.306226      2.281720      9.377997      0.151715      0.142816      0.674159      0.031311      0.000000      2.742270      0.030184      0.278498      0.091704      0.021289      0.001561      0.000002      0.014575      0.019112      0.090752      0.080669      0.012910      0.061590      0.389857      0.116107      0.000000      0.045567      0.180101      0.127458      0.003334      0.055977      0.052643      0.183435      0.229002      0.155431      2.668598      0.198981      0.694841      0.981826      0.028168      0.123547      0.103900      0.031311      0.038915      0.513498      0.160661      0.000000      0.105164      0.076418      0.001052      0.000010      0.000310     30.133062     75.672966    105.806030      4.178142     15.248180     19.426323      1.000000      0.000000
   4134.000000      0.000000      0.015625      0.023341    134.771484      6.080759      6.250000   1843.000000   2313.000000    143.529327    158.922333    109.361351     29.979729     10.037371      5.733051      0.660236      3.681401      2.800984      2.838047      2.821058      2.832415      2.849224    -12.750000      0.309662      0.292204      4.061233     -0.000556      0.254014      0.307161      2.275635      9.348482      0.147895      0.131593      0.692721      0.027791      0.000000      2.736593      0.029424      0.285398      0.084211      0.014854      0.002433      0.000005      0.014975      0.011741      0.095479      0.070671      0.011412      0.063354      0.422441      0.096448      0.000000      0.046912      0.181021      0.127162      0.000522      0.054381      0.053859      0.181543      0.228455      0.154132      2.655740      0.205346      0.700452      0.997123      0.017376      0.130519      0.091398      0.027791      0.040195      0.558712      0.134009      0.000000      0.107004      0.077273      0.001018      0.000010      0.000299     31.123775     73.719994    104.843765      4.148242     15.173088     19.321329      1.000000      0.000000
   4134.500000      0.000000      0.015625      0.027231    134.780518      6.034077      6.250000   1833.000000   2381.000000    143.610184    159.363068    110.018860     30.943018      9.987575      5.827870      0.696722      3.862107      2.849118      2.844748      2.773747      2.748876      2.785083    -12.437500      0.318989      0.294366      4.041208     -0.000398      0.248196      0.309335      2.285584      9.339949      0.175732      0.100924      0.693622      0.029723      0.000000      2.743824      0.034962      0.285733      0.074008      0.015887      0.002474      0.000006      0.018199      0.024406      0.103075      0.050777      0.012295      0.056735      0.350495      0.169248      0.000000      0.052086      0.171060      0.126434      0.009822      0.054448      0.044626      0.180882      0.232969      0.179568      2.690998      0.223577      0.698987      0.945701      0.035856      0.139876      0.065191      0.029723      0.035733      0.460177      0.233445      0.000000      0.104002      0.075875      0.001050      0.000010      0.000309     27.668060     73.497612    101.165672      4.117441     15.100129     19.217569      1.000000      0.000000
