~Version Information                         
VERS  .          2.0                                 :CWLS Log Ascii Standard - Version 2 
WRAP  .          NO                                  :One line per depth step             
~Well Information Block                      
#MNEM.UNIT  Data Type                                Information                                  
#---------  ---------                                ----------------------------------------     
STRT  .F     3750.0000                               :Start Depth                                 
STOP  .F     4270.0000                               :Stop Depth                                  
STEP  .F    0.50000                                  :Increment                                   
NULL  .    -999.25                                   :Null Data Value                             
COMP  .     Enerplus                                 :Company                                     
WELL  .     State 7-51-33-12                         :Well                                        
FLD   .     Wildcat                                  :Field                                       
LOC   .     NWNE Sec. 33, T 7N , R 51                :Location                                    
LOC1  .     SHL: 671 FNL / 1888 FEL                  :Location1                                   
STAT  .     Colorado                                 :State                                       
CNTY  .     Logan                                    :County                                      
CTRY  .     USA                                      :Country                                     
DATE  .     16-Dec-2009                              :Logging Date                                
UWI   .     05-075-09383-0000                        :Unique Well ID                              
API   .     05-075-09383-0000                        :API Number                                  
SRVC  .     SLB                                      :Service Company                             
~Curve Information Block                     
#MNEN.UNIT                         Curve      Description                       
#---------                         -----      -----------                       
DEPT          .F                   :  0       Index                             
RSOZ          .IN                  :  1       MCFL Standoff                                          
DSOZ          .IN                  :  2       Density Standoff                                       
HRUG          .1/FT                :  3       Hole Rugosity                                          
TEMP          .DEGF                :  4       Temperature                                            
HCAL          .IN                  :  5       Caliper                                                
BS            .IN                  :  6       Bit Size                                               
CS            .FT/HR               :  7       Cable Speed                                            
TENS          .LB                  :  8       Cable Tension                                          
GR_EC         .GAPI                :  9       Environmentally Corrected Gamma Ray                    
GR            .GAPI                : 10       Gamma Ray                                              
SGR           .GAPI                : 11       Standard Gamma Ray                                     
CGR           .GAPI                : 12       Computed Gamma Ray                                     
URAN          .PPM                 : 13       Uranium Concentration                                  
THOR          .PPM                 : 14       Thorium Concentration                                  
POTA          .PERCENT             : 15       Potassium Concentration                                
RXOZ          .OHMM                : 16       MCFL Resistivity                                       
AT10          .OHMM                : 17       10in Array Induction                                   
AT20          .OHMM                : 18       20in Array Induction                                   
AT30          .OHMM                : 19       20in Array Induction                                   
AT60          .OHMM                : 20       60in Array Induction                                   
AT90          .OHMM                : 21       90in Array Induction                                   
SP            .MV                  : 22       Spontaneous Potential                                  
NPHI          .FT3/FT3             : 23       Neutron NPHI Porosity                                  
TNPH          .FT3/FT3             : 24       Neutron TNPH Porosity                                  
PEFZ          .                    : 25       Photoelectic Factor                                    
HDRA          .G/CC                : 26       Density Correction                                     
DPHZ          .FT3/FT3             : 27       Density Porosity                                       
NPHU          .FT3/FT3             : 28       Environmentally Corrected Neutron Porosity             
RHOZ          .G/CC                : 29       Bulk Density                                           
UZ            .                    : 30       Volumetric Photoelectic Factor                         
WCLA_WALK2    .LB/LB               : 31       SpectroLith Weight Clay                                
WQFM_WALK2    .LB/LB               : 32       SpectroLith Weight QFM                                 
WCAR_WALK2    .LB/LB               : 33       SpectroLith Weight Carbonate                           
WPYR_WALK2    .LB/LB               : 34       SpectroLith Weight Pyrite                              
WSID_WALK2    .LB/LB               : 35       SpectroLith Weight Siderite                            
RHGE_WALK2    .G/CC                : 36       SpectroLith Matrix Bulk Density                        
DWAL_WALK2    .LB/LB               : 37       SpectroLith Dry Weight Aluminum(WALK2)                 
DWCA_WALK2    .LB/LB               : 38       SpectroLith Dry Weight Calcium                         
DWSI_WALK2    .LB/LB               : 39       SpectroLith Dry Weight Silicon                         
DWSU_WALK2    .LB/LB               : 40       SpectroLith Dry Weight Sulfur                          
DWTI_WALK2    .LB/LB               : 41       SpectroLith Dry Weight Titanium                        
DWGD_WALK2    .LB/LB               : 42       SpectroLith Dry Weight Gadolinium                      
DWFE_WALK2    .LB/LB               : 43       SpectroLith Dry Weight Iron(WALK2)                     
VCHL          .FT3/FT3             : 44       Elan Volume Chlorite                                   
VILL          .FT3/FT3             : 45       Elan Volume Illite                                     
VQUA          .FT3/FT3             : 46       Elan Volume Quartz                                     
VPYR          .FT3/FT3             : 47       Elan Volume Pyrite                                     
VSM1          .FT3/FT3             : 48       Elan Volume Special Mineral 1 Kerogen                  
VCLC          .FT3/FT3             : 49       Elan Volume Calcite                                    
VDOL          .FT3/FT3             : 50       Elan Volume Dolomite                                   
VSID          .FT3/FT3             : 51       Elan Volume Siderite                                   
VXBW          .FT3/FT3             : 52       Elan Clay Bound Water Volume                           
VXWA          .FT3/FT3             : 53       Elan Flushed Water Volume                              
VUWA          .FT3/FT3             : 54       Elan Water Volume                                      
VXGA          .FT3/FT3             : 55       Elan Flushed Gas Volume                                
VUGA          .FT3/FT3             : 56       Elan Gas Volume                                        
VMHY          .FT3/FT3             : 57       Elan Moved Hydrocarbon Volume                          
PIGN          .FT3/FT3             : 58       Elan Effective Porosity                                
PIGT          .FT3/FT3             : 59       Elan Total Porosity                                    
VCL           .FT3/FT3             : 60       Elan Total Clay Volume                                 
RHGA          .G/CC                : 61       Elan Apparent Grain Density                            
SXBW          .FT3/FT3             : 62       Elan Flushed Bound Water Saturation                    
SUWI          .FT3/FT3             : 63       Elan Water Saturation                                  
SXWI          .FT3/FT3             : 64       Elan Flushed Water Saturation                          
WCHL          .LB/LB               : 65       Elan Weight Percent Chlorite                           
WILL          .LB/LB               : 66       Elan Weight Percent Illite                             
WQUA          .LB/LB               : 67       Elan Weight Percent Quartz                             
WPYR          .LB/LB               : 68       Elan Weight Percent Pyrite                             
WSM1          .LB/LB               : 69       Elan Weight Percent Special Mineral 1 Kerogen          
WCLC          .LB/LB               : 70       Elan Weight Percent Calcite                            
WDOL          .LB/LB               : 71       Elan Weight Percent Dolomite                           
WSID          .LB/LB               : 72       Elan Weight Percent Siderite                           
DWIC_SCHMOKER .LB/LB               : 73       Schmoker TOC                                           
DWIC_TERRATEK .LB/LB               : 74       Terratek TOC                                           
KINT          .MD                  : 75       Intrinsic Permeability                                 
KWTR          .MD                  : 76       Permeability to Water                                  
KGAS          .MD                  : 77       Permeability to Gas                                    
TGAS_ADSORBED .SCF/TON             : 78       Adsorbed Gas                                           
TGAS_FREE     .SCF/TON             : 79       Free Gas                                               
TGAS_TOTAL    .SCF/TON             : 80       Total Gas                                              
CGAS_ADSORBED .BCF/SECTION         : 81       Cumulative Adsorbed Gas                                
CGAS_FREE     .BCF/SECTION         : 82       Cumulative Free Gas                                    
CGAS_TOTAL    .BCF/SECTION         : 83       Cumulative Total Gas                                   
RES_FLAG      .                    : 84       Shale Gas Reservoir Flag                               
PAY_FLAG      .                    : 85       Shale Gas Pay Flag                                     
~Ascii Data Section                          
# ...
   3855.000000      0.000000      0.005299      0.026583    129.725220      6.104100      6.250000   1785.000000   2333.000000    267.339355    295.684814    205.459305     50.684986     19.253603      7.485960      1.493229      2.769163      2.187468      2.224572      2.229665      2.222327      2.235055     -0.500000      0.382048      0.375942      3.313032      0.000874      0.184884      0.390329      2.393848      7.992096      0.565911      0.387166      0.037288      0.009635      0.000000      2.770119      0.103638      0.041743      0.233846      0.005150      0.002171      0.000009      0.061728      0.110344      0.279130      0.267345      0.004247      0.103404      0.000000      0.028403      0.000044      0.148067      0.050118      0.047278      0.008898      0.011738      0.002841      0.059016      0.207082      0.537541      2.748529      0.715013      0.801100      0.849235      0.153656      0.412676      0.325080      0.009724      0.061681      0.000000      0.037104      0.000078      0.072944      0.060664      0.000010      0.000010      0.000001     48.045685     14.198129     62.243813     20.124842     55.085335     75.210175      0.000000      0.000000
   3855.500000      0.000000      0.005299      0.023341    129.734268      6.115770      6.250000   1787.000000   2296.000000    265.992035    294.032867    206.231354     53.662060     18.939939      8.366508      1.505640      2.859820      2.220889      2.261172      2.265380      2.266267      2.274717     -0.375000      0.377140      0.377437      3.273032      0.001339      0.183423      0.391793      2.396346      7.903243      0.641589      0.320067      0.009764      0.028580      0.000000      2.783859      0.113712      0.031511      0.231482      0.015276      0.002917      0.000006      0.063787      0.070216      0.366431      0.219536      0.012407      0.086699      0.000000      0.007394      0.000000      0.185106      0.028918      0.028918      0.023294      0.023294      0.000000      0.052212      0.237319      0.621753      2.846776      0.779992      0.553863      0.553863      0.098144      0.543785      0.267951      0.028514      0.051911      0.000000      0.009695      0.000000      0.072260      0.060313      0.000010      0.000010      0.000002     40.434875     28.149092     68.583969     20.074825     55.070553     75.145378      1.000000      0.000000
   3856.000000      0.000000      0.005299      0.028528    129.743301      6.111880      6.250000   1791.000000   2278.000000    269.032654    297.448578    207.483170     54.211185     19.000191      8.182809      1.567049      2.857523      2.208896      2.239964      2.258951      2.273162      2.275452     -0.687500      0.373410      0.370987      3.254817      0.001178      0.183157      0.385469      2.396802      7.860645      0.620130      0.336010      0.000000      0.043860      0.000000      2.803931      0.110905      0.002190      0.261927      0.023443      0.003635      0.000005      0.071566      0.042138      0.377888      0.229565      0.019024      0.092104      0.000000      0.000000      0.000000      0.187134      0.029076      0.029076      0.023071      0.023071      0.000000      0.052147      0.239281      0.607160      2.850545      0.782069      0.557574      0.557574      0.058973      0.561490      0.280543      0.043777      0.055216      0.000000      0.000000      0.000000      0.072136      0.060249      0.000010      0.000010      0.000002     43.009281     27.878101     70.887383     20.032686     55.041218     75.073906      1.000000      0.000000
   3856.500000      0.000000      0.000000      0.016857    129.752350      6.096320      6.250000   1787.000000   2323.000000    269.985016    298.720551    212.411697     57.220222     19.242395      8.845993      1.618336      2.742879      2.166611      2.203028      2.216985      2.223649      2.235547     -0.687500      0.370154      0.367946      3.304934     -0.001188      0.187643      0.382484      2.389130      7.957993      0.587195      0.353935      0.000000      0.058870      0.000000      2.828239      0.106521      0.000000      0.262784      0.031466      0.004784      0.000004      0.079189      0.030996      0.364193      0.239260      0.025409      0.099406      0.000000      0.000000      0.000000      0.179159      0.038517      0.038517      0.023060      0.023060      0.000000      0.061577      0.240736      0.574348      2.841659      0.744213      0.625502      0.625502      0.043598      0.543874      0.293867      0.058766      0.059895      0.000000      0.000000      0.000000      0.074239      0.061327      0.000010      0.000010      0.000002     46.653313     27.958023     74.611336     19.987856     55.012157     75.000015      1.000000      0.000000
   3857.000000      0.000000      0.000000      0.012318    129.761398      6.104100      6.250000   1793.000000   2285.000000    275.508667    304.720306    216.949631     57.658348     19.862173      9.038426      1.609429      2.776093      2.142010      2.181210      2.190179      2.194297      2.204805     -0.500000      0.382451      0.359669      3.400810     -0.002010      0.187511      0.374335      2.389356      8.189573      0.609813      0.331305      0.000000      0.058883      0.000000      2.832352      0.109541      0.000000      0.257020      0.031473      0.003549      0.000005      0.081390      0.019430      0.391591      0.222499      0.025535      0.098106      0.000000      0.000000      0.000000      0.190910      0.028401      0.028401      0.023529      0.023529      0.000000      0.051930      0.242840      0.601931      2.859722      0.786157      0.546905      0.546905      0.027232      0.582710      0.272309      0.058847      0.058901      0.000000      0.000000      0.000000      0.074177      0.061295      0.000010      0.000010      0.000001     45.878662     28.526745     74.405411     19.939384     54.983109     74.922493      1.000000      0.000000
   3857.500000      0.000000      0.000000      0.018154    129.770432      6.127441      6.250000   1799.000000   2279.000000    279.256317    308.525848    219.473465     56.898743     20.364431      8.959732      1.581333      2.731315      2.135739      2.173218      2.185897      2.196604      2.212663     -0.500000      0.378600      0.368817      3.470992     -0.001779      0.185840      0.383335      2.392214      8.367847      0.619712      0.312658      0.000000      0.067630      0.000000      2.837149      0.110849      0.003759      0.251663      0.036148      0.002553      0.000002      0.080701      0.015747      0.401128      0.205954      0.029278      0.099890      0.000000      0.000000      0.000000      0.195044      0.028316      0.028316      0.024644      0.024644      0.000000      0.052960      0.248003      0.611919      2.874975      0.786456      0.534666      0.534666      0.022104      0.597812      0.252444      0.067575      0.060064      0.000000      0.000000      0.000000      0.073392      0.060894      0.000010      0.000010      0.000002     46.783943     29.846277     76.630219     19.891712     54.953465     74.845177      1.000000      0.000000
   3858.000000      0.000000      0.006036      0.024638    129.779480      6.119660      6.250000   1784.000000   2330.000000    284.483276    314.415863    221.008591     59.522030     20.224497      9.695098      1.599194      2.781748      2.114885      2.146836      2.160286      2.180375      2.197513     -0.562500      0.391555      0.367653      3.474690     -0.001853      0.187190      0.382197      2.389905      8.369268      0.634999      0.294308      0.000000      0.070692      0.000000      2.827612      0.112854      0.011191      0.246558      0.037785      0.001473      0.000000      0.074214      0.000004      0.425321      0.190183      0.030550      0.100659      0.000000      0.000000      0.000000      0.204734      0.023620      0.023620      0.024928      0.024928      0.000000      0.048549      0.253283      0.630059      2.889584      0.808323      0.486532      0.486532      0.000006      0.635121      0.233574      0.070652      0.060646      0.000000      0.000000      0.000000      0.074026      0.061218      0.000010      0.000010      0.000002     47.237026     30.223215     77.460243     19.843042     54.922413     74.765457      1.000000      0.000000
