~Version Information                         
VERS  .          2.0                                 :CWLS Log Ascii Standard - Version 2 
WRAP  .          NO                                  :One line per depth step             
~Well Information Block                      
#MNEM.UNIT  Data Type                                Information                                  
#---------  ---------                                ----------------------------------------     
STRT  .F     3750.0000                               :Start Depth                                 
STOP  .F     4270.0000                               :Stop Depth                                  
STEP  .F    0.50000                                  :Increment                                   
NULL  .    -999.25                                   :Null Data Value                             
COMP  .     Enerplus                                 :Company                                     
WELL  .     State 7-51-33-12                         :Well                                        
FLD   .     Wildcat                                  :Field                                       
LOC   .     NWNE Sec. 33, T 7N , R 51                :Location                                    
LOC1  .     SHL: 671 FNL / 1888 FEL                  :Location1                                   
STAT  .     Colorado                                 :State                                       
CNTY  .     Logan                                    :County                                      
CTRY  .     USA                                      :Country                                     
DATE  .     16-Dec-2009                              :Logging Date                                
UWI   .     05-075-09383-0000                        :Unique Well ID                              
API   .     05-075-09383-0000                        :API Number                                  
SRVC  .     SLB                                      :Service Company                             
~Curve Information Block                     
#MNEN.UNIT                         Curve      Description                       
#---------                         -----      -----------                       
DEPT          .F                   :  0       Index                             
RSOZ          .IN                  :  1       MCFL Standoff                                          
DSOZ          .IN                  :  2       Density Standoff                                       
HRUG          .1/FT                :  3       Hole Rugosity                                          
TEMP          .DEGF                :  4       Temperature                                            
HCAL          .IN                  :  5       Caliper                                                
BS            .IN                  :  6       Bit Size                                               
CS            .FT/HR               :  7       Cable Speed                                            
TENS          .LB                  :  8       Cable Tension                                          
GR_EC         .GAPI                :  9       Environmentally Corrected Gamma Ray                    
GR            .GAPI                : 10       Gamma Ray                                              
SGR           .GAPI                : 11       Standard Gamma Ray                                     
CGR           .GAPI                : 12       Computed Gamma Ray                                     
URAN          .PPM                 : 13       Uranium Concentration                                  
THOR          .PPM                 : 14       Thorium Concentration                                  
POTA          .PERCENT             : 15       Potassium Concentration                                
RXOZ          .OHMM                : 16       MCFL Resistivity                                       
AT10          .OHMM                : 17       10in Array Induction                                   
AT20          .OHMM                : 18       20in Array Induction                                   
AT30          .OHMM                : 19       20in Array Induction                                   
AT60          .OHMM                : 20       60in Array Induction                                   
AT90          .OHMM                : 21       90in Array Induction                                   
SP            .MV                  : 22       Spontaneous Potential                                  
NPHI          .FT3/FT3             : 23       Neutron NPHI Porosity                                  
TNPH          .FT3/FT3             : 24       Neutron TNPH Porosity                                  
PEFZ          .                    : 25       Photoelectic Factor                                    
HDRA          .G/CC                : 26       Density Correction                                     
DPHZ          .FT3/FT3             : 27       Density Porosity                                       
NPHU          .FT3/FT3             : 28       Environmentally Corrected Neutron Porosity             
RHOZ          .G/CC                : 29       Bulk Density                                           
UZ            .                    : 30       Volumetric Photoelectic Factor                         
WCLA_WALK2    .LB/LB               : 31       SpectroLith Weight Clay                                
WQFM_WALK2    .LB/LB               : 32       SpectroLith Weight QFM                                 
WCAR_WALK2    .LB/LB               : 33       SpectroLith Weight Carbonate                           
WPYR_WALK2    .LB/LB               : 34       SpectroLith Weight Pyrite                              
WSID_WALK2    .LB/LB               : 35       SpectroLith Weight Siderite                            
RHGE_WALK2    .G/CC                : 36       SpectroLith Matrix Bulk Density                        
DWAL_WALK2    .LB/LB               : 37       SpectroLith Dry Weight Aluminum(WALK2)                 
DWCA_WALK2    .LB/LB               : 38       SpectroLith Dry Weight Calcium                         
DWSI_WALK2    .LB/LB               : 39       SpectroLith Dry Weight Silicon                         
DWSU_WALK2    .LB/LB               : 40       SpectroLith Dry Weight Sulfur                          
DWTI_WALK2    .LB/LB               : 41       SpectroLith Dry Weight Titanium                        
DWGD_WALK2    .LB/LB               : 42       SpectroLith Dry Weight Gadolinium                      
DWFE_WALK2    .LB/LB               : 43       SpectroLith Dry Weight Iron(WALK2)                     
VCHL          .FT3/FT3             : 44       Elan Volume Chlorite                                   
VILL          .FT3/FT3             : 45       Elan Volume Illite                                     
VQUA          .FT3/FT3             : 46       Elan Volume Quartz                                     
VPYR          .FT3/FT3             : 47       Elan Volume Pyrite                                     
VSM1          .FT3/FT3             : 48       Elan Volume Special Mineral 1 Kerogen                  
VCLC          .FT3/FT3             : 49       Elan Volume Calcite                                    
VDOL          .FT3/FT3             : 50       Elan Volume Dolomite                                   
VSID          .FT3/FT3             : 51       Elan Volume Siderite                                   
VXBW          .FT3/FT3             : 52       Elan Clay Bound Water Volume                           
VXWA          .FT3/FT3             : 53       Elan Flushed Water Volume                              
VUWA          .FT3/FT3             : 54       Elan Water Volume                                      
VXGA          .FT3/FT3             : 55       Elan Flushed Gas Volume                                
VUGA          .FT3/FT3             : 56       Elan Gas Volume                                        
VMHY          .FT3/FT3             : 57       Elan Moved Hydrocarbon Volume                          
PIGN          .FT3/FT3             : 58       Elan Effective Porosity                                
PIGT          .FT3/FT3             : 59       Elan Total Porosity                                    
VCL           .FT3/FT3             : 60       Elan Total Clay Volume                                 
RHGA          .G/CC                : 61       Elan Apparent Grain Density                            
SXBW          .FT3/FT3             : 62       Elan Flushed Bound Water Saturation                    
SUWI          .FT3/FT3             : 63       Elan Water Saturation                                  
SXWI          .FT3/FT3             : 64       Elan Flushed Water Saturation                          
WCHL          .LB/LB               : 65       Elan Weight Percent Chlorite                           
WILL          .LB/LB               : 66       Elan Weight Percent Illite                             
WQUA          .LB/LB               : 67       Elan Weight Percent Quartz                             
WPYR          .LB/LB               : 68       Elan Weight Percent Pyrite                             
WSM1          .LB/LB               : 69       Elan Weight Percent Special Mineral 1 Kerogen          
WCLC          .LB/LB               : 70       Elan Weight Percent Calcite                            
WDOL          .LB/LB               : 71       Elan Weight Percent Dolomite                           
WSID          .LB/LB               : 72       Elan Weight Percent Siderite                           
DWIC_SCHMOKER .LB/LB               : 73       Schmoker TOC                                           
DWIC_TERRATEK .LB/LB               : 74       Terratek TOC                                           
KINT          .MD                  : 75       Intrinsic Permeability                                 
KWTR          .MD                  : 76       Permeability to Water                                  
KGAS          .MD                  : 77       Permeability to Gas                                    
TGAS_ADSORBED .SCF/TON             : 78       Adsorbed Gas                                           
TGAS_FREE     .SCF/TON             : 79       Free Gas                                               
TGAS_TOTAL    .SCF/TON             : 80       Total Gas                                              
CGAS_ADSORBED .BCF/SECTION         : 81       Cumulative Adsorbed Gas                                
CGAS_FREE     .BCF/SECTION         : 82       Cumulative Free Gas                                    
CGAS_TOTAL    .BCF/SECTION         : 83       Cumulative Total Gas                                   
RES_FLAG      .                    : 84       Shale Gas Reservoir Flag                               
PAY_FLAG      .                    : 85       Shale Gas Pay Flag                                     
~Ascii Data Section                          
# ...
   4096.500000      0.000000      0.013405      0.033715    134.093216      6.045748      6.250000   1847.000000   2346.000000    106.365273    117.967552     81.883316     22.753386      7.476941      3.468266      0.651893      3.209479      2.439430      2.491188      2.450198      2.436321      2.508324    -12.437500      0.303410      0.283430      4.116267      0.001292      0.241196      0.298315      2.297554      9.559454      0.132429      0.101495      0.740839      0.025237      0.000000      2.741837      0.026347      0.303286      0.070118      0.021811      0.001802      0.000000      0.011748      0.012586      0.083731      0.060839      0.010416      0.036714      0.436742      0.120065      0.000001      0.041422      0.197484      0.139472      0.000000      0.058012      0.058012      0.197484      0.238905      0.137739      2.705348      0.173381      0.706244      1.000000      0.018536      0.113903      0.078300      0.025244      0.023180      0.574821      0.166014      0.000002      0.100424      0.074194      0.001743      0.000010      0.000481     17.965113     77.256500     95.221611      6.491951     20.943302     27.435253      1.000000      0.000000
   4097.000000      0.000000      0.024868      0.034363    134.102264      6.057418      6.250000   1840.000000   2350.000000    111.436310    123.523567     83.729927     22.567163      7.813850      3.724755      0.597897      3.389344      2.552405      2.585117      2.523388      2.518708      2.578895    -12.562500      0.287590      0.282474      4.094932      0.003603      0.237476      0.297354      2.303915      9.534241      0.116802      0.109285      0.749368      0.024545      0.000000      2.733904      0.023238      0.306456      0.070541      0.015078      0.001431      0.000003      0.011426      0.022050      0.062633      0.062620      0.010206      0.046740      0.408693      0.157002      0.000000      0.032537      0.197519      0.139458      0.000000      0.058060      0.058060      0.197519      0.230055      0.117219      2.694320      0.141430      0.706052      1.000000      0.032231      0.084568      0.079993      0.024550      0.029290      0.533897      0.215469      0.000001      0.098538      0.073300      0.001756      0.000010      0.000460     22.700102     77.115601     99.815704      6.474000     20.866106     27.340107      1.000000      0.000000
   4097.500000      0.000000      0.027942      0.031122    134.111298      6.080759      6.250000   1847.000000   2317.000000    118.244827    130.926163     93.268120     27.453829      8.393706      4.581931      0.718716      3.535098      2.634499      2.727577      2.636369      2.620694      2.686807    -12.437500      0.310830      0.275112      4.036035      0.004855      0.233917      0.289913      2.310003      9.420065      0.094121      0.137935      0.758416      0.009528      0.000000      2.720987      0.018726      0.309820      0.073050      0.005093      0.000659      0.000004      0.010476      0.019400      0.049189      0.079477      0.004036      0.057859      0.439114      0.136732      0.000068      0.025809      0.188316      0.137268      0.000000      0.051047      0.051047      0.188316      0.214125      0.094398      2.649423      0.120532      0.728927      1.000000      0.028255      0.066172      0.101154      0.009672      0.036125      0.571534      0.186962      0.000127      0.096742      0.072445      0.001678      0.000010      0.000391     27.997089     67.629799     95.626892      6.451257     20.788837     27.240093      1.000000      0.000000
   4098.000000      0.000000      0.017143      0.032418    134.120346      6.080759      6.250000   1836.000000   2338.000000    133.486633    147.802597    101.518845     30.335705      9.073601      4.854928      0.829681      3.818914      2.853104      2.965554      2.863607      2.837843      2.895037    -12.500000      0.314926      0.293337      4.039284      0.004361      0.237390      0.308301      2.304062      9.405231      0.087067      0.138141      0.773669      0.001123      0.000000      2.716638      0.017322      0.315490      0.068176      0.000600      0.000097      0.000004      0.010456      0.017885      0.045346      0.070577      0.000586      0.072971      0.440569      0.141502      0.000151      0.023793      0.186620      0.132418      0.000000      0.054202      0.054202      0.186620      0.210412      0.087024      2.613325      0.113077      0.709560      1.000000      0.026283      0.061555      0.090639      0.001416      0.045973      0.578615      0.195235      0.000284      0.098494      0.073279      0.001653      0.000010      0.000419     35.628334     72.002190    107.630524      6.423131     20.720894     27.144026      1.000000      0.000000
   4098.500000      0.000000      0.005679      0.029825    134.129395      6.088539      6.250000   1829.000000   2386.000000    133.416122    147.670303     98.920387     28.238922      9.146073      4.689807      0.743219      4.500377      3.215368      3.362423      3.187510      3.161504      3.209943    -12.500000      0.306585      0.293829      4.131648      0.000852      0.241517      0.308795      2.297006      9.593056      0.081785      0.119210      0.799006      0.000000      0.000000      2.716465      0.016271      0.324909      0.059011      0.000000      0.000144      0.000003      0.009879      0.016806      0.042611      0.054666      0.000109      0.075291      0.481198      0.120905      0.000143      0.022357      0.185915      0.125870      0.000000      0.060045      0.060045      0.185915      0.208272      0.081774      2.604958      0.107347      0.677032      1.000000      0.024710      0.057870      0.070240      0.000264      0.047458      0.632290      0.166899      0.000269      0.100587      0.074271      0.001285      0.000010      0.000371     36.779045     80.017563    116.796608      6.387432     20.648745     27.036177      1.000000      0.000000
   4099.000000      0.000000      0.000000      0.022692    134.138428      6.080759      6.250000   1840.000000   2345.000000    116.299500    128.772202     87.817924     25.798975      7.980275      4.116464      0.707719      5.407109      3.715114      3.948728      3.840359      3.859268      3.797150    -12.500000      0.283665      0.275742      4.220444     -0.001040      0.240425      0.290544      2.298874      9.806595      0.076587      0.104107      0.819280      0.000000      0.000026      2.716689      0.015237      0.332446      0.052020      0.000000      0.000000      0.000003      0.009303      0.015843      0.040169      0.050173      0.000056      0.062880      0.541480      0.083526      0.000097      0.021076      0.184699      0.115729      0.000000      0.068970      0.068970      0.184699      0.205775      0.077089      2.620325      0.102425      0.626581      1.000000      0.023085      0.054064      0.063888      0.000135      0.039278      0.705104      0.114264      0.000181      0.100032      0.074008      0.001004      0.000010      0.000345     30.439690     91.847313    122.287003      6.350693     20.568810     26.919502      1.000000      0.000000
   4099.500000      0.000000      0.014443      0.022693    134.147476      6.057418      6.250000   1839.000000   2343.000000     94.162636    104.376251     78.131386     20.892426      7.398974      3.214871      0.593397      5.916316      3.956558      4.248257      4.131533      4.040719      4.034283    -12.750000      0.257665      0.252549      4.281053      0.002979      0.229177      0.267005      2.318108     10.024348      0.079334      0.100388      0.820252      0.000000      0.000027      2.717367      0.015784      0.332807      0.050615      0.000000      0.000000      0.000002      0.009637      0.016616      0.042128      0.058593      0.000018      0.043065      0.584742      0.052429      0.000051      0.022104      0.180255      0.111757      0.000000      0.068498      0.068498      0.180255      0.202359      0.080848      2.650119      0.109233      0.619994      1.000000      0.023836      0.055823      0.073454      0.000042      0.026485      0.749654      0.070613      0.000093      0.094367      0.071306      0.000835      0.000010      0.000294     20.524477     90.471649    110.996124      6.320261     20.476982     26.797243      1.000000      0.000000
