~Version Information                         
VERS  .          2.0                                 :CWLS Log Ascii Standard - Version 2 
WRAP  .          NO                                  :One line per depth step             
~Well Information Block                      
#MNEM.UNIT  Data Type                                Information                                  
#---------  ---------                                ----------------------------------------     
STRT  .F     3750.0000                               :Start Depth                                 
STOP  .F     4270.0000                               :Stop Depth                                  
STEP  .F    0.50000                                  :Increment                                   
NULL  .    -999.25                                   :Null Data Value                             
COMP  .     Enerplus                                 :Company                                     
WELL  .     State 7-51-33-12                         :Well                                        
FLD   .     Wildcat                                  :Field                                       
LOC   .     NWNE Sec. 33, T 7N , R 51                :Location                                    
LOC1  .     SHL: 671 FNL / 1888 FEL                  :Location1                                   
STAT  .     Colorado                                 :State                                       
CNTY  .     Logan                                    :County                                      
CTRY  .     USA                                      :Country                                     
DATE  .     16-Dec-2009                              :Logging Date                                
UWI   .     05-075-09383-0000                        :Unique Well ID                              
API   .     05-075-09383-0000                        :API Number                                  
SRVC  .     SLB                                      :Service Company                             
~Curve Information Block                     
#MNEN.UNIT                         Curve      Description                       
#---------                         -----      -----------                       
DEPT          .F                   :  0       Index                             
RSOZ          .IN                  :  1       MCFL Standoff                                          
DSOZ          .IN                  :  2       Density Standoff                                       
HRUG          .1/FT                :  3       Hole Rugosity                                          
TEMP          .DEGF                :  4       Temperature                                            
HCAL          .IN                  :  5       Caliper                                                
BS            .IN                  :  6       Bit Size                                               
CS            .FT/HR               :  7       Cable Speed                                            
TENS          .LB                  :  8       Cable Tension                                          
GR_EC         .GAPI                :  9       Environmentally Corrected Gamma Ray                    
GR            .GAPI                : 10       Gamma Ray                                              
SGR           .GAPI                : 11       Standard Gamma Ray                                     
CGR           .GAPI                : 12       Computed Gamma Ray                                     
URAN          .PPM                 : 13       Uranium Concentration                                  
THOR          .PPM                 : 14       Thorium Concentration                                  
POTA          .PERCENT             : 15       Potassium Concentration                                
RXOZ          .OHMM                : 16       MCFL Resistivity                                       
AT10          .OHMM                : 17       10in Array Induction                                   
AT20          .OHMM                : 18       20in Array Induction                                   
AT30          .OHMM                : 19       20in Array Induction                                   
AT60          .OHMM                : 20       60in Array Induction                                   
AT90          .OHMM                : 21       90in Array Induction                                   
SP            .MV                  : 22       Spontaneous Potential                                  
NPHI          .FT3/FT3             : 23       Neutron NPHI Porosity                                  
TNPH          .FT3/FT3             : 24       Neutron TNPH Porosity                                  
PEFZ          .                    : 25       Photoelectic Factor                                    
HDRA          .G/CC                : 26       Density Correction                                     
DPHZ          .FT3/FT3             : 27       Density Porosity                                       
NPHU          .FT3/FT3             : 28       Environmentally Corrected Neutron Porosity             
RHOZ          .G/CC                : 29       Bulk Density                                           
UZ            .                    : 30       Volumetric Photoelectic Factor                         
WCLA_WALK2    .LB/LB               : 31       SpectroLith Weight Clay                                
WQFM_WALK2    .LB/LB               : 32       SpectroLith Weight QFM                                 
WCAR_WALK2    .LB/LB               : 33       SpectroLith Weight Carbonate                           
WPYR_WALK2    .LB/LB               : 34       SpectroLith Weight Pyrite                              
WSID_WALK2    .LB/LB               : 35       SpectroLith Weight Siderite                            
RHGE_WALK2    .G/CC                : 36       SpectroLith Matrix Bulk Density                        
DWAL_WALK2    .LB/LB               : 37       SpectroLith Dry Weight Aluminum(WALK2)                 
DWCA_WALK2    .LB/LB               : 38       SpectroLith Dry Weight Calcium                         
DWSI_WALK2    .LB/LB               : 39       SpectroLith Dry Weight Silicon                         
DWSU_WALK2    .LB/LB               : 40       SpectroLith Dry Weight Sulfur                          
DWTI_WALK2    .LB/LB               : 41       SpectroLith Dry Weight Titanium                        
DWGD_WALK2    .LB/LB               : 42       SpectroLith Dry Weight Gadolinium                      
DWFE_WALK2    .LB/LB               : 43       SpectroLith Dry Weight Iron(WALK2)                     
VCHL          .FT3/FT3             : 44       Elan Volume Chlorite                                   
VILL          .FT3/FT3             : 45       Elan Volume Illite                                     
VQUA          .FT3/FT3             : 46       Elan Volume Quartz                                     
VPYR          .FT3/FT3             : 47       Elan Volume Pyrite                                     
VSM1          .FT3/FT3             : 48       Elan Volume Special Mineral 1 Kerogen                  
VCLC          .FT3/FT3             : 49       Elan Volume Calcite                                    
VDOL          .FT3/FT3             : 50       Elan Volume Dolomite                                   
VSID          .FT3/FT3             : 51       Elan Volume Siderite                                   
VXBW          .FT3/FT3             : 52       Elan Clay Bound Water Volume                           
VXWA          .FT3/FT3             : 53       Elan Flushed Water Volume                              
VUWA          .FT3/FT3             : 54       Elan Water Volume                                      
VXGA          .FT3/FT3             : 55       Elan Flushed Gas Volume                                
VUGA          .FT3/FT3             : 56       Elan Gas Volume                                        
VMHY          .FT3/FT3             : 57       Elan Moved Hydrocarbon Volume                          
PIGN          .FT3/FT3             : 58       Elan Effective Porosity                                
PIGT          .FT3/FT3             : 59       Elan Total Porosity                                    
VCL           .FT3/FT3             : 60       Elan Total Clay Volume                                 
RHGA          .G/CC                : 61       Elan Apparent Grain Density                            
SXBW          .FT3/FT3             : 62       Elan Flushed Bound Water Saturation                    
SUWI          .FT3/FT3             : 63       Elan Water Saturation                                  
SXWI          .FT3/FT3             : 64       Elan Flushed Water Saturation                          
WCHL          .LB/LB               : 65       Elan Weight Percent Chlorite                           
WILL          .LB/LB               : 66       Elan Weight Percent Illite                             
WQUA          .LB/LB               : 67       Elan Weight Percent Quartz                             
WPYR          .LB/LB               : 68       Elan Weight Percent Pyrite                             
WSM1          .LB/LB               : 69       Elan Weight Percent Special Mineral 1 Kerogen          
WCLC          .LB/LB               : 70       Elan Weight Percent Calcite                            
WDOL          .LB/LB               : 71       Elan Weight Percent Dolomite                           
WSID          .LB/LB               : 72       Elan Weight Percent Siderite                           
DWIC_SCHMOKER .LB/LB               : 73       Schmoker TOC                                           
DWIC_TERRATEK .LB/LB               : 74       Terratek TOC                                           
KINT          .MD                  : 75       Intrinsic Permeability                                 
KWTR          .MD                  : 76       Permeability to Water                                  
KGAS          .MD                  : 77       Permeability to Gas                                    
TGAS_ADSORBED .SCF/TON             : 78       Adsorbed Gas                                           
TGAS_FREE     .SCF/TON             : 79       Free Gas                                               
TGAS_TOTAL    .SCF/TON             : 80       Total Gas                                              
CGAS_ADSORBED .BCF/SECTION         : 81       Cumulative Adsorbed Gas                                
CGAS_FREE     .BCF/SECTION         : 82       Cumulative Free Gas                                    
CGAS_TOTAL    .BCF/SECTION         : 83       Cumulative Total Gas                                   
RES_FLAG      .                    : 84       Shale Gas Reservoir Flag                               
PAY_FLAG      .                    : 85       Shale Gas Pay Flag                                     
~Ascii Data Section                          
# ...
   4268.000000      0.000000      0.006669      0.021396    137.195129      6.139112      6.250000   1777.000000   2417.000000    109.819061    121.262840     67.376999      1.366727     10.363134     -3.479731      0.669073      3.045479      2.556087      2.627046      2.598002      2.584255      2.603765    -16.625000      0.240906      0.225440      2.521830     -0.002332      0.156875      0.239251      2.441744      6.196302      0.216941      0.697338      0.075354      0.010368      0.000000      2.704427      0.043161      0.055894      0.326230      0.005542      0.002435      0.000000      0.024646      0.043145      0.109455      0.570946      0.004635      0.020306      0.000000      0.058104      0.000014      0.057270      0.136124      0.120706      0.000000      0.015419      0.015419      0.136124      0.193395      0.209871      2.739907      0.296132      0.886732      1.000000      0.059188      0.159100      0.684612      0.010465      0.011761      0.000000      0.074850      0.000024      0.060083      0.053935      0.004482      0.001449      0.000080      9.075336     20.043484     29.118820      0.041012      0.117619      0.158631      0.000000      0.000000
   4268.500000      0.000000      0.006669      0.019451    137.204178      6.139112      6.250000   1771.000000   2472.000000    106.350914    117.433289     67.376999      1.366727     10.363179     -3.479746      0.669076      2.998511      2.534199      2.621804      2.591280      2.569556      2.599957    -16.812500      0.245474      0.227558      2.535636     -0.002290      0.156182      0.241426      2.442929      6.233032      0.245526      0.618256      0.119041      0.017177      0.000000      2.717050      0.048848      0.072134      0.297475      0.009181      0.002335      0.000003      0.027655      0.016222      0.154317      0.510297      0.007632      0.010573      0.000000      0.092204      0.000000      0.075277      0.133479      0.112717      0.000000      0.020762      0.020762      0.133479      0.208756      0.245816      2.794731      0.360599      0.844455      1.000000      0.022241      0.224177      0.611531      0.017222      0.006120      0.000000      0.118710      0.000000      0.059771      0.053769      0.003259      0.000445      0.000160      4.722569     26.979481     31.702049      0.031375      0.096335      0.127710      1.000000      0.000000
   4269.000000      0.000000      0.000000      0.012967    137.213211      6.127441      6.250000   1776.000000   2454.000000    110.568886    122.157875     67.363190      1.366446     10.361081     -3.479042      0.668941      2.984091      2.536559      2.616919      2.568022      2.557137      2.590648    -16.562500      0.246027      0.232371      2.554097     -0.000568      0.153094      0.246364      2.448209      6.291012      0.245925      0.611414      0.126497      0.016164      0.000000      2.717122      0.048927      0.074906      0.294022      0.008640      0.002321      0.000005      0.027784      0.024198      0.147442      0.503441      0.007196      0.014402      0.000000      0.098101      0.000000      0.072990      0.132230      0.113453      0.000000      0.018776      0.018776      0.132230      0.205219      0.244630      2.786633      0.355667      0.858001      1.000000      0.033125      0.213857      0.602375      0.016213      0.008324      0.000000      0.126106      0.000000      0.058385      0.053027      0.003036      0.000497      0.000123      6.422726     24.349327     30.772053      0.026358      0.067671      0.094029      0.000000      0.000000
   4269.500000      0.000000      0.000000      0.009077    137.222260      6.127441      6.250000   1779.000000   2433.000000    108.168678    119.506096     67.340164      1.365979     10.357545     -3.477854      0.668712      3.099105      2.571990      2.649000      2.624319      2.596772      2.614112    -16.625000      0.244207      0.233711      2.573948      0.000538      0.150712      0.247738      2.452282      6.349701      0.222223      0.657096      0.110998      0.009683      0.000000      2.707371      0.044212      0.069144      0.308901      0.005176      0.002646      0.000005      0.025257      0.044299      0.112382      0.539237      0.004349      0.018353      0.000000      0.085874      0.000025      0.058802      0.136680      0.119824      0.000000      0.016857      0.016857      0.136680      0.195482      0.215482      2.752044      0.300803      0.876669      1.000000      0.060659      0.163055      0.645408      0.009801      0.010610      0.000000      0.110422      0.000044      0.057321      0.052454      0.004340      0.001194      0.000102      8.187115     21.826042     30.013157      0.019520      0.041745      0.061265      0.000000      0.000000
   4270.000000      0.000000      0.000000      0.013616    137.231308      6.119660      6.250000   1777.000000   2423.000000    107.467789    118.775269     67.312531      1.365419     10.353294     -3.476427      0.668438      3.142467      2.598149      2.695445      2.663214      2.613333      2.626039    -17.125000      0.249265      0.227298      2.606300      0.000823      0.150613      0.241159      2.452451      6.429923      0.196195      0.705687      0.091756      0.006362      0.000000      2.698564      0.039034      0.061991      0.326385      0.003400      0.002782      0.000005      0.022287      0.039192      0.099427      0.577005      0.002924      0.022659      0.000000      0.070619      0.000097      0.052023      0.136054      0.122682      0.000000      0.013372      0.013372      0.136054      0.188077      0.190642      2.724774      0.276605      0.901713      1.000000      0.053709      0.144374      0.691163      0.006595      0.013110      0.000000      0.090879      0.000170      0.057276      0.052431      0.005823      0.002490      0.000059     10.115776     17.314930     27.430706      0.010789      0.018468      0.029256      0.000000      0.000000
