~Version Information                         
VERS  .          2.0                                 :CWLS Log Ascii Standard - Version 2 
WRAP  .          NO                                  :One line per depth step             
~Well Information Block                      
#MNEM.UNIT  Data Type                                Information                                  
#---------  ---------                                ----------------------------------------     
STRT  .F     3750.0000                               :Start Depth                                 
STOP  .F     4270.0000                               :Stop Depth                                  
STEP  .F    0.50000                                  :Increment                                   
NULL  .    -999.25                                   :Null Data Value                             
COMP  .     Enerplus                                 :Company                                     
WELL  .     State 7-51-33-12                         :Well                                        
FLD   .     Wildcat                                  :Field                                       
LOC   .     NWNE Sec. 33, T 7N , R 51                :Location                                    
LOC1  .     SHL: 671 FNL / 1888 FEL                  :Location1                                   
STAT  .     Colorado                                 :State                                       
CNTY  .     Logan                                    :County                                      
CTRY  .     USA                                      :Country                                     
DATE  .     16-Dec-2009                              :Logging Date                                
UWI   .     05-075-09383-0000                        :Unique Well ID                              
API   .     05-075-09383-0000                        :API Number                                  
SRVC  .     SLB                                      :Service Company                             
~Curve Information Block                     
#MNEN.UNIT                         Curve      Description                       
#---------                         -----      -----------                       
DEPT          .F                   :  0       Index                             
RSOZ          .IN                  :  1       MCFL Standoff                                          
DSOZ          .IN                  :  2       Density Standoff                                       
HRUG          .1/FT                :  3       Hole Rugosity                                          
TEMP          .DEGF                :  4       Temperature                                            
HCAL          .IN                  :  5       Caliper                                                
BS            .IN                  :  6       Bit Size                                               
CS            .FT/HR               :  7       Cable Speed                                            
TENS          .LB                  :  8       Cable Tension                                          
GR_EC         .GAPI                :  9       Environmentally Corrected Gamma Ray                    
GR            .GAPI                : 10       Gamma Ray                                              
SGR           .GAPI                : 11       Standard Gamma Ray                                     
CGR           .GAPI                : 12       Computed Gamma Ray                                     
URAN          .PPM                 : 13       Uranium Concentration                                  
THOR          .PPM                 : 14       Thorium Concentration                                  
POTA          .PERCENT             : 15       Potassium Concentration                                
RXOZ          .OHMM                : 16       MCFL Resistivity                                       
AT10          .OHMM                : 17       10in Array Induction                                   
AT20          .OHMM                : 18       20in Array Induction                                   
AT30          .OHMM                : 19       20in Array Induction                                   
AT60          .OHMM                : 20       60in Array Induction                                   
AT90          .OHMM                : 21       90in Array Induction                                   
SP            .MV                  : 22       Spontaneous Potential                                  
NPHI          .FT3/FT3             : 23       Neutron NPHI Porosity                                  
TNPH          .FT3/FT3             : 24       Neutron TNPH Porosity                                  
PEFZ          .                    : 25       Photoelectic Factor                                    
HDRA          .G/CC                : 26       Density Correction                                     
DPHZ          .FT3/FT3             : 27       Density Porosity                                       
NPHU          .FT3/FT3             : 28       Environmentally Corrected Neutron Porosity             
RHOZ          .G/CC                : 29       Bulk Density                                           
UZ            .                    : 30       Volumetric Photoelectic Factor                         
WCLA_WALK2    .LB/LB               : 31       SpectroLith Weight Clay                                
WQFM_WALK2    .LB/LB               : 32       SpectroLith Weight QFM                                 
WCAR_WALK2    .LB/LB               : 33       SpectroLith Weight Carbonate                           
WPYR_WALK2    .LB/LB               : 34       SpectroLith Weight Pyrite                              
WSID_WALK2    .LB/LB               : 35       SpectroLith Weight Siderite                            
RHGE_WALK2    .G/CC                : 36       SpectroLith Matrix Bulk Density                        
DWAL_WALK2    .LB/LB               : 37       SpectroLith Dry Weight Aluminum(WALK2)                 
DWCA_WALK2    .LB/LB               : 38       SpectroLith Dry Weight Calcium                         
DWSI_WALK2    .LB/LB               : 39       SpectroLith Dry Weight Silicon                         
DWSU_WALK2    .LB/LB               : 40       SpectroLith Dry Weight Sulfur                          
DWTI_WALK2    .LB/LB               : 41       SpectroLith Dry Weight Titanium                        
DWGD_WALK2    .LB/LB               : 42       SpectroLith Dry Weight Gadolinium                      
DWFE_WALK2    .LB/LB               : 43       SpectroLith Dry Weight Iron(WALK2)                     
VCHL          .FT3/FT3             : 44       Elan Volume Chlorite                                   
VILL          .FT3/FT3             : 45       Elan Volume Illite                                     
VQUA          .FT3/FT3             : 46       Elan Volume Quartz                                     
VPYR          .FT3/FT3             : 47       Elan Volume Pyrite                                     
VSM1          .FT3/FT3             : 48       Elan Volume Special Mineral 1 Kerogen                  
VCLC          .FT3/FT3             : 49       Elan Volume Calcite                                    
VDOL          .FT3/FT3             : 50       Elan Volume Dolomite                                   
VSID          .FT3/FT3             : 51       Elan Volume Siderite                                   
VXBW          .FT3/FT3             : 52       Elan Clay Bound Water Volume                           
VXWA          .FT3/FT3             : 53       Elan Flushed Water Volume                              
VUWA          .FT3/FT3             : 54       Elan Water Volume                                      
VXGA          .FT3/FT3             : 55       Elan Flushed Gas Volume                                
VUGA          .FT3/FT3             : 56       Elan Gas Volume                                        
VMHY          .FT3/FT3             : 57       Elan Moved Hydrocarbon Volume                          
PIGN          .FT3/FT3             : 58       Elan Effective Porosity                                
PIGT          .FT3/FT3             : 59       Elan Total Porosity                                    
VCL           .FT3/FT3             : 60       Elan Total Clay Volume                                 
RHGA          .G/CC                : 61       Elan Apparent Grain Density                            
SXBW          .FT3/FT3             : 62       Elan Flushed Bound Water Saturation                    
SUWI          .FT3/FT3             : 63       Elan Water Saturation                                  
SXWI          .FT3/FT3             : 64       Elan Flushed Water Saturation                          
WCHL          .LB/LB               : 65       Elan Weight Percent Chlorite                           
WILL          .LB/LB               : 66       Elan Weight Percent Illite                             
WQUA          .LB/LB               : 67       Elan Weight Percent Quartz                             
WPYR          .LB/LB               : 68       Elan Weight Percent Pyrite                             
WSM1          .LB/LB               : 69       Elan Weight Percent Special Mineral 1 Kerogen          
WCLC          .LB/LB               : 70       Elan Weight Percent Calcite                            
WDOL          .LB/LB               : 71       Elan Weight Percent Dolomite                           
WSID          .LB/LB               : 72       Elan Weight Percent Siderite                           
DWIC_SCHMOKER .LB/LB               : 73       Schmoker TOC                                           
DWIC_TERRATEK .LB/LB               : 74       Terratek TOC                                           
KINT          .MD                  : 75       Intrinsic Permeability                                 
KWTR          .MD                  : 76       Permeability to Water                                  
KGAS          .MD                  : 77       Permeability to Gas                                    
TGAS_ADSORBED .SCF/TON             : 78       Adsorbed Gas                                           
TGAS_FREE     .SCF/TON             : 79       Free Gas                                               
TGAS_TOTAL    .SCF/TON             : 80       Total Gas                                              
CGAS_ADSORBED .BCF/SECTION         : 81       Cumulative Adsorbed Gas                                
CGAS_FREE     .BCF/SECTION         : 82       Cumulative Free Gas                                    
CGAS_TOTAL    .BCF/SECTION         : 83       Cumulative Total Gas                                   
RES_FLAG      .                    : 84       Shale Gas Reservoir Flag                               
PAY_FLAG      .                    : 85       Shale Gas Pay Flag                                     
~Ascii Data Section                          
# ...
   4198.000000      0.000000      0.024505      0.031121    135.929047      5.824010      6.250000   1817.000000   2396.000000    126.885101    142.218155    107.429718     20.544897     11.236263      2.783670      0.647981      3.955737      2.723007      2.710365      2.670617      2.631204      2.645883    -15.875000      0.266874      0.262519      4.309697      0.005234      0.232992      0.277127      2.311584     10.065156      0.161680      0.058953      0.755960      0.023406      0.000000      2.742262      0.032167      0.308907      0.051182      0.012511      0.001453      0.000000      0.017352      0.000004      0.121239      0.025815      0.009845      0.042665      0.536769      0.046704      0.000000      0.057738      0.155273      0.125578      0.003947      0.033642      0.029695      0.159220      0.216959      0.178982      2.682126      0.266126      0.788706      0.975208      0.000006      0.161693      0.032573      0.023392      0.026409      0.692616      0.063310      0.000000      0.096278      0.072222      0.000328      0.000010      0.000073     20.415966     45.519615     65.935577      1.051999      4.626461      5.678460      1.000000      0.000000
   4198.500000      0.000000      0.026643      0.043440    135.938080      5.777328      6.250000   1817.000000   2378.000000    113.856773    127.901306     93.983437     19.718914      9.643927      2.754898      0.607732      3.943225      2.668808      2.684358      2.645142      2.622115      2.681043    -16.250000      0.256712      0.245463      4.283404      0.005276      0.221177      0.259757      2.331787     10.084598      0.194449      0.048514      0.733260      0.023777      0.000000      2.747920      0.038686      0.300468      0.049548      0.012709      0.002046      0.000000      0.021076      0.000004      0.147789      0.029055      0.010126      0.020281      0.511692      0.061015      0.000000      0.070382      0.135830      0.117788      0.013826      0.031868      0.018042      0.149656      0.220038      0.218175      2.728665      0.319863      0.787060      0.907617      0.000006      0.194505      0.036178      0.023743      0.012388      0.651559      0.081621      0.000000      0.090395      0.069384      0.000256      0.000010      0.000059      9.576996     42.749424     52.326420      1.031476      4.580699      5.612175      1.000000      0.000000
   4199.000000      0.000000      0.043495      0.046033    135.947128      5.905703      6.250000   1807.000000   2387.000000    123.736031    138.148483     99.204926     22.401711     10.014008      2.989805      0.714313      3.743973      2.614438      2.675508      2.633396      2.583971      2.590779    -15.937500      0.269497      0.253344      4.247519      0.009637      0.203583      0.267798      2.361873     10.119497      0.216445      0.042562      0.714240      0.026752      0.000000      2.753244      0.043062      0.293398      0.050080      0.014299      0.001890      0.000000      0.023589      0.000004      0.166699      0.024445      0.011551      0.020827      0.480673      0.083465      0.000000      0.079388      0.128067      0.112398      0.004881      0.020550      0.015669      0.132948      0.212336      0.246091      2.738069      0.373878      0.845432      0.963287      0.000006      0.216501      0.030037      0.026725      0.012554      0.603996      0.110180      0.000000      0.081820      0.065157      0.000180      0.000010      0.000032      9.705009     27.218311     36.923321      1.021764      4.537347      5.559112      1.000000      0.000000
   4199.500000      0.000000      0.035899      0.046034    135.956177      5.894032      6.250000   1832.000000   2411.000000    123.056961    137.466766     95.865898     22.300686      9.630085      2.874935      0.728413      3.395688      2.610474      2.728237      2.617162      2.566683      2.547713    -15.937500      0.273755      0.264238      4.146857      0.008420      0.197496      0.278880      2.372282      9.919997      0.202481      0.065746      0.708231      0.023542      0.000000      2.748506      0.040284      0.291164      0.057290      0.012583      0.001407      0.000003      0.022316      0.014817      0.140094      0.040584      0.010193      0.026048      0.417654      0.139078      0.000011      0.068537      0.142985      0.120180      0.000000      0.022805      0.022805      0.142985      0.211523      0.223448      2.736214      0.324019      0.840508      1.000000      0.020826      0.181883      0.049849      0.023575      0.015695      0.524622      0.183530      0.000019      0.078905      0.063694      0.000338      0.000010      0.000056     12.133229     30.076296     42.209526      1.011796      4.509389      5.521185      1.000000      0.000000
   4200.000000      0.000000      0.024230      0.026583    135.965210      5.940714      6.250000   1815.000000   2370.000000    114.948822    128.124039     87.550903     22.009151      8.611587      2.897641      0.708594      3.237581      2.655686      2.697098      2.663201      2.617901      2.593195    -15.937500      0.276329      0.256974      4.076995      0.008180      0.193361      0.271498      2.379354      9.779812      0.173745      0.095644      0.705283      0.025328      0.000000      2.742929      0.034567      0.290068      0.068887      0.013538      0.001168      0.000003      0.018786      0.017390      0.115632      0.064310      0.011006      0.027730      0.382838      0.171672      0.000013      0.057204      0.152206      0.125414      0.000000      0.026793      0.026793      0.152206      0.209410      0.190225      2.737572      0.273167      0.823972      1.000000      0.024365      0.149649      0.078742      0.025374      0.016656      0.479366      0.225824      0.000024      0.076938      0.062701      0.000654      0.000010      0.000113     12.875842     35.234055     48.109898      0.999279      4.478359      5.477637      1.000000      0.000000
   4200.500000      0.000000      0.007378      0.004539    135.974258      5.964055      6.250000   1815.000000   2353.000000    102.195091    113.782188     77.936584     22.393591      7.224785      3.094673      0.695966      3.330586      2.722242      2.679635      2.679371      2.649975      2.584765    -16.687500      0.278613      0.254024      4.036983      0.003717      0.191521      0.268493      2.382499      9.695696      0.140885      0.126185      0.706786      0.026144      0.000000      2.736250      0.028030      0.290627      0.079951      0.013974      0.000900      0.000004      0.014838      0.030171      0.076496      0.089002      0.011380      0.028863      0.344446      0.210508      0.000011      0.040137      0.168986      0.133385      0.000000      0.035601      0.035601      0.168986      0.209123      0.146803      2.742180      0.191928      0.789326      1.000000      0.042186      0.098797      0.108752      0.026185      0.017302      0.430414      0.276345      0.000019      0.076067      0.062259      0.001473      0.000010      0.000270     13.374538     46.760944     60.135483      0.985956      4.441899      5.427855      1.000000      0.000000
   4201.000000      0.000000      0.000000      0.016857    135.983307      5.987395      6.250000   1809.000000   2413.000000     94.797325    105.428772     69.770164     21.784004      6.219324      3.066055      0.667525      3.102298      2.705641      2.674557      2.650733      2.644975      2.547497    -16.687500      0.284597      0.252901      4.036434      0.001938      0.183687      0.267350      2.395896      9.744895      0.121075      0.140368      0.713392      0.025166      0.000000      2.731821      0.024088      0.293082      0.084064      0.013451      0.000787      0.000003      0.012548      0.026010      0.065947      0.100945      0.011021      0.027634      0.337446      0.222888      0.000067      0.034602      0.173439      0.136535      0.000000      0.036904      0.036904      0.173439      0.208041      0.126559      2.741704      0.166322      0.787219      1.000000      0.036325      0.085072      0.123200      0.025328      0.016545      0.421163      0.292247      0.000121      0.072384      0.060377      0.002190      0.000010      0.000393     12.789431     48.207115     60.996544      0.972098      4.393447      5.365546      1.000000      0.000000
