~VERSION INFORMATION
VERS.           1.2   :CWLS Log ASCII Standard - VERSION 1.2
WRAP.           NO    :One Line per depth step
PROD.  Schlumberger   :LAS Producer
PROG.  DLIS to ASCII 17C0-152                          :LAS Program name and version
CREA.        2011/10/27 17:25                          :LAS Creation date {YYYY/MM/DD hh:mm}
DLIS_CREA.  2011-Oct-27 07:17                          :DLIS Creation date and time {YYYY-MMM-DD hh:mm}
SOURCE.     79519d1b-f2ac-4620-a9ab-fbce0bbece67       :DLIS File Name
#--------------------------------------------------
~WELL INFORMATION
#MNEM.UNIT      DATA             DESCRIPTION
#---- ------ --------------   -----------------------------
STRT .F      3722.5000       :START DEPTH     
STOP .F      4490.0000       :STOP DEPTH     
STEP .F       0.5000         :STEP       
NULL .          -999.25      :NULL VALUE
COMP .                 COMPANY:  SWEPI LP                           
WELL .                    WELL:  Harper Hill 2-29                   
FLD  .                   FIELD:  Swan                               
LOC  .                LOCATION:                                     
CNTY .                  COUNTY:  Moffat                             
STAT .                   STATE:  Colorado                           
CTRY .                 COUNTRY:                                     
SRVC .         SERVICE COMPANY:  Schlumberger                       
API  .              API NUMBER:  05-0081-07659                      
DATE .                LOG DATE:  26-Oct-2011
UWI  .          UNIQUE WELL ID:                                     
#-----------------------------------------------------------------------------
~PARAMETER INFORMATION
#MNEM.UNIT    VALUE                      DESCRIPTION
#---- -----   --------------------       ------------------------
CN   .        SWEPI LP                   :Company Name
WN   .        Harper Hill 2-29           :Well Name
FN   .        Swan                       :Field Name
FL   .                                   :Field Location
FL1  .                                   :Field Location Line 1
COUN .        Moffat                     :County or Rig Name
STAT .        Colorado                   :State or Province
NATI .                                   :Nation
DATE .        26-Oct-2011                :Date as Month-Day-Year
APIN .        05-0081-07659              :API Serial Number
SECT .        29                         :Section
TOWN .        5N                         :Township
RANG .        90W                        :Range
DMF  .        Kelly Bushing              :Drilling Measured From
LMF  .        Kelly Bushing              :Log Measured From
PDAT .        Ground Level               :Permanent Datum
ENGI .        Mark Kast                  :Engineer's Name
WITN .        Tony                       :Witness's Name
LATI .                                   :Latitude
LONG .                                   :Longitude
LUL  .        Rock Springs               :Logging Unit Location
LUN  .              2271                 :Logging Unit Number
RUN  .        Two                        :Run Number
SON  .                                   :Service Order Number
BHT  .DEGF     127.00000                 :Bottom Hole Temperature (used in calculations)
BS   .IN         6.75000                 :Bit Size
DFD  .LB/G       7.90000                 :Drilling Fluid Density
DFV  .S         44.00000                 :Drilling Fluid Viscosity
DFL  .C3        16.60000                 :Drilling Fluid Loss
RMFS .                                   :Resistivity of Mud Filtrate Sample
EKB  .F       6597.00000                 :Elevation of Kelly Bushing
EGL  .F       6585.00000                 :Elevation of Ground Level
BLI  .                                   :Bottom Log Interval
BSAL .PPM     44500.00000                :Borehole Salinity
FLEV .                                   :Fluid Level
MCST .                                   :Mud Cake Sample Temperature
MFST .                                   :Mud Filtrate Sample Temperature
MRT  .DEGF     127.00000                 :Maximum Recorded Temperature
MST  .                                   :Mud Sample Temperature
RMCS .                                   :Resistivity of Mud Cake Sample
RMS  .                                   :Resistivity of Mud Sample
RW   .OHMM       1.00000                 :Resistivity of Connate Water
TDD  .F       4480.00000                 :Total Depth - Driller
TDL  .F       4482.00000                 :Total Depth - Logger
TLI  .                                   :Top Log Interval
HIDE .                                   :Header Identifier
MATR .        SAND                       :Rock Matrix for Neutron Porosity Corrections
DFT  .        OBM                        :Drilling Fluid Type
DFPH .                                   :Drilling Fluid PH
MCSS .        N/A                        :Mud Cake Sample Source
MFSS .        N/A                        :Mud Filtrate Sample Source
MSS  .        N/A                        :Mud Sample Source
OS1  .                                   :Other Services Line 1
OS2  .                                   :Other Services Line 2
OS3  .                                   :Other Services Line 3
OS4  .                                   :Other Services Line 4
OS5  .                                   :Other Services Line 5
R1   .                                   :Remark Line 1
R2   .                                   :Remark Line 2
R3   .                                   :Remark Line 3
R4   .                                   :Remark Line 4
R5   .                                   :Remark Line 5
R6   .                                   :Remark Line 6
R7   .                                   :Remark Line 7
R8   .                                   :Remark Line 8
TCS  .        20 00                      :Time Circulation Stopped
TLAB .                                   :Time Logger At Bottom
EPD  .F         6585.000000              :Elevation of Permanent Datum above Mean Sea Level
APD  .F          12.000000               :Elevation of Depth Reference (LMF) above Permanent Datum
#-----------------------------------------------------------------------------
~CURVE INFORMATION
#MNEM.UNIT   API CODE                                  DESCRIPTION
#---- -----  --------                                  -----------------------
DEPT .F                                                :DEPTH (BOREHOLE) {F12.4}
C1_OBMT.IN                                             :OBMT Caliper 1 {F11.4}
C2_OBMT.IN                                             :OBMT Caliper 2 {F11.4}
CDF  .LBF                                              :Calibrated Downhole Force {F11.4}
CTEM .DEGF                                             :Cartridge Temperature {F11.4}
DCAL .IN                                               :Differential Caliper {F11.4}
DEVI .DEG                                              :Hole Deviation {F11.4}
DEVIM.DEG                                              :Memorized Deviation {F11.4}
DWAL_WALK2.                                            :Dry Weight Fraction Pseudo Aluminum (SpectroLith WALK2 Model) {F11.4}
DWCA_WALK2.                                            :Dry Weight Fraction Calcium (SpectroLith WALK2 Model) {F11.4}
DWFE_WALK2.                                            :Dry Weight Fraction Iron + 0.14 Aluminum (SpectroLith WALK2 Model) {F11.4}
DWGD_WALK2.PPM                                         :Dry Weight Fraction Gadolinium (SpectroLith WALK2 Model) {F11.4}
DWSI_WALK2.                                            :Dry Weight Fraction Silicon (SpectroLith WALK2 Model) {F11.4}
DWSU_WALK2.                                            :Dry Weight Fraction Sulfur (SpectroLith WALK2 Model) {F11.4}
DWTI_WALK2.                                            :Dry Weight Fraction Titanium (SpectroLith WALK2 Model) {F11.4}
ECST .DEGF                                             :ECS Temperature {F11.4}
ED   .F                                                :East Departure {F11.4}
ESUF_WALK2.                                            :Elemental Statistical Uncertainty Factor (SpectroLith WALK2 Model) {F11.4}
GR_EDTC.GAPI                                           :EDTC Gamma Ray {F11.4}
GTEM .DEGF                                             :Generalized Borehole Temperature {F11.4}
HAZI .DEG                                              :Hole Azimuth {F11.4}
HAZIM.DEG                                              :Hole Azimuth {F11.4}
ND   .F                                                :North Departure {F11.4}
P1AZ .DEG                                              :Pad 1 Azimuth {F11.4}
QCPMT.                                                 :Photomultiplier Tube Quality Control {F11.4}
RB   .DEG                                              :Relative Bearing {F11.4}
RHGE_WALK2.G/C3                                        :Matrix Density from Elemental Concentrations (SpectroLith WALK2 Model) {F11.4}
SDEV .DEG                                              :Sonde Deviation {F11.4}
SDEVM.DEG                                              :Sonde Deviation {F11.4}
STIT .F                                                :Stuck Tool Indicator, Total {F11.4}
TENS .LBF                                              :Cable Tension {F11.4}
WANH_WALK2.                                            :Dry Weight Fraction Anhydrite/Gypsum (SpectroLith WALK2 Model) {F11.4}
WCAR_WALK2.                                            :Dry Weight Fraction Carbonate (SpectroLith WALK2 Model) {F11.4}
WCLA_WALK2.                                            :Dry Weight Fraction Clay (SpectroLith WALK2 Model) {F11.4}
WCOA_WALK2.                                            :Dry Weight Fraction Coal (SpectroLith WALK2 Model) {F11.4}
WEVA_WALK2.                                            :Dry Weight Fraction Salt (SpectroLith WALK2 Model) {F11.4}
WPYR_WALK2.                                            :Dry Weight Fraction Pyrite (SpectroLith WALK2 Model) {F11.4}
WQFM_WALK2.                                            :Dry Weight Fraction Quartz+Feldspar+Mica (QFM) (SpectroLith WALK2 Model) {F11.4}
WSID_WALK2.                                            :Dry Weight Fraction Siderite (SpectroLith WALK2 Model) {F11.4}
#-----------------------------------------------------------------------------
# 
#      DEPT      C1_OBMT    C2_OBMT      CDF        CTEM       DCAL       DEVI      DEVIM    DWAL_WALK2 DWCA_WALK2 DWFE_WALK2 DWGD_WALK2 DWSI_WALK2 DWSU_WALK2 DWTI_WALK2    ECST        ED     ESUF_WALK2  GR_EDTC      GTEM       HAZI      HAZIM        ND        P1AZ      QCPMT        RB     RHGE_WALK2    SDEV      SDEVM       STIT       TENS    WANH_WALK2 WCAR_WALK2 WCLA_WALK2 WCOA_WALK2 WEVA_WALK2 WPYR_WALK2 WQFM_WALK2 WSID_WALK2
#
~A  
# ...
   3874.5000     7.2326     7.2621  1010.6865   124.0472     0.4973     6.7663     6.5782     0.0721     0.0927     0.0407     8.1013     0.2327     0.0135     0.0038    45.9914   -59.2728     0.7677   144.3028   119.2087    75.6504    73.0257   -35.1781   274.0592     0.0182   198.2818     2.7498     6.9695     6.7720     0.0000  2604.0000     0.0000     0.1743     0.4492     0.0000     0.0000     0.0253     0.3512     0.0000
   3875.0000     7.2291     7.2668  1059.3900   124.0472     0.4979     6.7751     6.5830     0.0714     0.0924     0.0412    10.9175     0.2334     0.0081     0.0033    45.4062   -59.2180     0.8121   139.2404   119.2153    75.5201    72.9453   -35.1613   273.9254     0.0000   198.2780     2.7442     6.9785     6.7769     0.0000  2687.0000     0.0000     0.1736     0.4426     0.0000     0.0000     0.0151     0.3687     0.0000
   3875.5000     7.2290     7.2681  1030.2390   124.0472     0.4985     6.7644     6.5770     0.0702     0.0943     0.0401     9.7331     0.2337     0.0122     0.0027    44.8209   -59.1632     0.7821   134.1553   119.2219    75.4802    72.8913   -35.1445   273.4599     0.2719   197.8554     2.7475     6.9673     6.7706     0.0000  2589.0000     0.0000     0.1787     0.4318     0.0000     0.0000     0.0228     0.3667     0.0000
   3876.0000     7.2334     7.2681  1039.8375   124.0472     0.5008     6.7435     6.5576     0.0660     0.0973     0.0386     9.5670     0.2368     0.0071     0.0020    45.4062   -59.1086     0.7195   127.6625   119.2285    75.4090    72.8339   -35.1276   273.3428     0.0000   197.8105     2.7391     6.9456     6.7505     0.0000  2618.0000     0.0000     0.1868     0.3954     0.0000     0.0000     0.0133     0.4045     0.0000
   3876.5000     7.2352     7.2656  1073.9656   124.0472     0.5004     6.7517     6.5650     0.0638     0.0997     0.0368     7.7121     0.2385     0.0098     0.0020    45.9914   -59.0540     0.6696   133.8932   119.2352    75.3010    72.7736   -35.1107   273.2801     0.1465   197.8553     2.7395     6.9542     6.7583     0.0000  2716.0000     0.0000     0.1931     0.3755     0.0000     0.0000     0.0184     0.4130     0.0000
   3877.0000     7.1988     7.2225  1034.8606   124.0472     0.4606     6.7482     6.5675     0.0622     0.1068     0.0358     9.1789     0.2330     0.0097     0.0020    45.9914   -58.9994     0.6934   145.0419   119.2418    75.1951    72.6863   -35.0937   273.2370     0.1751   197.9178     2.7387     6.9485     6.7589     0.0000  2566.0000     0.0000     0.2124     0.3613     0.0000     0.0000     0.0181     0.4082     0.0000
   3877.5000     7.1961     7.2165  1015.6635   124.0472     0.4563     6.7255     6.5422     0.0653     0.1050     0.0365     9.8738     0.2307     0.0185     0.0022    45.9914   -58.9449     0.7176   152.8976   119.2484    75.1361    72.6564   -35.0767   273.2438     0.5520   197.9841     2.7499     6.9246     6.7323     0.0000  2612.0000     0.0000     0.2074     0.3889     0.0000     0.0000     0.0346     0.3690     0.0000
   3878.0000     7.2308     7.2578  1068.9885   124.0472     0.4943     6.7325     6.5477     0.0718     0.1026     0.0395    10.7083     0.2226     0.0247     0.0024    45.4062   -58.8905     0.7374   148.0277   119.2550    75.0459    72.5463   -35.0597   272.8893     0.1136   197.7211     2.7625     6.9339     6.7399     0.0000  2697.0000     0.0000     0.2010     0.4464     0.0000     0.0000     0.0463     0.3064     0.0000
   3878.5000     7.2256     7.2612   996.1110   124.0472     0.4934     6.7270     6.5477     0.0747     0.0867     0.0416     8.3398     0.2358     0.0225     0.0024    44.8209   -58.8361     0.7279   140.3736   119.2616    74.9620    72.4595   -35.0426   272.9449     0.0856   197.8600     2.7610     6.9279     6.7396     0.0000  2515.0000     0.0000     0.1581     0.4715     0.0000     0.0000     0.0421     0.3283     0.0000
   3879.0000     7.2256     7.2630   996.1110   124.0472     0.4942     6.7118     6.5254     0.0744     0.0781     0.0427     7.9234     0.2451     0.0107     0.0032    44.8209   -58.7819     0.7741   133.3041   119.2682    74.9007    72.4276   -35.0254   272.9758     0.0000   197.9523     2.7477     6.9119     6.7162     0.0000  2566.0000     0.0000     0.1350     0.4690     0.0000     0.0000     0.0201     0.3758     0.0000
   3879.5000     7.2282     7.2690  1064.0116   124.0472     0.4986     6.7187     6.5308     0.0696     0.0732     0.0412     8.3747     0.2581     0.0004     0.0032    44.8209   -58.7277     0.8101   136.0970   119.2748    74.8065    72.3361   -35.0082   272.2346     0.3273   197.3089     2.7319     6.9193     6.7220     0.0000  2699.0000     0.0000     0.1219     0.4267     0.0000     0.0000     0.0008     0.4506     0.0000
   3880.0000     7.2290     7.2647  1025.2621   124.0472     0.4968     6.7128     6.5385     0.0685     0.0897     0.0406    10.9451     0.2408     0.0000     0.0031    45.9914   -58.6735     0.7975   127.2457   119.2814    74.7376    72.2395   -34.9909   271.7497     0.2817   196.8954     2.7331     6.9131     6.7302     0.0000  2534.0000     0.0000     0.1662     0.4169     0.0000     0.0000     0.0000     0.4169     0.0000
   3880.5000     7.2308     7.2612  1001.0880   124.0472     0.4960     6.6957     6.5151     0.0693     0.0971     0.0405     9.5014     0.2312     0.0077     0.0020    45.9914   -58.6194     0.7390   127.6950   119.2880    74.6775    72.1964   -34.9735   271.6973     0.2358   196.9038     2.7432     6.8952     6.7056     0.0000  2535.0000     0.0000     0.1861     0.4244     0.0000     0.0000     0.0143     0.3752     0.0000
   3881.0000     7.2387     7.2621  1078.5870   124.0472     0.5004     6.7055     6.5132     0.0714     0.0959     0.0408     8.1038     0.2297     0.0141     0.0021    44.8209   -58.5654     0.7544   122.1735   119.2946    74.5923    72.1440   -34.9561   271.1388     0.0000   196.4330     2.7513     6.9059     6.7040     0.0000  2723.0000     0.0000     0.1829     0.4428     0.0000     0.0000     0.0264     0.3479     0.0000
   3881.5000     7.2360     7.2561  1049.4360   124.0472     0.4960     6.6996     6.5217     0.0698     0.0871     0.0391     5.8548     0.2436     0.0193     0.0021    44.8209   -58.5114     0.7656   130.0424   119.3012    74.5396    72.0697   -34.9387   270.7346     0.0000   196.0840     2.7527     6.8996     6.7128     0.0000  2569.0000     0.0000     0.1593     0.4284     0.0000     0.0000     0.0361     0.3762     0.0000
   3882.0000     7.2325     7.2578  1010.6865   124.0472     0.4951     6.6762     6.4964     0.0652     0.0779     0.0358     5.4369     0.2631     0.0213     0.0028    44.8209   -58.4574     0.7864   128.4847   119.3078    74.4909    72.0402   -34.9212   270.6693     0.0912   196.0679     2.7474     6.8748     6.6860     0.0000  2597.0000     0.0000     0.1345     0.3882     0.0000     0.0000     0.0399     0.4374     0.0000
   3882.5000     7.2273     7.2595  1064.0116   124.0472     0.4934     6.6859     6.4997     0.0597     0.0808     0.0332     4.4132     0.2689     0.0156     0.0027    44.8209   -58.4036     0.7851   133.6785   119.3145    74.3784    71.9447   -34.9038   269.9899     0.0000   195.5043     2.7363     6.8848     6.6893     0.0000  2694.0000     0.0000     0.1423     0.3393     0.0000     0.0000     0.0291     0.4893     0.0000
   3883.0000     7.2274     7.2638  1015.6635   124.0472     0.4956     6.6831     6.5002     0.0589     0.0819     0.0333     2.5648     0.2685     0.0114     0.0027    44.8209   -58.3498     0.7675   132.9780   119.3211    74.2940    71.8789   -34.8862   269.4257     0.1580   195.0276     2.7318     6.8818     6.6898     0.0000  2547.0000     0.0000     0.1452     0.3327     0.0000     0.0000     0.0213     0.5008     0.0000
   3883.5000     7.2273     7.2664  1015.6635   124.0472     0.4968     6.6588     6.4944     0.0642     0.0861     0.0371     1.1587     0.2535     0.0073     0.0028    45.4062   -58.2961     0.7435   137.4974   119.3277    74.2753    71.8230   -34.8686   269.2042     0.0132   194.8270     2.7347     6.8562     6.6837     0.0000  2612.0000     0.0000     0.1566     0.3792     0.0000     0.0000     0.0137     0.4506     0.0000
