~VERSION INFORMATION
VERS.           1.2   :CWLS Log ASCII Standard - VERSION 1.2
WRAP.           NO    :One Line per depth step
PROD.  Schlumberger   :LAS Producer
PROG.  DLIS to ASCII 17C0-152                          :LAS Program name and version
CREA.        2011/10/27 17:24                          :LAS Creation date {YYYY/MM/DD hh:mm}
DLIS_CREA.  2011-Oct-27 07:22                          :DLIS Creation date and time {YYYY-MMM-DD hh:mm}
SOURCE.     7e486f41-920f-449c-9fc4-a1d2576f3c93       :DLIS File Name
#--------------------------------------------------
~WELL INFORMATION
#MNEM.UNIT      DATA             DESCRIPTION
#---- ------ --------------   -----------------------------
STRT .F      3201.5000       :START DEPTH     
STOP .F      4055.0000       :STOP DEPTH     
STEP .F       0.5000         :STEP       
NULL .          -999.25      :NULL VALUE
COMP .                 COMPANY:  SWEPI LP                           
WELL .                    WELL:  Harper Hill 2-29                   
FLD  .                   FIELD:  Swan                               
LOC  .                LOCATION:                                     
CNTY .                  COUNTY:  Moffat                             
STAT .                   STATE:  Colorado                           
CTRY .                 COUNTRY:                                     
SRVC .         SERVICE COMPANY:  Schlumberger                       
API  .              API NUMBER:  05-0081-07659                      
DATE .                LOG DATE:  26-Oct-2011
UWI  .          UNIQUE WELL ID:                                     
#-----------------------------------------------------------------------------
~PARAMETER INFORMATION
#MNEM.UNIT    VALUE                      DESCRIPTION
#---- -----   --------------------       ------------------------
CN   .        SWEPI LP                   :Company Name
WN   .        Harper Hill 2-29           :Well Name
FN   .        Swan                       :Field Name
FL   .                                   :Field Location
FL1  .                                   :Field Location Line 1
COUN .        Moffat                     :County or Rig Name
STAT .        Colorado                   :State or Province
NATI .                                   :Nation
DATE .        26-Oct-2011                :Date as Month-Day-Year
APIN .        05-0081-07659              :API Serial Number
SECT .        29                         :Section
TOWN .        5N                         :Township
RANG .        90W                        :Range
DMF  .        Kelly Bushing              :Drilling Measured From
LMF  .        Kelly Bushing              :Log Measured From
PDAT .        Ground Level               :Permanent Datum
ENGI .        Mark Kast                  :Engineer's Name
WITN .        Tony                       :Witness's Name
LATI .                                   :Latitude
LONG .                                   :Longitude
LUL  .        Rock Springs               :Logging Unit Location
LUN  .              2271                 :Logging Unit Number
RUN  .        Two                        :Run Number
SON  .                                   :Service Order Number
BHT  .DEGF     127.00000                 :Bottom Hole Temperature (used in calculations)
BS   .IN         6.75000                 :Bit Size
DFD  .LB/G       7.90000                 :Drilling Fluid Density
DFV  .S         44.00000                 :Drilling Fluid Viscosity
DFL  .C3        16.60000                 :Drilling Fluid Loss
RMFS .                                   :Resistivity of Mud Filtrate Sample
EKB  .F       6597.00000                 :Elevation of Kelly Bushing
EGL  .F       6585.00000                 :Elevation of Ground Level
BLI  .                                   :Bottom Log Interval
BSAL .PPM     44500.00000                :Borehole Salinity
FLEV .                                   :Fluid Level
MCST .                                   :Mud Cake Sample Temperature
MFST .                                   :Mud Filtrate Sample Temperature
MRT  .DEGF     127.00000                 :Maximum Recorded Temperature
MST  .                                   :Mud Sample Temperature
RMCS .                                   :Resistivity of Mud Cake Sample
RMS  .                                   :Resistivity of Mud Sample
RW   .OHMM       1.00000                 :Resistivity of Connate Water
TDD  .F       4480.00000                 :Total Depth - Driller
TDL  .F       4482.00000                 :Total Depth - Logger
TLI  .                                   :Top Log Interval
HIDE .                                   :Header Identifier
MATR .        SAND                       :Rock Matrix for Neutron Porosity Corrections
DFT  .        OBM                        :Drilling Fluid Type
DFPH .                                   :Drilling Fluid PH
MCSS .        N/A                        :Mud Cake Sample Source
MFSS .        N/A                        :Mud Filtrate Sample Source
MSS  .        N/A                        :Mud Sample Source
OS1  .                                   :Other Services Line 1
OS2  .                                   :Other Services Line 2
OS3  .                                   :Other Services Line 3
OS4  .                                   :Other Services Line 4
OS5  .                                   :Other Services Line 5
R1   .                                   :Remark Line 1
R2   .                                   :Remark Line 2
R3   .                                   :Remark Line 3
R4   .                                   :Remark Line 4
R5   .                                   :Remark Line 5
R6   .                                   :Remark Line 6
R7   .                                   :Remark Line 7
R8   .                                   :Remark Line 8
TCS  .        20 00                      :Time Circulation Stopped
TLAB .                                   :Time Logger At Bottom
EPD  .F         6585.000000              :Elevation of Permanent Datum above Mean Sea Level
APD  .F          12.000000               :Elevation of Depth Reference (LMF) above Permanent Datum
#-----------------------------------------------------------------------------
~CURVE INFORMATION
#MNEM.UNIT   API CODE                                  DESCRIPTION
#---- -----  --------                                  -----------------------
DEPT .F                                                :DEPTH (BOREHOLE) {F12.4}
C1_OBMT.IN                                             :OBMT Caliper 1 {F11.4}
C2_OBMT.IN                                             :OBMT Caliper 2 {F11.4}
CDF  .LBF                                              :Calibrated Downhole Force {F11.4}
CTEM .DEGF                                             :Cartridge Temperature {F11.4}
DCAL .IN                                               :Differential Caliper {F11.4}
DEVI .DEG                                              :Hole Deviation {F11.4}
DEVIM.DEG                                              :Memorized Deviation {F11.4}
DWAL_WALK2.                                            :Dry Weight Fraction Pseudo Aluminum (SpectroLith WALK2 Model) {F11.4}
DWCA_WALK2.                                            :Dry Weight Fraction Calcium (SpectroLith WALK2 Model) {F11.4}
DWFE_WALK2.                                            :Dry Weight Fraction Iron + 0.14 Aluminum (SpectroLith WALK2 Model) {F11.4}
DWGD_WALK2.PPM                                         :Dry Weight Fraction Gadolinium (SpectroLith WALK2 Model) {F11.4}
DWSI_WALK2.                                            :Dry Weight Fraction Silicon (SpectroLith WALK2 Model) {F11.4}
DWSU_WALK2.                                            :Dry Weight Fraction Sulfur (SpectroLith WALK2 Model) {F11.4}
DWTI_WALK2.                                            :Dry Weight Fraction Titanium (SpectroLith WALK2 Model) {F11.4}
ECST .DEGF                                             :ECS Temperature {F11.4}
ED   .F                                                :East Departure {F11.4}
ESUF_WALK2.                                            :Elemental Statistical Uncertainty Factor (SpectroLith WALK2 Model) {F11.4}
GR_EDTC.GAPI                                           :EDTC Gamma Ray {F11.4}
GTEM .DEGF                                             :Generalized Borehole Temperature {F11.4}
HAZI .DEG                                              :Hole Azimuth {F11.4}
HAZIM.DEG                                              :Hole Azimuth {F11.4}
ND   .F                                                :North Departure {F11.4}
P1AZ .DEG                                              :Pad 1 Azimuth {F11.4}
QCPMT.                                                 :Photomultiplier Tube Quality Control {F11.4}
RB   .DEG                                              :Relative Bearing {F11.4}
RHGE_WALK2.G/C3                                        :Matrix Density from Elemental Concentrations (SpectroLith WALK2 Model) {F11.4}
SDEV .DEG                                              :Sonde Deviation {F11.4}
SDEVM.DEG                                              :Sonde Deviation {F11.4}
STIT .F                                                :Stuck Tool Indicator, Total {F11.4}
TENS .LBF                                              :Cable Tension {F11.4}
WANH_WALK2.                                            :Dry Weight Fraction Anhydrite/Gypsum (SpectroLith WALK2 Model) {F11.4}
WCAR_WALK2.                                            :Dry Weight Fraction Carbonate (SpectroLith WALK2 Model) {F11.4}
WCLA_WALK2.                                            :Dry Weight Fraction Clay (SpectroLith WALK2 Model) {F11.4}
WCOA_WALK2.                                            :Dry Weight Fraction Coal (SpectroLith WALK2 Model) {F11.4}
WEVA_WALK2.                                            :Dry Weight Fraction Salt (SpectroLith WALK2 Model) {F11.4}
WPYR_WALK2.                                            :Dry Weight Fraction Pyrite (SpectroLith WALK2 Model) {F11.4}
WQFM_WALK2.                                            :Dry Weight Fraction Quartz+Feldspar+Mica (QFM) (SpectroLith WALK2 Model) {F11.4}
WSID_WALK2.                                            :Dry Weight Fraction Siderite (SpectroLith WALK2 Model) {F11.4}
#-----------------------------------------------------------------------------
# 
#      DEPT      C1_OBMT    C2_OBMT      CDF        CTEM       DCAL       DEVI      DEVIM    DWAL_WALK2 DWCA_WALK2 DWFE_WALK2 DWGD_WALK2 DWSI_WALK2 DWSU_WALK2 DWTI_WALK2    ECST        ED     ESUF_WALK2  GR_EDTC      GTEM       HAZI      HAZIM        ND        P1AZ      QCPMT        RB     RHGE_WALK2    SDEV      SDEVM       STIT       TENS    WANH_WALK2 WCAR_WALK2 WCLA_WALK2 WCOA_WALK2 WEVA_WALK2 WPYR_WALK2 WQFM_WALK2 WSID_WALK2
#
~A  
   3201.5000     4.9858     4.9390   864.9315   124.0472    -1.7876    27.9225    27.9225     0.0538     0.1142     0.0244     4.1564     0.2452     0.0414     0.0045    47.1620   -35.4814     1.7979    96.3816   110.3138    83.1324    83.1324    59.9452   260.3957     0.0882   177.5858     2.7560    28.1132    28.1132     0.0000  1889.0000     0.0000     0.2323     0.2882     0.0000     0.0000     0.0525     0.4271     0.0000
   3202.0000     4.9858     4.9390   864.9315   124.0472    -1.7876    27.9225    27.9225     0.0538     0.1142     0.0244     4.1564     0.2452     0.0414     0.0045    47.1620   -35.4814     1.7979    96.3816   110.3204    83.1324    83.1324    59.9452   260.3957     0.0882   177.5858     2.7560    28.1132    28.1132     0.0000  1889.0000     0.0000     0.2323     0.2882     0.0000     0.0000     0.0525     0.4271     0.0000
   3202.5000     4.9858     4.9390   864.9315   124.0472    -1.7876    27.9225    27.9225     0.0538     0.1142     0.0244     4.1564     0.2452     0.0414     0.0045    47.1620   -35.4814     1.7979    96.3816   110.3270    83.1324    83.1324    59.9452   260.3957     0.0882   177.5858     2.7560    28.1132    28.1132     0.0000  1889.0000     0.0000     0.2323     0.2882     0.0000     0.0000     0.0525     0.4271     0.0000
   3203.0000     4.9858     4.9390   864.9315   124.0472    -1.7876    27.9225    27.9225     0.0538     0.1142     0.0244     4.1564     0.2452     0.0414     0.0045    47.1620   -35.4814     1.7979    96.3816   110.3336    83.1324    83.1324    59.9452   260.3957     0.0882   177.5858     2.7560    28.1132    28.1132     0.0000  1889.0000     0.0000     0.2323     0.2882     0.0000     0.0000     0.0525     0.4271     0.0000
   3203.5000     4.9858     4.9390   864.9315   124.0472    -1.7876    27.9225    27.9225     0.0538     0.1142     0.0244     4.1564     0.2452     0.0414     0.0045    47.1620   -35.4814     1.7979    96.3816   110.3402    83.1324    83.1324    59.9452   260.3957     0.0882   177.5858     2.7560    28.1132    28.1132     0.0000  1889.0000     0.0000     0.2323     0.2882     0.0000     0.0000     0.0525     0.4271     0.0000
   3204.0000     4.9858     4.9390   864.9315   124.0472    -1.7876    27.9225    27.9225     0.0538     0.1142     0.0244     4.1564     0.2452     0.0414     0.0045    47.1620   -35.4814     1.7979    93.4609   110.3468    83.1324    83.1324    59.9452   260.3957     0.0882   177.5858     2.7560    28.1132    28.1132     0.0000  1889.0000     0.0000     0.2323     0.2882     0.0000     0.0000     0.0525     0.4271     0.0000
   3204.5000     4.9858     4.9390   864.9315   124.0472    -1.7876    27.9225    27.9225     0.0538     0.1142     0.0244     4.1564     0.2452     0.0414     0.0045    47.1620   -35.4814     1.7979    89.9561   110.3534    83.1324    83.1324    59.9452   260.3957     0.0882   177.5858     2.7560    28.1132    28.1132     0.0000  1889.0000     0.0000     0.2323     0.2882     0.0000     0.0000     0.0525     0.4271     0.0000
   3205.0000     4.9858     4.9390   864.9315   124.0472    -1.7876    27.9225    27.9225     0.0538     0.1142     0.0244     4.1564     0.2452     0.0414     0.0045    47.1620   -35.4814     1.7979    88.5932   110.3600    83.1324    83.1324    59.9452   260.3957     0.0882   177.5858     2.7560    28.1132    28.1132     0.0000  1889.0000     0.0000     0.2323     0.2882     0.0000     0.0000     0.0525     0.4271     0.0000
   3205.5000     4.9858     4.9390   864.9315   124.0472    -1.7876    27.9225    27.9225     0.0538     0.1142     0.0244     4.1564     0.2452     0.0414     0.0045    47.1620   -35.4814     1.7979    85.0884   110.3666    83.1324    83.1324    59.9452   260.3957     0.0882   177.5858     2.7560    28.1132    28.1132     0.0000  1889.0000     0.0000     0.2323     0.2882     0.0000     0.0000     0.0525     0.4271     0.0000
   3206.0000     4.9858     4.9390   864.9315   124.0472    -1.7876    27.9225    27.9225     0.0538     0.1142     0.0244     4.1564     0.2452     0.0414     0.0045    47.1620   -35.2490     1.7979    81.4006   110.3733    83.1324    83.1324    59.9732   260.3957     0.0882   177.5858     2.7560    28.1132    28.1132     0.0000  1889.0000     0.0000     0.2323     0.2882     0.0000     0.0000     0.0525     0.4271     0.0000
   3206.5000     4.9858     4.9390   864.9315   124.0472    -1.7876    27.9225    27.9225     0.0538     0.1142     0.0244     4.1564     0.2452     0.0414     0.0045    47.1620   -35.0165     1.7979    73.4766   110.3799    83.1324    83.1324    60.0012   260.3957     0.0882   177.5858     2.7560    28.1132    28.1132     0.0000  1889.0000     0.0000     0.2323     0.2882     0.0000     0.0000     0.0525     0.4271     0.0000
   3207.0000     4.9858     4.9390   864.9315   124.0472    -1.7876    27.9225    27.9225     0.0538     0.1142     0.0244     4.1564     0.2452     0.0414     0.0045    47.1620   -34.7841     1.7979    70.3613   110.3865    83.1324    83.1324    60.0292   260.3957     0.0882   177.5858     2.7560    28.1132    28.1132     0.0000  1889.0000     0.0000     0.2323     0.2882     0.0000     0.0000     0.0525     0.4271     0.0000
   3207.5000     4.9858     4.9390   864.9315   124.0472    -1.7876    27.9225    27.9225     0.0538     0.1142     0.0244     4.1564     0.2452     0.0414     0.0045    47.1620   -34.5516     1.7979    68.9977   110.3931    83.1324    83.1324    60.0571   260.3957     0.0882   177.5858     2.7560    28.1132    28.1132     0.0000  1889.0000     0.0000     0.2323     0.2882     0.0000     0.0000     0.0525     0.4271     0.0000
   3208.0000     4.9858     4.9390   864.9315   124.0472    -1.7876    27.9225    27.9225     0.0538     0.1142     0.0244     4.1564     0.2452     0.0414     0.0045    47.1620   -34.3192     1.7979    73.3581   110.3997    83.1324    83.1324    60.0851   260.3957     0.0882   177.5858     2.7560    28.1132    28.1132     0.0000  1889.0000     0.0000     0.2323     0.2882     0.0000     0.0000     0.0525     0.4271     0.0000
   3208.5000     4.9858     4.9390   864.9315   124.0472    -1.7876    27.9225    27.9225     0.0538     0.1142     0.0244     4.1564     0.2452     0.0414     0.0045    47.1620   -34.0867     1.7979    78.8100   110.4063    83.1324    83.1324    60.1131   260.3957     0.0882   177.5858     2.7560    28.1132    28.1132     0.0000  1889.0000     0.0000     0.2323     0.2882     0.0000     0.0000     0.0525     0.4271     0.0000
   3209.0000     4.9858     4.9390   864.9315   124.0472    -1.7876    27.9225    27.9225     0.0538     0.1142     0.0244     4.1564     0.2452     0.0414     0.0045    47.1620   -33.8542     1.7979    82.1090   110.4129    83.1324    83.1324    60.1411   260.3957     0.0882   177.5858     2.7560    28.1132    28.1132     0.0000  1889.0000     0.0000     0.2323     0.2882     0.0000     0.0000     0.0525     0.4271     0.0000
   3209.5000     4.9858     4.9390   864.9315   124.0472    -1.7876    27.9225    27.9225     0.0539     0.1142     0.0245     4.1555     0.2451     0.0414     0.0045    47.1620   -33.6218     1.7975    89.8091   110.4195    83.1324    83.1324    60.1691   260.3957     0.0882   177.5858     2.7561    28.1132    28.1132     0.0000  1889.0000     0.0000     0.2321     0.2888     0.0000     0.0000     0.0526     0.4265     0.0000
   3210.0000     4.9858     4.9390   864.9315   124.0472    -1.7876    27.9225    27.9225     0.0546     0.1137     0.0250     4.1474     0.2445     0.0413     0.0045    47.1620   -33.3893     1.7940    87.4726   110.4261    83.1324    83.1324    60.1971   260.3957     0.0882   177.5858     2.7568    28.1132    28.1132     0.0000  1889.0000     0.0000     0.2308     0.2947     0.0000     0.0000     0.0536     0.4209     0.0000
   3210.5000     4.9858     4.9390   864.9315   124.0472    -1.7876    27.9225    27.9225     0.0563     0.1124     0.0262     4.1260     0.2427     0.0411     0.0045    47.1620   -33.1569     1.7848    87.1936   110.4327    83.1324    83.1324    60.2251   260.3957     0.0882   177.5858     2.7587    28.1132    28.1132     0.0000  1889.0000     0.0000     0.2273     0.3101     0.0000     0.0000     0.0563     0.4064     0.0000
