~VERSION INFORMATION
VERS.           1.2   :CWLS Log ASCII Standard - VERSION 1.2
WRAP.           NO    :One Line per depth step
PROD.  Schlumberger   :LAS Producer
PROG.  DLIS to ASCII 17C0-152                          :LAS Program name and version
CREA.        2011/10/27 17:24                          :LAS Creation date {YYYY/MM/DD hh:mm}
DLIS_CREA.  2011-Oct-27 07:22                          :DLIS Creation date and time {YYYY-MMM-DD hh:mm}
SOURCE.     7e486f41-920f-449c-9fc4-a1d2576f3c93       :DLIS File Name
#--------------------------------------------------
~WELL INFORMATION
#MNEM.UNIT      DATA             DESCRIPTION
#---- ------ --------------   -----------------------------
STRT .F      3201.5000       :START DEPTH     
STOP .F      4055.0000       :STOP DEPTH     
STEP .F       0.5000         :STEP       
NULL .          -999.25      :NULL VALUE
COMP .                 COMPANY:  SWEPI LP                           
WELL .                    WELL:  Harper Hill 2-29                   
FLD  .                   FIELD:  Swan                               
LOC  .                LOCATION:                                     
CNTY .                  COUNTY:  Moffat                             
STAT .                   STATE:  Colorado                           
CTRY .                 COUNTRY:                                     
SRVC .         SERVICE COMPANY:  Schlumberger                       
API  .              API NUMBER:  05-0081-07659                      
DATE .                LOG DATE:  26-Oct-2011
UWI  .          UNIQUE WELL ID:                                     
#-----------------------------------------------------------------------------
~PARAMETER INFORMATION
#MNEM.UNIT    VALUE                      DESCRIPTION
#---- -----   --------------------       ------------------------
CN   .        SWEPI LP                   :Company Name
WN   .        Harper Hill 2-29           :Well Name
FN   .        Swan                       :Field Name
FL   .                                   :Field Location
FL1  .                                   :Field Location Line 1
COUN .        Moffat                     :County or Rig Name
STAT .        Colorado                   :State or Province
NATI .                                   :Nation
DATE .        26-Oct-2011                :Date as Month-Day-Year
APIN .        05-0081-07659              :API Serial Number
SECT .        29                         :Section
TOWN .        5N                         :Township
RANG .        90W                        :Range
DMF  .        Kelly Bushing              :Drilling Measured From
LMF  .        Kelly Bushing              :Log Measured From
PDAT .        Ground Level               :Permanent Datum
ENGI .        Mark Kast                  :Engineer's Name
WITN .        Tony                       :Witness's Name
LATI .                                   :Latitude
LONG .                                   :Longitude
LUL  .        Rock Springs               :Logging Unit Location
LUN  .              2271                 :Logging Unit Number
RUN  .        Two                        :Run Number
SON  .                                   :Service Order Number
BHT  .DEGF     127.00000                 :Bottom Hole Temperature (used in calculations)
BS   .IN         6.75000                 :Bit Size
DFD  .LB/G       7.90000                 :Drilling Fluid Density
DFV  .S         44.00000                 :Drilling Fluid Viscosity
DFL  .C3        16.60000                 :Drilling Fluid Loss
RMFS .                                   :Resistivity of Mud Filtrate Sample
EKB  .F       6597.00000                 :Elevation of Kelly Bushing
EGL  .F       6585.00000                 :Elevation of Ground Level
BLI  .                                   :Bottom Log Interval
BSAL .PPM     44500.00000                :Borehole Salinity
FLEV .                                   :Fluid Level
MCST .                                   :Mud Cake Sample Temperature
MFST .                                   :Mud Filtrate Sample Temperature
MRT  .DEGF     127.00000                 :Maximum Recorded Temperature
MST  .                                   :Mud Sample Temperature
RMCS .                                   :Resistivity of Mud Cake Sample
RMS  .                                   :Resistivity of Mud Sample
RW   .OHMM       1.00000                 :Resistivity of Connate Water
TDD  .F       4480.00000                 :Total Depth - Driller
TDL  .F       4482.00000                 :Total Depth - Logger
TLI  .                                   :Top Log Interval
HIDE .                                   :Header Identifier
MATR .        SAND                       :Rock Matrix for Neutron Porosity Corrections
DFT  .        OBM                        :Drilling Fluid Type
DFPH .                                   :Drilling Fluid PH
MCSS .        N/A                        :Mud Cake Sample Source
MFSS .        N/A                        :Mud Filtrate Sample Source
MSS  .        N/A                        :Mud Sample Source
OS1  .                                   :Other Services Line 1
OS2  .                                   :Other Services Line 2
OS3  .                                   :Other Services Line 3
OS4  .                                   :Other Services Line 4
OS5  .                                   :Other Services Line 5
R1   .                                   :Remark Line 1
R2   .                                   :Remark Line 2
R3   .                                   :Remark Line 3
R4   .                                   :Remark Line 4
R5   .                                   :Remark Line 5
R6   .                                   :Remark Line 6
R7   .                                   :Remark Line 7
R8   .                                   :Remark Line 8
TCS  .        20 00                      :Time Circulation Stopped
TLAB .                                   :Time Logger At Bottom
EPD  .F         6585.000000              :Elevation of Permanent Datum above Mean Sea Level
APD  .F          12.000000               :Elevation of Depth Reference (LMF) above Permanent Datum
#-----------------------------------------------------------------------------
~CURVE INFORMATION
#MNEM.UNIT   API CODE                                  DESCRIPTION
#---- -----  --------                                  -----------------------
DEPT .F                                                :DEPTH (BOREHOLE) {F12.4}
C1_OBMT.IN                                             :OBMT Caliper 1 {F11.4}
C2_OBMT.IN                                             :OBMT Caliper 2 {F11.4}
CDF  .LBF                                              :Calibrated Downhole Force {F11.4}
CTEM .DEGF                                             :Cartridge Temperature {F11.4}
DCAL .IN                                               :Differential Caliper {F11.4}
DEVI .DEG                                              :Hole Deviation {F11.4}
DEVIM.DEG                                              :Memorized Deviation {F11.4}
DWAL_WALK2.                                            :Dry Weight Fraction Pseudo Aluminum (SpectroLith WALK2 Model) {F11.4}
DWCA_WALK2.                                            :Dry Weight Fraction Calcium (SpectroLith WALK2 Model) {F11.4}
DWFE_WALK2.                                            :Dry Weight Fraction Iron + 0.14 Aluminum (SpectroLith WALK2 Model) {F11.4}
DWGD_WALK2.PPM                                         :Dry Weight Fraction Gadolinium (SpectroLith WALK2 Model) {F11.4}
DWSI_WALK2.                                            :Dry Weight Fraction Silicon (SpectroLith WALK2 Model) {F11.4}
DWSU_WALK2.                                            :Dry Weight Fraction Sulfur (SpectroLith WALK2 Model) {F11.4}
DWTI_WALK2.                                            :Dry Weight Fraction Titanium (SpectroLith WALK2 Model) {F11.4}
ECST .DEGF                                             :ECS Temperature {F11.4}
ED   .F                                                :East Departure {F11.4}
ESUF_WALK2.                                            :Elemental Statistical Uncertainty Factor (SpectroLith WALK2 Model) {F11.4}
GR_EDTC.GAPI                                           :EDTC Gamma Ray {F11.4}
GTEM .DEGF                                             :Generalized Borehole Temperature {F11.4}
HAZI .DEG                                              :Hole Azimuth {F11.4}
HAZIM.DEG                                              :Hole Azimuth {F11.4}
ND   .F                                                :North Departure {F11.4}
P1AZ .DEG                                              :Pad 1 Azimuth {F11.4}
QCPMT.                                                 :Photomultiplier Tube Quality Control {F11.4}
RB   .DEG                                              :Relative Bearing {F11.4}
RHGE_WALK2.G/C3                                        :Matrix Density from Elemental Concentrations (SpectroLith WALK2 Model) {F11.4}
SDEV .DEG                                              :Sonde Deviation {F11.4}
SDEVM.DEG                                              :Sonde Deviation {F11.4}
STIT .F                                                :Stuck Tool Indicator, Total {F11.4}
TENS .LBF                                              :Cable Tension {F11.4}
WANH_WALK2.                                            :Dry Weight Fraction Anhydrite/Gypsum (SpectroLith WALK2 Model) {F11.4}
WCAR_WALK2.                                            :Dry Weight Fraction Carbonate (SpectroLith WALK2 Model) {F11.4}
WCLA_WALK2.                                            :Dry Weight Fraction Clay (SpectroLith WALK2 Model) {F11.4}
WCOA_WALK2.                                            :Dry Weight Fraction Coal (SpectroLith WALK2 Model) {F11.4}
WEVA_WALK2.                                            :Dry Weight Fraction Salt (SpectroLith WALK2 Model) {F11.4}
WPYR_WALK2.                                            :Dry Weight Fraction Pyrite (SpectroLith WALK2 Model) {F11.4}
WQFM_WALK2.                                            :Dry Weight Fraction Quartz+Feldspar+Mica (QFM) (SpectroLith WALK2 Model) {F11.4}
WSID_WALK2.                                            :Dry Weight Fraction Siderite (SpectroLith WALK2 Model) {F11.4}
#-----------------------------------------------------------------------------
# 
#      DEPT      C1_OBMT    C2_OBMT      CDF        CTEM       DCAL       DEVI      DEVIM    DWAL_WALK2 DWCA_WALK2 DWFE_WALK2 DWGD_WALK2 DWSI_WALK2 DWSU_WALK2 DWTI_WALK2    ECST        ED     ESUF_WALK2  GR_EDTC      GTEM       HAZI      HAZIM        ND        P1AZ      QCPMT        RB     RHGE_WALK2    SDEV      SDEVM       STIT       TENS    WANH_WALK2 WCAR_WALK2 WCLA_WALK2 WCOA_WALK2 WEVA_WALK2 WPYR_WALK2 WQFM_WALK2 WSID_WALK2
#
~A  
# ...
   3429.5000     7.1042     7.1443  1015.6635   126.0236     0.3742     8.3811     8.3894     0.0634     0.0882     0.0374     9.7801     0.2519     0.0000     0.0033    47.1620   -35.5046     0.7453   155.5444   113.3272   193.2465   193.2684    16.2046    21.6082     0.0498   188.2678     2.7269     8.6548     8.6634     0.0000  2127.0000     0.0000     0.1622     0.3718     0.0000     0.0000     0.0000     0.4660     0.0000
   3430.0000     7.1077     7.1443  1049.4360   126.0236     0.3760     8.3563     8.3825     0.0692     0.0868     0.0404     8.1685     0.2435     0.0000     0.0047    47.1620   -35.5213     0.7673   147.1876   113.3338   193.2064   193.3073    16.1337    21.1526     0.6030   187.8573     2.7322     8.6290     8.6564     0.0000  2330.0000     0.0000     0.1585     0.4229     0.0000     0.0000     0.0000     0.4185     0.0000
   3430.5000     7.0964     7.1417  1054.4131   126.0236     0.3690     8.3707     8.3896     0.0684     0.0994     0.0400     7.1918     0.2302     0.0000     0.0047    47.1620   -35.5382     0.7911   142.6051   113.3404   193.1610   193.3862    16.0627    19.5292     0.3177   186.2964     2.7335     8.6432     8.6630     0.0000  2330.0000     0.0000     0.1923     0.4164     0.0000     0.0000     0.0000     0.3914     0.0000
   3431.0000     7.0921     7.1357  1025.2621   126.0236     0.3639     8.3425     8.3998     0.0672     0.0965     0.0393     4.7338     0.2356     0.0000     0.0045    47.1620   -35.5551     0.7483   146.7976   113.3470   193.1187   193.4756    15.9917    19.0654     0.3464   185.8801     2.7318     8.6133     8.6733     0.0000  2152.0000     0.0000     0.1847     0.4056     0.0000     0.0000     0.0000     0.4097     0.0000
   3431.5000     7.0930     7.1348  1044.8146   126.0236     0.3639     8.3290     8.3882     0.0682     0.0913     0.0386     4.8951     0.2412     0.0119     0.0036    47.1620   -35.5722     0.6774   149.7304   113.3537   193.0916   193.5339    15.9207    18.5217     0.0000   185.3694     2.7437     8.5994     8.6613     0.0000  2316.0000     0.0000     0.1705     0.4144     0.0000     0.0000     0.0222     0.3929     0.0000
   3432.0000     7.0903     7.1340  1049.4360   126.0236     0.3621     8.3321     8.4009     0.0703     0.0843     0.0389     5.4833     0.2464     0.0186     0.0036    47.1620   -35.5893     0.6874   152.8237   113.3603   193.0857   193.5946    15.8498    17.2926     0.0000   184.1597     2.7510     8.6024     8.6744     0.0000  2336.0000     0.0000     0.1519     0.4325     0.0000     0.0000     0.0348     0.3808     0.0000
   3432.5000     7.0947     7.1365  1020.2850   126.0236     0.3656     8.3170     8.3888     0.0724     0.0851     0.0404     9.1834     0.2414     0.0172     0.0038    47.1620   -35.6065     0.7086   146.2585   113.3669   193.0418   193.6508    15.7788    17.2607     0.0000   184.1717     2.7522     8.5869     8.6620     0.0000  2170.0000     0.0000     0.1540     0.4515     0.0000     0.0000     0.0322     0.3622     0.0000
   3433.0000     7.0869     7.1340  1044.8146   126.0236     0.3604     8.3106     8.3912     0.0734     0.1009     0.0407     9.1177     0.2215     0.0196     0.0036    47.1620   -35.6237     0.6870   150.6576   113.3735   193.0119   193.7075    15.7079    17.3591     0.1365   184.2987     2.7583     8.5795     8.6639     0.0000  2310.0000     0.0000     0.1965     0.4601     0.0000     0.0000     0.0366     0.3068     0.0000
   3433.5000     7.0903     7.1323  1059.3900   126.0236     0.3613     8.3102     8.4015     0.0744     0.1030     0.0407     7.0595     0.2180     0.0264     0.0029    47.1620   -35.6411     0.7080   144.9779   113.3801   192.9640   193.7547    15.6370    17.3598     0.0000   184.3468     2.7666     8.5795     8.6750     0.0000  2349.0000     0.0000     0.2020     0.4688     0.0000     0.0000     0.0494     0.2798     0.0000
   3434.0000     7.0903     7.1323  1025.2621   126.0236     0.3613     8.3049     8.3796     0.0719     0.1039     0.0387     3.4848     0.2217     0.0312     0.0025    47.1620   -35.6585     0.7135   144.5809   113.3867   192.9298   193.8354    15.5662    17.3983     0.1908   184.4187     2.7688     8.5739     8.6521     0.0000  2170.0000     0.0000     0.2045     0.4473     0.0000     0.0000     0.0584     0.2898     0.0000
   3434.5000     7.0886     7.1357  1059.3900   126.0236     0.3621     8.2900     8.3856     0.0689     0.0977     0.0371     3.1175     0.2342     0.0297     0.0023    47.1620   -35.6759     0.6524   135.0495   113.3933   192.9301   193.8265    15.4954    17.4421     0.0000   184.4619     2.7630     8.5581     8.6582     0.0000  2329.0000     0.0000     0.1879     0.4205     0.0000     0.0000     0.0556     0.3360     0.0000
   3435.0000     7.0895     7.1340  1068.9885   126.0236     0.3617     8.2992     8.3965     0.0666     0.1010     0.0364     5.3056     0.2338     0.0232     0.0026    47.1620   -35.6933     0.6145   141.8517   113.3999   192.8821   193.8281    15.4245    17.3889     0.0000   184.4566     2.7548     8.5678     8.6697     0.0000  2304.0000     0.0000     0.1967     0.4002     0.0000     0.0000     0.0435     0.3597     0.0000
   3435.5000     7.0938     7.1340  1039.8375   126.0236     0.3639     8.3074     8.3659     0.0645     0.1086     0.0360     8.0002     0.2279     0.0172     0.0026    47.1620   -35.7107     0.6203   145.1496   113.4065   192.8432   193.8452    15.3538    17.3498     0.1530   184.4564     2.7481     8.5768     8.6380     0.0000  2220.0000     0.0000     0.2172     0.3820     0.0000     0.0000     0.0322     0.3686     0.0000
   3436.0000     7.0938     7.1340  1059.3900   126.0236     0.3639     8.2775     8.3773     0.0621     0.1157     0.0349    10.6380     0.2236     0.0143     0.0028    47.1620   -35.7282     0.6021   143.6832   113.4131   192.8127   193.8538    15.2831    17.4234     0.5574   184.5597     2.7439     8.5454     8.6499     0.0000  2378.0000     0.0000     0.2363     0.3610     0.0000     0.0000     0.0268     0.3759     0.0000
   3436.5000     7.0938     7.1340  1054.4131   126.0236     0.3639     8.2994     8.3873     0.0618     0.1178     0.0337    10.6108     0.2226     0.0202     0.0032    47.1620   -35.7456     0.6176   139.0796   113.4197   192.7873   193.8604    15.2123    17.6145     0.5711   184.7735     2.7490     8.5683     8.6604     0.0000  2267.0000     0.0000     0.2419     0.3585     0.0000     0.0000     0.0378     0.3619     0.0000
   3437.0000     7.1016     7.1365  1034.8606   126.0236     0.3691     8.3147     8.3563     0.0643     0.1145     0.0338    10.4374     0.2232     0.0283     0.0040    47.1620   -35.7631     0.6880   138.3681   113.4263   192.7649   193.8605    15.1417    17.6314     0.1478   184.8123     2.7582     8.5850     8.6286     0.0000  2279.0000     0.0000     0.2331     0.3804     0.0000     0.0000     0.0529     0.3336     0.0000
   3437.5000     7.1129     7.1365  1059.3900   126.0236     0.3747     8.2889     8.3696     0.0677     0.1101     0.0351     8.8113     0.2230     0.0331     0.0043    47.1620   -35.7805     0.6976   141.7377   113.4330   192.7298   193.8595    15.0710    17.6857     0.0000   184.9009     2.7654     8.5588     8.6434     0.0000  2352.0000     0.0000     0.2213     0.4099     0.0000     0.0000     0.0619     0.3069     0.0000
   3438.0000     7.1111     7.1357  1030.2390   126.0236     0.3734     8.3160     8.3740     0.0680     0.1112     0.0355     8.3974     0.2210     0.0308     0.0045    47.1620   -35.7979     0.6844   139.3761   113.4396   192.7582   193.8788    15.0004    17.7598     0.0932   184.9458     2.7637     8.5871     8.6478     0.0000  2158.0000     0.0000     0.2241     0.4124     0.0000     0.0000     0.0576     0.3058     0.0000
   3438.5000     7.1094     7.1340  1049.4360   126.0236     0.3717     8.3189     8.3628     0.0668     0.1083     0.0355     8.2848     0.2258     0.0251     0.0048    47.1620   -35.8154     0.7177   135.8935   113.4462   192.7388   193.8741    14.9297    17.9222     0.1459   185.1256     2.7563     8.5900     8.6359     0.0000  2364.0000     0.0000     0.2164     0.4024     0.0000     0.0000     0.0469     0.3343     0.0000
