~VERSION INFORMATION
VERS.           1.2   :CWLS Log ASCII Standard - VERSION 1.2
WRAP.           NO    :One Line per depth step
PROD.  Schlumberger   :LAS Producer
PROG.  DLIS to ASCII 17C0-152                          :LAS Program name and version
CREA.        2011/10/27 17:24                          :LAS Creation date {YYYY/MM/DD hh:mm}
DLIS_CREA.  2011-Oct-27 07:22                          :DLIS Creation date and time {YYYY-MMM-DD hh:mm}
SOURCE.     7e486f41-920f-449c-9fc4-a1d2576f3c93       :DLIS File Name
#--------------------------------------------------
~WELL INFORMATION
#MNEM.UNIT      DATA             DESCRIPTION
#---- ------ --------------   -----------------------------
STRT .F      3201.5000       :START DEPTH     
STOP .F      4055.0000       :STOP DEPTH     
STEP .F       0.5000         :STEP       
NULL .          -999.25      :NULL VALUE
COMP .                 COMPANY:  SWEPI LP                           
WELL .                    WELL:  Harper Hill 2-29                   
FLD  .                   FIELD:  Swan                               
LOC  .                LOCATION:                                     
CNTY .                  COUNTY:  Moffat                             
STAT .                   STATE:  Colorado                           
CTRY .                 COUNTRY:                                     
SRVC .         SERVICE COMPANY:  Schlumberger                       
API  .              API NUMBER:  05-0081-07659                      
DATE .                LOG DATE:  26-Oct-2011
UWI  .          UNIQUE WELL ID:                                     
#-----------------------------------------------------------------------------
~PARAMETER INFORMATION
#MNEM.UNIT    VALUE                      DESCRIPTION
#---- -----   --------------------       ------------------------
CN   .        SWEPI LP                   :Company Name
WN   .        Harper Hill 2-29           :Well Name
FN   .        Swan                       :Field Name
FL   .                                   :Field Location
FL1  .                                   :Field Location Line 1
COUN .        Moffat                     :County or Rig Name
STAT .        Colorado                   :State or Province
NATI .                                   :Nation
DATE .        26-Oct-2011                :Date as Month-Day-Year
APIN .        05-0081-07659              :API Serial Number
SECT .        29                         :Section
TOWN .        5N                         :Township
RANG .        90W                        :Range
DMF  .        Kelly Bushing              :Drilling Measured From
LMF  .        Kelly Bushing              :Log Measured From
PDAT .        Ground Level               :Permanent Datum
ENGI .        Mark Kast                  :Engineer's Name
WITN .        Tony                       :Witness's Name
LATI .                                   :Latitude
LONG .                                   :Longitude
LUL  .        Rock Springs               :Logging Unit Location
LUN  .              2271                 :Logging Unit Number
RUN  .        Two                        :Run Number
SON  .                                   :Service Order Number
BHT  .DEGF     127.00000                 :Bottom Hole Temperature (used in calculations)
BS   .IN         6.75000                 :Bit Size
DFD  .LB/G       7.90000                 :Drilling Fluid Density
DFV  .S         44.00000                 :Drilling Fluid Viscosity
DFL  .C3        16.60000                 :Drilling Fluid Loss
RMFS .                                   :Resistivity of Mud Filtrate Sample
EKB  .F       6597.00000                 :Elevation of Kelly Bushing
EGL  .F       6585.00000                 :Elevation of Ground Level
BLI  .                                   :Bottom Log Interval
BSAL .PPM     44500.00000                :Borehole Salinity
FLEV .                                   :Fluid Level
MCST .                                   :Mud Cake Sample Temperature
MFST .                                   :Mud Filtrate Sample Temperature
MRT  .DEGF     127.00000                 :Maximum Recorded Temperature
MST  .                                   :Mud Sample Temperature
RMCS .                                   :Resistivity of Mud Cake Sample
RMS  .                                   :Resistivity of Mud Sample
RW   .OHMM       1.00000                 :Resistivity of Connate Water
TDD  .F       4480.00000                 :Total Depth - Driller
TDL  .F       4482.00000                 :Total Depth - Logger
TLI  .                                   :Top Log Interval
HIDE .                                   :Header Identifier
MATR .        SAND                       :Rock Matrix for Neutron Porosity Corrections
DFT  .        OBM                        :Drilling Fluid Type
DFPH .                                   :Drilling Fluid PH
MCSS .        N/A                        :Mud Cake Sample Source
MFSS .        N/A                        :Mud Filtrate Sample Source
MSS  .        N/A                        :Mud Sample Source
OS1  .                                   :Other Services Line 1
OS2  .                                   :Other Services Line 2
OS3  .                                   :Other Services Line 3
OS4  .                                   :Other Services Line 4
OS5  .                                   :Other Services Line 5
R1   .                                   :Remark Line 1
R2   .                                   :Remark Line 2
R3   .                                   :Remark Line 3
R4   .                                   :Remark Line 4
R5   .                                   :Remark Line 5
R6   .                                   :Remark Line 6
R7   .                                   :Remark Line 7
R8   .                                   :Remark Line 8
TCS  .        20 00                      :Time Circulation Stopped
TLAB .                                   :Time Logger At Bottom
EPD  .F         6585.000000              :Elevation of Permanent Datum above Mean Sea Level
APD  .F          12.000000               :Elevation of Depth Reference (LMF) above Permanent Datum
#-----------------------------------------------------------------------------
~CURVE INFORMATION
#MNEM.UNIT   API CODE                                  DESCRIPTION
#---- -----  --------                                  -----------------------
DEPT .F                                                :DEPTH (BOREHOLE) {F12.4}
C1_OBMT.IN                                             :OBMT Caliper 1 {F11.4}
C2_OBMT.IN                                             :OBMT Caliper 2 {F11.4}
CDF  .LBF                                              :Calibrated Downhole Force {F11.4}
CTEM .DEGF                                             :Cartridge Temperature {F11.4}
DCAL .IN                                               :Differential Caliper {F11.4}
DEVI .DEG                                              :Hole Deviation {F11.4}
DEVIM.DEG                                              :Memorized Deviation {F11.4}
DWAL_WALK2.                                            :Dry Weight Fraction Pseudo Aluminum (SpectroLith WALK2 Model) {F11.4}
DWCA_WALK2.                                            :Dry Weight Fraction Calcium (SpectroLith WALK2 Model) {F11.4}
DWFE_WALK2.                                            :Dry Weight Fraction Iron + 0.14 Aluminum (SpectroLith WALK2 Model) {F11.4}
DWGD_WALK2.PPM                                         :Dry Weight Fraction Gadolinium (SpectroLith WALK2 Model) {F11.4}
DWSI_WALK2.                                            :Dry Weight Fraction Silicon (SpectroLith WALK2 Model) {F11.4}
DWSU_WALK2.                                            :Dry Weight Fraction Sulfur (SpectroLith WALK2 Model) {F11.4}
DWTI_WALK2.                                            :Dry Weight Fraction Titanium (SpectroLith WALK2 Model) {F11.4}
ECST .DEGF                                             :ECS Temperature {F11.4}
ED   .F                                                :East Departure {F11.4}
ESUF_WALK2.                                            :Elemental Statistical Uncertainty Factor (SpectroLith WALK2 Model) {F11.4}
GR_EDTC.GAPI                                           :EDTC Gamma Ray {F11.4}
GTEM .DEGF                                             :Generalized Borehole Temperature {F11.4}
HAZI .DEG                                              :Hole Azimuth {F11.4}
HAZIM.DEG                                              :Hole Azimuth {F11.4}
ND   .F                                                :North Departure {F11.4}
P1AZ .DEG                                              :Pad 1 Azimuth {F11.4}
QCPMT.                                                 :Photomultiplier Tube Quality Control {F11.4}
RB   .DEG                                              :Relative Bearing {F11.4}
RHGE_WALK2.G/C3                                        :Matrix Density from Elemental Concentrations (SpectroLith WALK2 Model) {F11.4}
SDEV .DEG                                              :Sonde Deviation {F11.4}
SDEVM.DEG                                              :Sonde Deviation {F11.4}
STIT .F                                                :Stuck Tool Indicator, Total {F11.4}
TENS .LBF                                              :Cable Tension {F11.4}
WANH_WALK2.                                            :Dry Weight Fraction Anhydrite/Gypsum (SpectroLith WALK2 Model) {F11.4}
WCAR_WALK2.                                            :Dry Weight Fraction Carbonate (SpectroLith WALK2 Model) {F11.4}
WCLA_WALK2.                                            :Dry Weight Fraction Clay (SpectroLith WALK2 Model) {F11.4}
WCOA_WALK2.                                            :Dry Weight Fraction Coal (SpectroLith WALK2 Model) {F11.4}
WEVA_WALK2.                                            :Dry Weight Fraction Salt (SpectroLith WALK2 Model) {F11.4}
WPYR_WALK2.                                            :Dry Weight Fraction Pyrite (SpectroLith WALK2 Model) {F11.4}
WQFM_WALK2.                                            :Dry Weight Fraction Quartz+Feldspar+Mica (QFM) (SpectroLith WALK2 Model) {F11.4}
WSID_WALK2.                                            :Dry Weight Fraction Siderite (SpectroLith WALK2 Model) {F11.4}
#-----------------------------------------------------------------------------
# 
#      DEPT      C1_OBMT    C2_OBMT      CDF        CTEM       DCAL       DEVI      DEVIM    DWAL_WALK2 DWCA_WALK2 DWFE_WALK2 DWGD_WALK2 DWSI_WALK2 DWSU_WALK2 DWTI_WALK2    ECST        ED     ESUF_WALK2  GR_EDTC      GTEM       HAZI      HAZIM        ND        P1AZ      QCPMT        RB     RHGE_WALK2    SDEV      SDEVM       STIT       TENS    WANH_WALK2 WCAR_WALK2 WCLA_WALK2 WCOA_WALK2 WEVA_WALK2 WPYR_WALK2 WQFM_WALK2 WSID_WALK2
#
~A  
# ...
   3600.5000     7.0713     7.1030  1005.7095   128.0001     0.3371     3.7094     3.7264     0.0525     0.1399     0.0311     8.7104     0.2107     0.0000     0.0026    47.1620   -36.4867     0.6399   147.9194   115.5873   155.3801   157.1573    -0.9587   352.3083     0.1703   196.8935     2.7240     3.7743     3.7918     0.0000  2427.0000     0.0000     0.3014     0.2765     0.0000     0.0000     0.0000     0.4221     0.0000
   3601.0000     7.0721     7.1069  1020.2850   128.0001     0.3395     3.7161     3.7284     0.0580     0.1298     0.0346     8.0813     0.2124     0.0000     0.0021    47.1620   -36.4740     0.6462   145.2198   115.5939   155.3666   157.1582    -0.9887   351.9757     0.4770   196.5750     2.7289     3.7812     3.7939     0.0000  2436.0000     0.0000     0.2740     0.3252     0.0000     0.0000     0.0000     0.4008     0.0000
   3601.5000     7.0782     7.1121   996.1110   128.0001     0.3451     3.7119     3.7234     0.0633     0.1162     0.0377     4.5295     0.2189     0.0000     0.0024    46.7718   -36.4614     0.6719   148.7469   115.6005   155.3659   157.1878    -1.0186   351.7450     0.0204   196.3454     2.7323     3.7771     3.7889     0.0000  2417.0000     0.0000     0.2375     0.3714     0.0000     0.0000     0.0000     0.3911     0.0000
   3602.0000     7.0765     7.1142  1010.6865   128.0001     0.3453     3.7152     3.7292     0.0664     0.1194     0.0390     2.6528     0.2101     0.0031     0.0028    45.9914   -36.4488     0.6487   146.0197   115.6071   155.4031   157.1732    -1.0486   351.6525     0.0678   196.2158     2.7390     3.7804     3.7949     0.0000  2434.0000     0.0000     0.2461     0.3987     0.0000     0.0000     0.0058     0.3493     0.0000
   3602.5000     7.0678     7.1056   986.5125   128.0001     0.3367     3.7151     3.7288     0.0640     0.1266     0.0380     2.9774     0.2055     0.0000     0.0027    46.7718   -36.4362     0.6073   142.7973   115.6137   155.4225   157.1688    -1.0785   351.6058     0.2644   196.1498     2.7347     3.7802     3.7943     0.0000  2353.0000     0.0000     0.2657     0.3775     0.0000     0.0000     0.0000     0.3568     0.0000
   3603.0000     7.0678     7.1099  1025.2621   128.0001     0.3388     3.7141     3.7272     0.0609     0.1401     0.0361     5.8411     0.1954     0.0000     0.0027    47.1620   -36.4236     0.6227   135.9818   115.6203   155.4881   157.1677    -1.1085   351.0394     0.5134   195.5190     2.7335     3.7792     3.7926     0.0000  2477.0000     0.0000     0.3019     0.3501     0.0000     0.0000     0.0000     0.3480     0.0000
   3603.5000     7.0678     7.1056   991.1340   128.0001     0.3367     3.7200     3.7315     0.0543     0.1529     0.0322     6.6602     0.1922     0.0000     0.0026    47.1620   -36.4110     0.6268   135.4319   115.6270   155.5136   157.1532    -1.1385   350.7541     1.0731   195.2088     2.7283     3.7852     3.7971     0.0000  2339.0000     0.0000     0.3364     0.2927     0.0000     0.0000     0.0000     0.3709     0.0000
   3604.0000     7.0687     7.1107  1020.2850   128.0001     0.3397     3.7177     3.7263     0.0491     0.1635     0.0288     8.5368     0.1894     0.0000     0.0032    47.5521   -36.3984     0.6466   144.3862   115.6336   155.5569   157.1539    -1.1684   350.6312     0.7763   195.0429     2.7238     3.7829     3.7917     0.0000  2473.0000     0.0000     0.3649     0.2468     0.0000     0.0000     0.0000     0.3883     0.0000
   3604.5000     7.0704     7.1124  1020.2850   128.0001     0.3414     3.7217     3.7309     0.0436     0.1679     0.0252     8.6824     0.1944     0.0015     0.0030    48.3325   -36.3857     0.6532   152.6938   115.6402   155.6452   157.1627    -1.1984   350.2497     0.5681   194.5740     2.7198     3.7870     3.7965     0.0000  2412.0000     0.0000     0.3766     0.1980     0.0000     0.0000     0.0028     0.4226     0.0000
   3605.0000     7.0643     7.1048   996.1110   128.0001     0.3345     3.7210     3.7297     0.0447     0.1569     0.0245     8.0741     0.2066     0.0115     0.0032    47.5521   -36.3731     0.6593   160.9988   115.6468   155.7302   157.1629    -1.2284   350.1967     0.2728   194.4362     2.7283     3.7861     3.7952     0.0000  2416.0000     0.0000     0.3472     0.2076     0.0000     0.0000     0.0215     0.4237     0.0000
   3605.5000     7.0687     7.1056  1020.2850   128.0001     0.3371     3.7252     3.7270     0.0475     0.1388     0.0256     5.7308     0.2233     0.0150     0.0033    47.1620   -36.3605     0.6634   151.1148   115.6534   155.7903   157.1908    -1.2584   350.0452     0.2857   194.2249     2.7315     3.7906     3.7925     0.0000  2477.0000     0.0000     0.2983     0.2322     0.0000     0.0000     0.0281     0.4414     0.0000
   3606.0000     7.0678     7.1065   986.5125   128.0001     0.3371     3.7261     3.7314     0.0504     0.1227     0.0265     4.4035     0.2376     0.0200     0.0039    48.3325   -36.3479     0.6942   145.9036   115.6600   155.9163   157.1990    -1.2883   350.0913     0.2436   194.1453     2.7362     3.7915     3.7970     0.0000  2354.0000     0.0000     0.2550     0.2579     0.0000     0.0000     0.0374     0.4497     0.0000
   3606.5000     7.0739     7.1280  1030.2390   128.0001     0.3509     3.7282     3.7251     0.0524     0.1226     0.0267     5.7459     0.2351     0.0271     0.0041    47.9423   -36.3353     0.7129   141.2347   115.6666   155.9862   157.2080    -1.3183   350.0585     0.0000   194.0426     2.7449     3.7938     3.7906     0.0000  2495.0000     0.0000     0.2548     0.2758     0.0000     0.0000     0.0507     0.4187     0.0000
   3607.0000     7.0695     7.1271  1010.6865   128.0001     0.3483     3.7280     3.7308     0.0513     0.1379     0.0252     6.3410     0.2200     0.0333     0.0032    47.1620   -36.3227     0.7009   138.6572   115.6732   156.0751   157.1955    -1.3483   349.9551     0.1342   193.8507     2.7520     3.7935     3.7964     0.0000  2393.0000     0.0000     0.2961     0.2655     0.0000     0.0000     0.0541     0.3844     0.0000
   3607.5000     7.0713     7.0998   966.9600   128.0001     0.3355     3.7314     3.7297     0.0491     0.1552     0.0245     6.9786     0.2031     0.0317     0.0023    47.1620   -36.3101     0.6659   131.4070   115.6798   156.1567   157.2001    -1.3783   350.0296     0.0000   193.8437     2.7519     3.7970     3.7953     0.0000  2388.0000     0.0000     0.3424     0.2468     0.0000     0.0000     0.0527     0.3581     0.0000
   3608.0000     7.0713     7.1030  1054.4131   128.0001     0.3371     3.7296     3.7272     0.0459     0.1749     0.0238     5.3632     0.1847     0.0271     0.0011    47.1620   -36.2975     0.6290   115.0954   115.6864   156.2571   157.2072    -1.4082   349.8204     0.0309   193.5346     2.7487     3.7952     3.7927     0.0000  2511.0000     0.0000     0.3956     0.2183     0.0000     0.0000     0.0508     0.3354     0.0000
   3608.5000     7.0678     7.1082  1015.6635   128.0001     0.3380     3.7337     3.7316     0.0435     0.1882     0.0234     4.3259     0.1725     0.0196     0.0011    45.9914   -36.2849     0.6303   106.0417   115.6930   156.3174   157.2100    -1.4382   349.9942     0.0000   193.6479     2.7413     3.7993     3.7972     0.0000  2409.0000     0.0000     0.4313     0.1970     0.0000     0.0000     0.0366     0.3351     0.0000
   3609.0000     7.0784     7.1296  1039.8375   128.0001     0.3540     3.7321     3.7267     0.0446     0.1944     0.0241     2.2848     0.1633     0.0191     0.0012    46.3816   -36.2723     0.6180   107.7725   115.6996   156.4367   157.2115    -1.4682   350.1562     0.0000   193.6905     2.7431     3.7979     3.7923     0.0000  2467.0000     0.0000     0.4479     0.2068     0.0000     0.0000     0.0358     0.3096     0.0000
   3609.5000     7.0834     7.1353  1025.2621   128.0001     0.3593     3.7287     3.7330     0.0453     0.1865     0.0248     2.0515     0.1710     0.0153     0.0020    47.1620   -36.2597     0.6294   116.9455   115.7063   156.5128   157.1819    -1.4982   350.6876     0.0000   194.1450     2.7385     3.7945     3.7990     0.0000  2421.0000     0.0000     0.4266     0.2136     0.0000     0.0000     0.0287     0.3311     0.0000
