~VERSION INFORMATION
VERS.           1.2   :CWLS Log ASCII Standard - VERSION 1.2
WRAP.           NO    :One Line per depth step
PROD.  Schlumberger   :LAS Producer
PROG.  DLIS to ASCII 17C0-152                          :LAS Program name and version
CREA.        2011/10/27 17:24                          :LAS Creation date {YYYY/MM/DD hh:mm}
DLIS_CREA.  2011-Oct-27 07:22                          :DLIS Creation date and time {YYYY-MMM-DD hh:mm}
SOURCE.     7e486f41-920f-449c-9fc4-a1d2576f3c93       :DLIS File Name
#--------------------------------------------------
~WELL INFORMATION
#MNEM.UNIT      DATA             DESCRIPTION
#---- ------ --------------   -----------------------------
STRT .F      3201.5000       :START DEPTH     
STOP .F      4055.0000       :STOP DEPTH     
STEP .F       0.5000         :STEP       
NULL .          -999.25      :NULL VALUE
COMP .                 COMPANY:  SWEPI LP                           
WELL .                    WELL:  Harper Hill 2-29                   
FLD  .                   FIELD:  Swan                               
LOC  .                LOCATION:                                     
CNTY .                  COUNTY:  Moffat                             
STAT .                   STATE:  Colorado                           
CTRY .                 COUNTRY:                                     
SRVC .         SERVICE COMPANY:  Schlumberger                       
API  .              API NUMBER:  05-0081-07659                      
DATE .                LOG DATE:  26-Oct-2011
UWI  .          UNIQUE WELL ID:                                     
#-----------------------------------------------------------------------------
~PARAMETER INFORMATION
#MNEM.UNIT    VALUE                      DESCRIPTION
#---- -----   --------------------       ------------------------
CN   .        SWEPI LP                   :Company Name
WN   .        Harper Hill 2-29           :Well Name
FN   .        Swan                       :Field Name
FL   .                                   :Field Location
FL1  .                                   :Field Location Line 1
COUN .        Moffat                     :County or Rig Name
STAT .        Colorado                   :State or Province
NATI .                                   :Nation
DATE .        26-Oct-2011                :Date as Month-Day-Year
APIN .        05-0081-07659              :API Serial Number
SECT .        29                         :Section
TOWN .        5N                         :Township
RANG .        90W                        :Range
DMF  .        Kelly Bushing              :Drilling Measured From
LMF  .        Kelly Bushing              :Log Measured From
PDAT .        Ground Level               :Permanent Datum
ENGI .        Mark Kast                  :Engineer's Name
WITN .        Tony                       :Witness's Name
LATI .                                   :Latitude
LONG .                                   :Longitude
LUL  .        Rock Springs               :Logging Unit Location
LUN  .              2271                 :Logging Unit Number
RUN  .        Two                        :Run Number
SON  .                                   :Service Order Number
BHT  .DEGF     127.00000                 :Bottom Hole Temperature (used in calculations)
BS   .IN         6.75000                 :Bit Size
DFD  .LB/G       7.90000                 :Drilling Fluid Density
DFV  .S         44.00000                 :Drilling Fluid Viscosity
DFL  .C3        16.60000                 :Drilling Fluid Loss
RMFS .                                   :Resistivity of Mud Filtrate Sample
EKB  .F       6597.00000                 :Elevation of Kelly Bushing
EGL  .F       6585.00000                 :Elevation of Ground Level
BLI  .                                   :Bottom Log Interval
BSAL .PPM     44500.00000                :Borehole Salinity
FLEV .                                   :Fluid Level
MCST .                                   :Mud Cake Sample Temperature
MFST .                                   :Mud Filtrate Sample Temperature
MRT  .DEGF     127.00000                 :Maximum Recorded Temperature
MST  .                                   :Mud Sample Temperature
RMCS .                                   :Resistivity of Mud Cake Sample
RMS  .                                   :Resistivity of Mud Sample
RW   .OHMM       1.00000                 :Resistivity of Connate Water
TDD  .F       4480.00000                 :Total Depth - Driller
TDL  .F       4482.00000                 :Total Depth - Logger
TLI  .                                   :Top Log Interval
HIDE .                                   :Header Identifier
MATR .        SAND                       :Rock Matrix for Neutron Porosity Corrections
DFT  .        OBM                        :Drilling Fluid Type
DFPH .                                   :Drilling Fluid PH
MCSS .        N/A                        :Mud Cake Sample Source
MFSS .        N/A                        :Mud Filtrate Sample Source
MSS  .        N/A                        :Mud Sample Source
OS1  .                                   :Other Services Line 1
OS2  .                                   :Other Services Line 2
OS3  .                                   :Other Services Line 3
OS4  .                                   :Other Services Line 4
OS5  .                                   :Other Services Line 5
R1   .                                   :Remark Line 1
R2   .                                   :Remark Line 2
R3   .                                   :Remark Line 3
R4   .                                   :Remark Line 4
R5   .                                   :Remark Line 5
R6   .                                   :Remark Line 6
R7   .                                   :Remark Line 7
R8   .                                   :Remark Line 8
TCS  .        20 00                      :Time Circulation Stopped
TLAB .                                   :Time Logger At Bottom
EPD  .F         6585.000000              :Elevation of Permanent Datum above Mean Sea Level
APD  .F          12.000000               :Elevation of Depth Reference (LMF) above Permanent Datum
#-----------------------------------------------------------------------------
~CURVE INFORMATION
#MNEM.UNIT   API CODE                                  DESCRIPTION
#---- -----  --------                                  -----------------------
DEPT .F                                                :DEPTH (BOREHOLE) {F12.4}
C1_OBMT.IN                                             :OBMT Caliper 1 {F11.4}
C2_OBMT.IN                                             :OBMT Caliper 2 {F11.4}
CDF  .LBF                                              :Calibrated Downhole Force {F11.4}
CTEM .DEGF                                             :Cartridge Temperature {F11.4}
DCAL .IN                                               :Differential Caliper {F11.4}
DEVI .DEG                                              :Hole Deviation {F11.4}
DEVIM.DEG                                              :Memorized Deviation {F11.4}
DWAL_WALK2.                                            :Dry Weight Fraction Pseudo Aluminum (SpectroLith WALK2 Model) {F11.4}
DWCA_WALK2.                                            :Dry Weight Fraction Calcium (SpectroLith WALK2 Model) {F11.4}
DWFE_WALK2.                                            :Dry Weight Fraction Iron + 0.14 Aluminum (SpectroLith WALK2 Model) {F11.4}
DWGD_WALK2.PPM                                         :Dry Weight Fraction Gadolinium (SpectroLith WALK2 Model) {F11.4}
DWSI_WALK2.                                            :Dry Weight Fraction Silicon (SpectroLith WALK2 Model) {F11.4}
DWSU_WALK2.                                            :Dry Weight Fraction Sulfur (SpectroLith WALK2 Model) {F11.4}
DWTI_WALK2.                                            :Dry Weight Fraction Titanium (SpectroLith WALK2 Model) {F11.4}
ECST .DEGF                                             :ECS Temperature {F11.4}
ED   .F                                                :East Departure {F11.4}
ESUF_WALK2.                                            :Elemental Statistical Uncertainty Factor (SpectroLith WALK2 Model) {F11.4}
GR_EDTC.GAPI                                           :EDTC Gamma Ray {F11.4}
GTEM .DEGF                                             :Generalized Borehole Temperature {F11.4}
HAZI .DEG                                              :Hole Azimuth {F11.4}
HAZIM.DEG                                              :Hole Azimuth {F11.4}
ND   .F                                                :North Departure {F11.4}
P1AZ .DEG                                              :Pad 1 Azimuth {F11.4}
QCPMT.                                                 :Photomultiplier Tube Quality Control {F11.4}
RB   .DEG                                              :Relative Bearing {F11.4}
RHGE_WALK2.G/C3                                        :Matrix Density from Elemental Concentrations (SpectroLith WALK2 Model) {F11.4}
SDEV .DEG                                              :Sonde Deviation {F11.4}
SDEVM.DEG                                              :Sonde Deviation {F11.4}
STIT .F                                                :Stuck Tool Indicator, Total {F11.4}
TENS .LBF                                              :Cable Tension {F11.4}
WANH_WALK2.                                            :Dry Weight Fraction Anhydrite/Gypsum (SpectroLith WALK2 Model) {F11.4}
WCAR_WALK2.                                            :Dry Weight Fraction Carbonate (SpectroLith WALK2 Model) {F11.4}
WCLA_WALK2.                                            :Dry Weight Fraction Clay (SpectroLith WALK2 Model) {F11.4}
WCOA_WALK2.                                            :Dry Weight Fraction Coal (SpectroLith WALK2 Model) {F11.4}
WEVA_WALK2.                                            :Dry Weight Fraction Salt (SpectroLith WALK2 Model) {F11.4}
WPYR_WALK2.                                            :Dry Weight Fraction Pyrite (SpectroLith WALK2 Model) {F11.4}
WQFM_WALK2.                                            :Dry Weight Fraction Quartz+Feldspar+Mica (QFM) (SpectroLith WALK2 Model) {F11.4}
WSID_WALK2.                                            :Dry Weight Fraction Siderite (SpectroLith WALK2 Model) {F11.4}
#-----------------------------------------------------------------------------
# 
#      DEPT      C1_OBMT    C2_OBMT      CDF        CTEM       DCAL       DEVI      DEVIM    DWAL_WALK2 DWCA_WALK2 DWFE_WALK2 DWGD_WALK2 DWSI_WALK2 DWSU_WALK2 DWTI_WALK2    ECST        ED     ESUF_WALK2  GR_EDTC      GTEM       HAZI      HAZIM        ND        P1AZ      QCPMT        RB     RHGE_WALK2    SDEV      SDEVM       STIT       TENS    WANH_WALK2 WCAR_WALK2 WCLA_WALK2 WCOA_WALK2 WEVA_WALK2 WPYR_WALK2 WQFM_WALK2 WSID_WALK2
#
~A  
# ...
   3876.0000     7.1519     7.2294   991.1340   126.0236     0.4406     6.7604     6.5663     0.0711     0.0952     0.0397     7.1652     0.2320     0.0182     0.0030    47.1620   -18.6508     0.7499   127.2728   119.2285    75.9582    73.4178    -7.7634   274.1884     0.0000   198.1048     2.7540     6.9591     6.7555     0.0000  2518.0000     0.0000     0.1810     0.4400     0.0000     0.0000     0.0341     0.3450     0.0000
   3876.5000     7.1554     7.2174  1001.0880   126.0236     0.4363     6.7445     6.5716     0.0689     0.0958     0.0380     2.9545     0.2355     0.0222     0.0026    45.9914   -18.5960     0.7482   127.0896   119.2352    75.8794    73.3318    -7.7470   274.1343     0.0317   198.1297     2.7556     6.9426     6.7611     0.0000  2620.0000     0.0000     0.1826     0.4208     0.0000     0.0000     0.0416     0.3550     0.0000
   3877.0000     7.1346     7.1856  1010.6865   126.0236     0.4100     6.7527     6.5677     0.0648     0.0994     0.0369     2.3568     0.2374     0.0128     0.0024    45.9914   -18.5413     0.7334   130.1449   119.2418    75.7657    73.2443    -7.7306   273.9297     0.1661   198.0391     2.7431     6.9499     6.7559     0.0000  2612.0000     0.0000     0.1923     0.3848     0.0000     0.0000     0.0240     0.3989     0.0000
   3877.5000     7.1675     7.2157   961.9830   126.0236     0.4416     6.7445     6.5451     0.0634     0.1026     0.0369     2.7522     0.2354     0.0057     0.0025    45.9914   -18.4866     0.7164   131.4901   119.2484    75.6834    73.2396    -7.7141   273.8278     0.0000   198.0200     2.7353     6.9431     6.7340     0.0000  2522.0000     0.0000     0.2010     0.3720     0.0000     0.0000     0.0106     0.4163     0.0000
   3878.0000     7.1623     7.2105   986.5125   126.0236     0.4364     6.7245     6.5486     0.0638     0.0982     0.0377     4.1680     0.2392     0.0021     0.0026    45.9914   -18.4320     0.7793   126.9531   119.2550    75.6305    73.1319    -7.6976   273.6755     0.2496   197.9219     2.7317     6.9219     6.7374     0.0000  2579.0000     0.0000     0.1892     0.3762     0.0000     0.0000     0.0039     0.4307     0.0000
   3878.5000     7.1545     7.2182   991.1340   126.0236     0.4363     6.7360     6.5568     0.0642     0.0915     0.0375     4.9700     0.2468     0.0048     0.0028    45.9914   -18.3774     0.8136   131.9592   119.2616    75.5149    73.0265    -7.6810   273.6283     0.0000   197.9894     2.7333     6.9336     6.7455     0.0000  2581.0000     0.0000     0.1712     0.3795     0.0000     0.0000     0.0090     0.4403     0.0000
   3879.0000     7.1545     7.2217   947.4075   126.0236     0.4380     6.7296     6.5372     0.0691     0.0777     0.0391     4.3842     0.2554     0.0128     0.0033    47.1620   -18.3229     0.7749   135.0944   119.2682    75.4278    72.9870    -7.6643   273.4308     0.0000   197.8799     2.7434     6.9269     6.7250     0.0000  2438.0000     0.0000     0.1340     0.4222     0.0000     0.0000     0.0240     0.4198     0.0000
   3879.5000     7.1571     7.2268   966.9600   126.0236     0.4419     6.7055     6.5351     0.0715     0.0724     0.0403     4.1513     0.2576     0.0137     0.0038    46.5767   -18.2685     0.7518   139.9622   119.2748    75.4096    72.9238    -7.6477   273.2814     0.0000   197.7505     2.7458     6.9017     6.7229     0.0000  2542.0000     0.0000     0.1197     0.4431     0.0000     0.0000     0.0257     0.4114     0.0000
   3880.0000     7.1467     7.1856  1015.6635   126.0236     0.4161     6.7183     6.5336     0.0774     0.0634     0.0434     3.5887     0.2578     0.0159     0.0045    45.9914   -18.2141     0.7858   141.6544   119.2814    75.2943    72.8577    -7.6309   272.3061     0.0000   196.8951     2.7524     6.9144     6.7207     0.0000  2625.0000     0.0000     0.0957     0.4956     0.0000     0.0000     0.0297     0.3790     0.0000
   3880.5000     7.1926     7.2217   981.5355   126.0236     0.4571     6.7123     6.5289     0.0813     0.0672     0.0457     2.9945     0.2465     0.0149     0.0050    45.9914   -18.1598     0.7880   141.6544   119.2880    75.2224    72.7820    -7.6141   272.0440     0.0000   196.7063     2.7561     6.9106     6.7182     0.0000  2483.0000     0.0000     0.1058     0.5295     0.0000     0.0000     0.0279     0.3368     0.0000
   3881.0000     7.2005     7.2346   952.3845   126.0236     0.4675     6.6905     6.5206     0.0819     0.0728     0.0462     3.7267     0.2388     0.0157     0.0043    45.9914   -18.1055     0.7365   139.6868   119.2946    75.1658    72.7274    -7.5973   271.9594     0.3331   196.6792     2.7590     6.8881     6.7099     0.0000  2515.0000     0.0000     0.1208     0.5350     0.0000     0.0000     0.0293     0.3148     0.0000
   3881.5000     7.2273     7.2389  1015.6635   126.0236     0.4831     6.6967     6.5136     0.0760     0.0831     0.0438     5.0572     0.2362     0.0103     0.0029    48.3325   -18.0513     0.7159   137.8321   119.3012    75.0958    72.6744    -7.5804   271.3657     0.1086   196.1583     2.7501     6.8960     6.7038     0.0000  2645.0000     0.0000     0.1485     0.4829     0.0000     0.0000     0.0192     0.3494     0.0000
   3882.0000     7.2317     7.2569   996.1110   126.0236     0.4943     6.6959     6.5085     0.0678     0.0738     0.0408     8.0386     0.2599     0.0000     0.0014    48.3325   -17.9972     0.7141   135.0845   119.3078    75.0040    72.6219    -7.5635   270.8943     0.2601   195.7810     2.7309     6.8955     6.6987     0.0000  2518.0000     0.0000     0.1236     0.4108     0.0000     0.0000     0.0000     0.4656     0.0000
   3882.5000     7.2273     7.2612   932.8320   126.0236     0.4942     6.6748     6.5047     0.0632     0.0581     0.0381    10.8317     0.2865     0.0000     0.0014    45.9914   -17.9431     0.7282   137.8413   119.3145    74.9726    72.5459    -7.5465   270.9104     0.6769   195.8289     2.7231     6.8731     6.6946     0.0000  2467.0000     0.0000     0.0812     0.3708     0.0000     0.0000     0.0000     0.5480     0.0000
   3883.0000     7.2300     7.2673  1025.2621   126.0236     0.4986     6.6744     6.5004     0.0619     0.0385     0.0372    13.3580     0.3118     0.0000     0.0015    45.9914   -17.8891     0.7861   135.3340   119.3211    74.8811    72.4907    -7.5295   270.1013     1.4592   195.1158     2.7181     6.8728     6.6902     0.0000  2656.0000     0.0000     0.0286     0.3588     0.0000     0.0000     0.0000     0.6126     0.0000
   3883.5000     7.2290     7.2681  1005.7095   126.0236     0.4985     6.6771     6.5017     0.0628     0.0401     0.0373    14.1426     0.3087     0.0000     0.0026    45.9914   -17.8352     0.7966   136.2487   119.3277    74.7992    72.4334    -7.5125   269.6394     1.1677   194.7381     2.7187     6.8756     6.6915     0.0000  2584.0000     0.0000     0.0328     0.3670     0.0000     0.0000     0.0000     0.6002     0.0000
   3884.0000     7.2308     7.2681   957.3615   126.0236     0.4994     6.6549     6.4932     0.0681     0.0428     0.0404    12.5547     0.2962     0.0000     0.0032    45.9914   -17.7812     0.8248   134.8754   119.3343    74.7695    72.3856    -7.4954   269.6023     0.2900   194.7314     2.7247     6.8524     6.6827     0.0000  2511.0000     0.0000     0.0402     0.4136     0.0000     0.0000     0.0000     0.5462     0.0000
   3884.5000     7.2342     7.2630  1010.6865   126.0236     0.4986     6.6548     6.4869     0.0705     0.0568     0.0416    12.2245     0.2758     0.0002     0.0037    45.9914   -17.7274     0.8089   133.6975   119.3409    74.6788    72.3184    -7.4782   269.0031     0.0000   194.2263     2.7296     6.8525     6.6762     0.0000  2658.0000     0.0000     0.0778     0.4347     0.0000     0.0000     0.0004     0.4870     0.0000
   3885.0000     7.2404     7.2621  1005.7095   126.0236     0.5012     6.6660     6.4854     0.0714     0.0597     0.0421    10.7785     0.2708     0.0012     0.0034    45.9914   -17.6736     0.8112   135.3141   119.3475    74.5668    72.2425    -7.4610   268.8388     0.2676   194.1739     2.7322     6.8645     6.6749     0.0000  2556.0000     0.0000     0.0855     0.4426     0.0000     0.0000     0.0022     0.4696     0.0000
