~VERSION INFORMATION
VERS.           1.2   :CWLS Log ASCII Standard - VERSION 1.2
WRAP.           NO    :One Line per depth step
PROD.  Schlumberger   :LAS Producer
PROG.  DLIS to ASCII 17C0-152                          :LAS Program name and version
CREA.        2011/10/27 17:25                          :LAS Creation date {YYYY/MM/DD hh:mm}
DLIS_CREA.  2011-Oct-27 07:17                          :DLIS Creation date and time {YYYY-MMM-DD hh:mm}
SOURCE.     79519d1b-f2ac-4620-a9ab-fbce0bbece67       :DLIS File Name
#--------------------------------------------------
~WELL INFORMATION
#MNEM.UNIT      DATA             DESCRIPTION
#---- ------ --------------   -----------------------------
STRT .F      3722.5000       :START DEPTH     
STOP .F      4490.0000       :STOP DEPTH     
STEP .F       0.5000         :STEP       
NULL .          -999.25      :NULL VALUE
COMP .                 COMPANY:  SWEPI LP                           
WELL .                    WELL:  Harper Hill 2-29                   
FLD  .                   FIELD:  Swan                               
LOC  .                LOCATION:                                     
CNTY .                  COUNTY:  Moffat                             
STAT .                   STATE:  Colorado                           
CTRY .                 COUNTRY:                                     
SRVC .         SERVICE COMPANY:  Schlumberger                       
API  .              API NUMBER:  05-0081-07659                      
DATE .                LOG DATE:  26-Oct-2011
UWI  .          UNIQUE WELL ID:                                     
#-----------------------------------------------------------------------------
~PARAMETER INFORMATION
#MNEM.UNIT    VALUE                      DESCRIPTION
#---- -----   --------------------       ------------------------
CN   .        SWEPI LP                   :Company Name
WN   .        Harper Hill 2-29           :Well Name
FN   .        Swan                       :Field Name
FL   .                                   :Field Location
FL1  .                                   :Field Location Line 1
COUN .        Moffat                     :County or Rig Name
STAT .        Colorado                   :State or Province
NATI .                                   :Nation
DATE .        26-Oct-2011                :Date as Month-Day-Year
APIN .        05-0081-07659              :API Serial Number
SECT .        29                         :Section
TOWN .        5N                         :Township
RANG .        90W                        :Range
DMF  .        Kelly Bushing              :Drilling Measured From
LMF  .        Kelly Bushing              :Log Measured From
PDAT .        Ground Level               :Permanent Datum
ENGI .        Mark Kast                  :Engineer's Name
WITN .        Tony                       :Witness's Name
LATI .                                   :Latitude
LONG .                                   :Longitude
LUL  .        Rock Springs               :Logging Unit Location
LUN  .              2271                 :Logging Unit Number
RUN  .        Two                        :Run Number
SON  .                                   :Service Order Number
BHT  .DEGF     127.00000                 :Bottom Hole Temperature (used in calculations)
BS   .IN         6.75000                 :Bit Size
DFD  .LB/G       7.90000                 :Drilling Fluid Density
DFV  .S         44.00000                 :Drilling Fluid Viscosity
DFL  .C3        16.60000                 :Drilling Fluid Loss
RMFS .                                   :Resistivity of Mud Filtrate Sample
EKB  .F       6597.00000                 :Elevation of Kelly Bushing
EGL  .F       6585.00000                 :Elevation of Ground Level
BLI  .                                   :Bottom Log Interval
BSAL .PPM     44500.00000                :Borehole Salinity
FLEV .                                   :Fluid Level
MCST .                                   :Mud Cake Sample Temperature
MFST .                                   :Mud Filtrate Sample Temperature
MRT  .DEGF     127.00000                 :Maximum Recorded Temperature
MST  .                                   :Mud Sample Temperature
RMCS .                                   :Resistivity of Mud Cake Sample
RMS  .                                   :Resistivity of Mud Sample
RW   .OHMM       1.00000                 :Resistivity of Connate Water
TDD  .F       4480.00000                 :Total Depth - Driller
TDL  .F       4482.00000                 :Total Depth - Logger
TLI  .                                   :Top Log Interval
HIDE .                                   :Header Identifier
MATR .        SAND                       :Rock Matrix for Neutron Porosity Corrections
DFT  .        OBM                        :Drilling Fluid Type
DFPH .                                   :Drilling Fluid PH
MCSS .        N/A                        :Mud Cake Sample Source
MFSS .        N/A                        :Mud Filtrate Sample Source
MSS  .        N/A                        :Mud Sample Source
OS1  .                                   :Other Services Line 1
OS2  .                                   :Other Services Line 2
OS3  .                                   :Other Services Line 3
OS4  .                                   :Other Services Line 4
OS5  .                                   :Other Services Line 5
R1   .                                   :Remark Line 1
R2   .                                   :Remark Line 2
R3   .                                   :Remark Line 3
R4   .                                   :Remark Line 4
R5   .                                   :Remark Line 5
R6   .                                   :Remark Line 6
R7   .                                   :Remark Line 7
R8   .                                   :Remark Line 8
TCS  .        20 00                      :Time Circulation Stopped
TLAB .                                   :Time Logger At Bottom
EPD  .F         6585.000000              :Elevation of Permanent Datum above Mean Sea Level
APD  .F          12.000000               :Elevation of Depth Reference (LMF) above Permanent Datum
#-----------------------------------------------------------------------------
~CURVE INFORMATION
#MNEM.UNIT   API CODE                                  DESCRIPTION
#---- -----  --------                                  -----------------------
DEPT .F                                                :DEPTH (BOREHOLE) {F12.4}
C1_OBMT.IN                                             :OBMT Caliper 1 {F11.4}
C2_OBMT.IN                                             :OBMT Caliper 2 {F11.4}
CDF  .LBF                                              :Calibrated Downhole Force {F11.4}
CTEM .DEGF                                             :Cartridge Temperature {F11.4}
DCAL .IN                                               :Differential Caliper {F11.4}
DEVI .DEG                                              :Hole Deviation {F11.4}
DEVIM.DEG                                              :Memorized Deviation {F11.4}
DWAL_WALK2.                                            :Dry Weight Fraction Pseudo Aluminum (SpectroLith WALK2 Model) {F11.4}
DWCA_WALK2.                                            :Dry Weight Fraction Calcium (SpectroLith WALK2 Model) {F11.4}
DWFE_WALK2.                                            :Dry Weight Fraction Iron + 0.14 Aluminum (SpectroLith WALK2 Model) {F11.4}
DWGD_WALK2.PPM                                         :Dry Weight Fraction Gadolinium (SpectroLith WALK2 Model) {F11.4}
DWSI_WALK2.                                            :Dry Weight Fraction Silicon (SpectroLith WALK2 Model) {F11.4}
DWSU_WALK2.                                            :Dry Weight Fraction Sulfur (SpectroLith WALK2 Model) {F11.4}
DWTI_WALK2.                                            :Dry Weight Fraction Titanium (SpectroLith WALK2 Model) {F11.4}
ECST .DEGF                                             :ECS Temperature {F11.4}
ED   .F                                                :East Departure {F11.4}
ESUF_WALK2.                                            :Elemental Statistical Uncertainty Factor (SpectroLith WALK2 Model) {F11.4}
GR_EDTC.GAPI                                           :EDTC Gamma Ray {F11.4}
GTEM .DEGF                                             :Generalized Borehole Temperature {F11.4}
HAZI .DEG                                              :Hole Azimuth {F11.4}
HAZIM.DEG                                              :Hole Azimuth {F11.4}
ND   .F                                                :North Departure {F11.4}
P1AZ .DEG                                              :Pad 1 Azimuth {F11.4}
QCPMT.                                                 :Photomultiplier Tube Quality Control {F11.4}
RB   .DEG                                              :Relative Bearing {F11.4}
RHGE_WALK2.G/C3                                        :Matrix Density from Elemental Concentrations (SpectroLith WALK2 Model) {F11.4}
SDEV .DEG                                              :Sonde Deviation {F11.4}
SDEVM.DEG                                              :Sonde Deviation {F11.4}
STIT .F                                                :Stuck Tool Indicator, Total {F11.4}
TENS .LBF                                              :Cable Tension {F11.4}
WANH_WALK2.                                            :Dry Weight Fraction Anhydrite/Gypsum (SpectroLith WALK2 Model) {F11.4}
WCAR_WALK2.                                            :Dry Weight Fraction Carbonate (SpectroLith WALK2 Model) {F11.4}
WCLA_WALK2.                                            :Dry Weight Fraction Clay (SpectroLith WALK2 Model) {F11.4}
WCOA_WALK2.                                            :Dry Weight Fraction Coal (SpectroLith WALK2 Model) {F11.4}
WEVA_WALK2.                                            :Dry Weight Fraction Salt (SpectroLith WALK2 Model) {F11.4}
WPYR_WALK2.                                            :Dry Weight Fraction Pyrite (SpectroLith WALK2 Model) {F11.4}
WQFM_WALK2.                                            :Dry Weight Fraction Quartz+Feldspar+Mica (QFM) (SpectroLith WALK2 Model) {F11.4}
WSID_WALK2.                                            :Dry Weight Fraction Siderite (SpectroLith WALK2 Model) {F11.4}
#-----------------------------------------------------------------------------
# 
#      DEPT      C1_OBMT    C2_OBMT      CDF        CTEM       DCAL       DEVI      DEVIM    DWAL_WALK2 DWCA_WALK2 DWFE_WALK2 DWGD_WALK2 DWSI_WALK2 DWSU_WALK2 DWTI_WALK2    ECST        ED     ESUF_WALK2  GR_EDTC      GTEM       HAZI      HAZIM        ND        P1AZ      QCPMT        RB     RHGE_WALK2    SDEV      SDEVM       STIT       TENS    WANH_WALK2 WCAR_WALK2 WCLA_WALK2 WCOA_WALK2 WEVA_WALK2 WPYR_WALK2 WQFM_WALK2 WSID_WALK2
#
~A  
# ...
   4482.5000     6.1591     6.1982   825.8265    94.4001    -0.5714     6.6280     6.5844     0.0813     0.1058     0.0429     3.4268     0.2041     0.0366     0.0043    44.8209    -0.6541     1.0118   288.6478   127.2446    49.0895    49.0229    -0.5681   175.8128     0.1108   126.9157     2.7833     6.7689     6.7237     2.9539  2744.0000     0.0000     0.2095     0.5294     0.0000     0.0000     0.0685     0.1926     0.0000
   4483.0000     6.1674     6.1913   743.3505    94.4001    -0.5707     6.6241     6.5845     0.0813     0.1058     0.0429     3.4268     0.2041     0.0366     0.0043    44.8209    -0.6108     1.0118   288.6478   127.2512    49.0735    49.0229    -0.5305   175.8891     0.1108   127.0077     2.7833     6.7648     6.7237     2.6898  2613.0000     0.0000     0.2095     0.5294     0.0000     0.0000     0.0685     0.1926     0.0000
   4483.5000     6.1622     6.2003   670.4730    94.4001    -0.5688     6.6167     6.5843     0.0813     0.1058     0.0429     3.4268     0.2041     0.0366     0.0043    44.8209    -0.5675     1.0118   288.6478   127.2578    49.0650    49.0229    -0.4929   176.2865     0.1108   127.4140     2.7833     6.7573     6.7237     2.1519  2489.0000     0.0000     0.2095     0.5294     0.0000     0.0000     0.0685     0.1926     0.0000
   4484.0000     5.0911     5.0951   587.9970    94.4001    -1.6569     6.6687     6.6385     0.0813     0.1058     0.0429     3.4268     0.2041     0.0366     0.0043    44.8209    -0.5240     1.0118   288.6478   127.2644    49.0547    49.0229    -0.4552   176.3227     0.1108   127.4606     2.7833     6.7546     6.7237     1.6139  2355.0000     0.0000     0.2095     0.5294     0.0000     0.0000     0.0685     0.1926     0.0000
   4484.5000     5.0195     4.9941   515.1195    94.4001    -1.7432     6.6668     6.6429     0.0813     0.1058     0.0429     3.4268     0.2041     0.0366     0.0043    44.8209    -0.4804     1.0118   288.6478   127.2710    49.0457    49.0229    -0.4172   176.3471     0.1108   127.4936     2.7833     6.7481     6.7237     1.0759  2228.0000     0.0000     0.2095     0.5294     0.0000     0.0000     0.0685     0.1926     0.0000
   4485.0000     5.0134     4.9947   437.2650    94.4001    -1.7460     6.6619     6.6430     0.0813     0.1058     0.0429     3.4268     0.2041     0.0366     0.0043    44.8209    -0.4367     1.0118   288.6478   127.2776    49.0453    49.0229    -0.3793   176.3665     0.1108   127.5131     2.7833     6.7430     6.7237     0.5380  2099.0000     0.0000     0.2095     0.5294     0.0000     0.0000     0.0685     0.1926     0.0000
   4485.5000     5.0180     4.9868   359.4105    94.4001    -1.7476     6.6565     6.6432     0.0813     0.1058     0.0429     3.4268     0.2041     0.0366     0.0043    44.8209    -0.3930     1.0118   288.6478   127.2842    49.0451    49.0229    -0.3414   176.3829     0.1108   127.5294     2.7833     6.7373     6.7237     0.0000  1980.0000     0.0000     0.2095     0.5294     0.0000     0.0000     0.0685     0.1926     0.0000
   4486.0000     5.0170     4.9932   296.1315    94.4001    -1.7449     6.6543     6.6430     0.0813     0.1058     0.0429     3.4268     0.2041     0.0366     0.0043    44.8209    -0.3494     1.0118   288.6478   127.2908    49.0357    49.0229    -0.3034   176.4026     0.1108   127.5586     2.7833     6.7353     6.7237     0.0000  1849.0000     0.0000     0.2095     0.5294     0.0000     0.0000     0.0685     0.1926     0.0000
   4486.5000     5.0134     4.9916   223.2540    94.4001    -1.7475     6.6503     6.6431     0.0813     0.1058     0.0429     3.4268     0.2041     0.0366     0.0043    44.8209    -0.3057     1.0118   288.6478   127.2974    49.0320    49.0229    -0.2655   176.4136     0.1108   127.5730     2.7833     6.7311     6.7237     0.0000  1710.0000     0.0000     0.2095     0.5294     0.0000     0.0000     0.0685     0.1926     0.0000
   4487.0000     5.0118     4.9880   155.3535    94.4001    -1.7501     6.6470     6.6433     0.0813     0.1058     0.0429     3.4268     0.2041     0.0366     0.0043    44.8209    -0.2620     1.0118   288.6478   127.3040    49.0296    49.0229    -0.2276   176.4228     0.1108   127.5844     2.7833     6.7275     6.7237     0.0000  1600.0000     0.0000     0.2095     0.5294     0.0000     0.0000     0.0685     0.1926     0.0000
   4487.5000     5.0118     4.9880    97.0515    94.4001    -1.7501     6.6437     6.6433     0.0813     0.1058     0.0429     3.4268     0.2041     0.0366     0.0043    44.8209    -0.2184     1.0118   288.6478   127.3107    49.0275    49.0229    -0.1897   176.4310     0.1108   127.5945     2.7833     6.7242     6.7237     0.0000  1490.0000     0.0000     0.2095     0.5294     0.0000     0.0000     0.0685     0.1926     0.0000
   4488.0000     5.0118     4.9880    97.0515    94.4001    -1.7501     6.6436     6.6433     0.0813     0.1058     0.0429     3.4268     0.2041     0.0366     0.0043    44.8209    -0.1747     1.0118   288.6478   127.3173    49.0274    49.0229    -0.1517   176.4312     0.1108   127.5949     2.7833     6.7241     6.7237     0.0000  1470.0000     0.0000     0.2095     0.5294     0.0000     0.0000     0.0685     0.1926     0.0000
   4488.5000     5.0118     4.9880    97.0515    94.4001    -1.7501     6.6436     6.6433     0.0813     0.1058     0.0429     3.4268     0.2041     0.0366     0.0043    44.8209    -0.1310     1.0118   288.6478   127.3239    49.0256    49.0229    -0.1138   176.4316     0.1108   127.5970     2.7833     6.7240     6.7237     0.0000  1477.0000     0.0000     0.2095     0.5294     0.0000     0.0000     0.0685     0.1926     0.0000
   4489.0000     5.0118     4.9880    97.0515    94.4001    -1.7501     6.6435     6.6433     0.0813     0.1058     0.0429     3.4268     0.2041     0.0366     0.0043    44.8209    -0.0873     1.0118   288.6478   127.3305    49.0240    49.0229    -0.0759   176.4319     0.1108   127.5990     2.7833     6.7239     6.7237     0.0000  1459.0000     0.0000     0.2095     0.5294     0.0000     0.0000     0.0685     0.1926     0.0000
   4489.5000     5.0118     4.9880    97.0515    94.4001    -1.7501     6.6434     6.6433     0.0813     0.1058     0.0429     3.4268     0.2041     0.0366     0.0043    44.8209    -0.0437     1.0118   288.6478   127.3371    49.0229    49.0229    -0.0379   176.4320     0.1108   127.6001     2.7833     6.7239     6.7237     0.0000  1459.0000     0.0000     0.2095     0.5294     0.0000     0.0000     0.0685     0.1926     0.0000
   4490.0000     5.0118     4.9880    97.0515    94.4001    -1.7501     6.6433     6.6433     0.0813     0.1058     0.0429     3.4268     0.2041     0.0366     0.0043    44.8209     0.0000     1.0118   288.6478   127.3437    49.0229    49.0229     0.0000   176.4319     0.1108   127.6000     2.7833     6.7237     6.7237     0.0000  1459.0000     0.0000     0.2095     0.5294     0.0000     0.0000     0.0685     0.1926     0.0000
