~VERSION INFORMATION
VERS.           1.2   :CWLS Log ASCII Standard - VERSION 1.2
WRAP.           NO    :One Line per depth step
PROD.  Schlumberger   :LAS Producer
PROG.  DLIS to ASCII 17C0-152                          :LAS Program name and version
CREA.        2011/10/27 17:25                          :LAS Creation date {YYYY/MM/DD hh:mm}
DLIS_CREA.  2011-Oct-27 07:17                          :DLIS Creation date and time {YYYY-MMM-DD hh:mm}
SOURCE.     79519d1b-f2ac-4620-a9ab-fbce0bbece67       :DLIS File Name
#--------------------------------------------------
~WELL INFORMATION
#MNEM.UNIT      DATA             DESCRIPTION
#---- ------ --------------   -----------------------------
STRT .F      3722.5000       :START DEPTH     
STOP .F      4490.0000       :STOP DEPTH     
STEP .F       0.5000         :STEP       
NULL .          -999.25      :NULL VALUE
COMP .                 COMPANY:  SWEPI LP                           
WELL .                    WELL:  Harper Hill 2-29                   
FLD  .                   FIELD:  Swan                               
LOC  .                LOCATION:                                     
CNTY .                  COUNTY:  Moffat                             
STAT .                   STATE:  Colorado                           
CTRY .                 COUNTRY:                                     
SRVC .         SERVICE COMPANY:  Schlumberger                       
API  .              API NUMBER:  05-0081-07659                      
DATE .                LOG DATE:  26-Oct-2011
UWI  .          UNIQUE WELL ID:                                     
#-----------------------------------------------------------------------------
~PARAMETER INFORMATION
#MNEM.UNIT    VALUE                      DESCRIPTION
#---- -----   --------------------       ------------------------
CN   .        SWEPI LP                   :Company Name
WN   .        Harper Hill 2-29           :Well Name
FN   .        Swan                       :Field Name
FL   .                                   :Field Location
FL1  .                                   :Field Location Line 1
COUN .        Moffat                     :County or Rig Name
STAT .        Colorado                   :State or Province
NATI .                                   :Nation
DATE .        26-Oct-2011                :Date as Month-Day-Year
APIN .        05-0081-07659              :API Serial Number
SECT .        29                         :Section
TOWN .        5N                         :Township
RANG .        90W                        :Range
DMF  .        Kelly Bushing              :Drilling Measured From
LMF  .        Kelly Bushing              :Log Measured From
PDAT .        Ground Level               :Permanent Datum
ENGI .        Mark Kast                  :Engineer's Name
WITN .        Tony                       :Witness's Name
LATI .                                   :Latitude
LONG .                                   :Longitude
LUL  .        Rock Springs               :Logging Unit Location
LUN  .              2271                 :Logging Unit Number
RUN  .        Two                        :Run Number
SON  .                                   :Service Order Number
BHT  .DEGF     127.00000                 :Bottom Hole Temperature (used in calculations)
BS   .IN         6.75000                 :Bit Size
DFD  .LB/G       7.90000                 :Drilling Fluid Density
DFV  .S         44.00000                 :Drilling Fluid Viscosity
DFL  .C3        16.60000                 :Drilling Fluid Loss
RMFS .                                   :Resistivity of Mud Filtrate Sample
EKB  .F       6597.00000                 :Elevation of Kelly Bushing
EGL  .F       6585.00000                 :Elevation of Ground Level
BLI  .                                   :Bottom Log Interval
BSAL .PPM     44500.00000                :Borehole Salinity
FLEV .                                   :Fluid Level
MCST .                                   :Mud Cake Sample Temperature
MFST .                                   :Mud Filtrate Sample Temperature
MRT  .DEGF     127.00000                 :Maximum Recorded Temperature
MST  .                                   :Mud Sample Temperature
RMCS .                                   :Resistivity of Mud Cake Sample
RMS  .                                   :Resistivity of Mud Sample
RW   .OHMM       1.00000                 :Resistivity of Connate Water
TDD  .F       4480.00000                 :Total Depth - Driller
TDL  .F       4482.00000                 :Total Depth - Logger
TLI  .                                   :Top Log Interval
HIDE .                                   :Header Identifier
MATR .        SAND                       :Rock Matrix for Neutron Porosity Corrections
DFT  .        OBM                        :Drilling Fluid Type
DFPH .                                   :Drilling Fluid PH
MCSS .        N/A                        :Mud Cake Sample Source
MFSS .        N/A                        :Mud Filtrate Sample Source
MSS  .        N/A                        :Mud Sample Source
OS1  .                                   :Other Services Line 1
OS2  .                                   :Other Services Line 2
OS3  .                                   :Other Services Line 3
OS4  .                                   :Other Services Line 4
OS5  .                                   :Other Services Line 5
R1   .                                   :Remark Line 1
R2   .                                   :Remark Line 2
R3   .                                   :Remark Line 3
R4   .                                   :Remark Line 4
R5   .                                   :Remark Line 5
R6   .                                   :Remark Line 6
R7   .                                   :Remark Line 7
R8   .                                   :Remark Line 8
TCS  .        20 00                      :Time Circulation Stopped
TLAB .                                   :Time Logger At Bottom
EPD  .F         6585.000000              :Elevation of Permanent Datum above Mean Sea Level
APD  .F          12.000000               :Elevation of Depth Reference (LMF) above Permanent Datum
#-----------------------------------------------------------------------------
~CURVE INFORMATION
#MNEM.UNIT   API CODE                                  DESCRIPTION
#---- -----  --------                                  -----------------------
DEPT .F                                                :DEPTH (BOREHOLE) {F12.4}
C1_OBMT.IN                                             :OBMT Caliper 1 {F11.4}
C2_OBMT.IN                                             :OBMT Caliper 2 {F11.4}
CDF  .LBF                                              :Calibrated Downhole Force {F11.4}
CTEM .DEGF                                             :Cartridge Temperature {F11.4}
DCAL .IN                                               :Differential Caliper {F11.4}
DEVI .DEG                                              :Hole Deviation {F11.4}
DEVIM.DEG                                              :Memorized Deviation {F11.4}
DWAL_WALK2.                                            :Dry Weight Fraction Pseudo Aluminum (SpectroLith WALK2 Model) {F11.4}
DWCA_WALK2.                                            :Dry Weight Fraction Calcium (SpectroLith WALK2 Model) {F11.4}
DWFE_WALK2.                                            :Dry Weight Fraction Iron + 0.14 Aluminum (SpectroLith WALK2 Model) {F11.4}
DWGD_WALK2.PPM                                         :Dry Weight Fraction Gadolinium (SpectroLith WALK2 Model) {F11.4}
DWSI_WALK2.                                            :Dry Weight Fraction Silicon (SpectroLith WALK2 Model) {F11.4}
DWSU_WALK2.                                            :Dry Weight Fraction Sulfur (SpectroLith WALK2 Model) {F11.4}
DWTI_WALK2.                                            :Dry Weight Fraction Titanium (SpectroLith WALK2 Model) {F11.4}
ECST .DEGF                                             :ECS Temperature {F11.4}
ED   .F                                                :East Departure {F11.4}
ESUF_WALK2.                                            :Elemental Statistical Uncertainty Factor (SpectroLith WALK2 Model) {F11.4}
GR_EDTC.GAPI                                           :EDTC Gamma Ray {F11.4}
GTEM .DEGF                                             :Generalized Borehole Temperature {F11.4}
HAZI .DEG                                              :Hole Azimuth {F11.4}
HAZIM.DEG                                              :Hole Azimuth {F11.4}
ND   .F                                                :North Departure {F11.4}
P1AZ .DEG                                              :Pad 1 Azimuth {F11.4}
QCPMT.                                                 :Photomultiplier Tube Quality Control {F11.4}
RB   .DEG                                              :Relative Bearing {F11.4}
RHGE_WALK2.G/C3                                        :Matrix Density from Elemental Concentrations (SpectroLith WALK2 Model) {F11.4}
SDEV .DEG                                              :Sonde Deviation {F11.4}
SDEVM.DEG                                              :Sonde Deviation {F11.4}
STIT .F                                                :Stuck Tool Indicator, Total {F11.4}
TENS .LBF                                              :Cable Tension {F11.4}
WANH_WALK2.                                            :Dry Weight Fraction Anhydrite/Gypsum (SpectroLith WALK2 Model) {F11.4}
WCAR_WALK2.                                            :Dry Weight Fraction Carbonate (SpectroLith WALK2 Model) {F11.4}
WCLA_WALK2.                                            :Dry Weight Fraction Clay (SpectroLith WALK2 Model) {F11.4}
WCOA_WALK2.                                            :Dry Weight Fraction Coal (SpectroLith WALK2 Model) {F11.4}
WEVA_WALK2.                                            :Dry Weight Fraction Salt (SpectroLith WALK2 Model) {F11.4}
WPYR_WALK2.                                            :Dry Weight Fraction Pyrite (SpectroLith WALK2 Model) {F11.4}
WQFM_WALK2.                                            :Dry Weight Fraction Quartz+Feldspar+Mica (QFM) (SpectroLith WALK2 Model) {F11.4}
WSID_WALK2.                                            :Dry Weight Fraction Siderite (SpectroLith WALK2 Model) {F11.4}
#-----------------------------------------------------------------------------
# 
#      DEPT      C1_OBMT    C2_OBMT      CDF        CTEM       DCAL       DEVI      DEVIM    DWAL_WALK2 DWCA_WALK2 DWFE_WALK2 DWGD_WALK2 DWSI_WALK2 DWSU_WALK2 DWTI_WALK2    ECST        ED     ESUF_WALK2  GR_EDTC      GTEM       HAZI      HAZIM        ND        P1AZ      QCPMT        RB     RHGE_WALK2    SDEV      SDEVM       STIT       TENS    WANH_WALK2 WCAR_WALK2 WCLA_WALK2 WCOA_WALK2 WEVA_WALK2 WPYR_WALK2 WQFM_WALK2 WSID_WALK2
#
~A  
# ...
   4435.0000     7.2637     7.3059  1044.8146    95.5477     0.5348     6.7104     6.7006     0.0557     0.0658     0.0327     7.9431     0.2917     0.0000     0.0033    44.8209    -4.8247     0.6382   164.4253   126.6168    50.9683    50.7013    -4.1114   208.5306     0.1964   157.7095     2.7145     6.9127     6.9023     0.0000  3089.0000     0.0000     0.1019     0.3046     0.0000     0.0000     0.0000     0.5935     0.0000
   4435.5000     7.2672     7.3059  1073.9656    95.1498     0.5365     6.7176     6.7112     0.0613     0.0435     0.0358     5.7900     0.3081     0.0000     0.0043    44.8209    -4.7796     0.6840   172.0831   126.6234    50.9529    50.6558    -4.0744   208.2505     0.0422   157.4463     2.7162     6.9204     6.9137     0.0000  3044.0000     0.0000     0.0420     0.3534     0.0000     0.0000     0.0000     0.6046     0.0000
   4436.0000     7.2741     7.3008  1044.8146    94.4660     0.5374     6.7154     6.6996     0.0646     0.0401     0.0377     6.8740     0.3061     0.0000     0.0044    45.9914    -4.7344     0.7283   176.3373   126.6300    50.9571    50.6549    -4.0374   208.2011     0.1601   157.3930     2.7193     6.9184     6.9017     0.0000  3011.0000     0.0000     0.0329     0.3826     0.0000     0.0000     0.0000     0.5845     0.0000
   4436.5000     7.2741     7.2939  1044.8146    94.4001     0.5340     6.7116     6.6990     0.0618     0.0472     0.0362     9.6939     0.3026     0.0000     0.0040    45.6012    -4.6893     0.7226   182.4614   126.6366    50.9521    50.6461    -4.0004   208.1772     0.9044   157.3739     2.7177     6.9143     6.9010     0.0000  3079.0000     0.0000     0.0520     0.3585     0.0000     0.0000     0.0000     0.5895     0.0000
   4437.0000     7.2776     7.2939  1068.9885    94.4001     0.5357     6.7078     6.7055     0.0572     0.0634     0.0339    10.7944     0.2916     0.0000     0.0025    44.8209    -4.6442     0.6676   180.2339   126.6432    50.9646    50.6175    -3.9634   208.1648     0.5996   157.3490     2.7163     6.9105     6.9080     0.0000  3077.0000     0.0000     0.0955     0.3176     0.0000     0.0000     0.0000     0.5869     0.0000
   4437.5000     7.2724     7.2991  1044.8146    94.4001     0.5357     6.7191     6.6972     0.0565     0.0571     0.0336     6.7556     0.3000     0.0000     0.0023    44.8209    -4.5991     0.6431   175.0936   126.6498    50.9295    50.6163    -3.9264   208.2436     0.2631   157.4629     2.7147     6.9221     6.8992     0.0000  2984.0000     0.0000     0.0787     0.3118     0.0000     0.0000     0.0000     0.6096     0.0000
   4438.0000     7.2897     7.3421  1030.2390    94.4001     0.5658     6.7114     6.6970     0.0586     0.0501     0.0347     2.8685     0.3047     0.0000     0.0029    44.0405    -4.5541     0.6125   170.8690   126.6564    50.9342    50.5820    -3.8893   208.4038     0.2137   157.6174     2.7154     6.9152     6.9000     0.0000  3062.0000     0.0000     0.0599     0.3300     0.0000     0.0000     0.0000     0.6102     0.0000
   4438.5000     7.2637     7.3059  1073.9656    94.4001     0.5348     6.7123     6.7005     0.0623     0.0366     0.0362     0.7182     0.3145     0.0013     0.0044    43.6503    -4.5090     0.5915   171.5676   126.6630    50.9549    50.5613    -3.8523   208.9768     0.3735   158.1666     2.7174     6.9146     6.9022     0.0000  3107.0000     0.0000     0.0235     0.3625     0.0000     0.0000     0.0025     0.6115     0.0000
   4439.0000     7.2342     7.2655  1039.8375    94.4001     0.4999     6.7206     6.6953     0.0637     0.0356     0.0367     3.0169     0.3135     0.0000     0.0057    44.2356    -4.4640     0.6044   174.5145   126.6696    50.9391    50.5557    -3.8153   209.0349     0.2600   158.2404     2.7166     6.9216     6.8951     0.0000  3019.0000     0.0000     0.0207     0.3746     0.0000     0.0000     0.0000     0.6047     0.0000
   4439.5000     7.2351     7.2612  1020.2850    94.4001     0.4982     6.7133     6.6971     0.0622     0.0462     0.0359     5.9239     0.3037     0.0000     0.0054    44.8209    -4.4189     0.5656   171.2511   126.6762    50.9646    50.5563    -3.7782   208.9934     0.1168   158.1736     2.7169     6.9140     6.8970     0.0000  2961.0000     0.0000     0.0492     0.3615     0.0000     0.0000     0.0000     0.5893     0.0000
   4440.0000     7.2404     7.2578  1083.5641    94.4001     0.4991     6.7145     6.7039     0.0595     0.0662     0.0344     7.0021     0.2850     0.0020     0.0043    44.8209    -4.3739     0.5201   174.7078   126.6829    50.9534    50.5156    -3.7411   209.0038     0.0804   158.1950     2.7200     6.9155     6.9044     0.0000  3124.0000     0.0000     0.1032     0.3380     0.0000     0.0000     0.0038     0.5551     0.0000
   4440.5000     7.2689     7.2836  1083.5641    94.4001     0.5262     6.7163     6.6942     0.0583     0.0873     0.0341     7.2090     0.2621     0.0024     0.0029    44.8209    -4.3289     0.4715   172.4632   126.6895    50.9480    50.5137    -3.7040   209.2345     0.0000   158.4300     2.7236     6.9189     6.8957     0.0000  3088.0000     0.0000     0.1599     0.3275     0.0000     0.0000     0.0044     0.5082     0.0000
   4441.0000     7.2654     7.2991  1030.2390    94.4001     0.5322     6.7137     6.6897     0.0580     0.0967     0.0344     7.9549     0.2512     0.0000     0.0026    45.6988    -4.2839     0.4724   176.0519   126.6961    50.9555    50.5060    -3.6670   209.1235     0.1216   158.3121     2.7229     6.9161     6.8909     0.0000  2925.0000     0.0000     0.1851     0.3251     0.0000     0.0000     0.0000     0.4898     0.0000
   4441.5000     7.2637     7.3042   996.1110    94.4001     0.5339     6.7135     6.6967     0.0577     0.1009     0.0344     8.8861     0.2466     0.0000     0.0022    45.1135    -4.2390     0.4833   176.0873   126.7027    50.9338    50.4730    -3.6299   209.1450     0.7683   158.3550     2.7236     6.9159     6.8983     0.0000  2986.0000     0.0000     0.1965     0.3224     0.0000     0.0000     0.0000     0.4811     0.0000
   4442.0000     7.2663     7.3042  1093.1626    94.4001     0.5352     6.7192     6.6972     0.0565     0.0860     0.0336     8.3609     0.2663     0.0000     0.0024    44.8209    -4.1940     0.5128   179.7687   126.7093    50.9113    50.4459    -3.5928   208.3521     0.8128   157.5888     2.7195     6.9219     6.8989     0.0000  3155.0000     0.0000     0.1563     0.3120     0.0000     0.0000     0.0000     0.5317     0.0000
   4442.5000     7.2724     7.3016  1088.5410    94.4001     0.5370     6.7087     6.6859     0.0552     0.0673     0.0327     7.4808     0.2907     0.0000     0.0026    44.8209    -4.1491     0.5238   178.9846   126.7159    50.9364    50.4449    -3.5557   207.7921     0.5350   157.0063     2.7147     6.9112     6.8873     0.0000  3026.0000     0.0000     0.1060     0.3000     0.0000     0.0000     0.0000     0.5940     0.0000
   4443.0000     7.2741     7.2939  1039.8375    94.4001     0.5340     6.7114     6.6915     0.0571     0.0451     0.0335     6.9963     0.3134     0.0000     0.0035    45.6988    -4.1042     0.5382   173.4728   126.7225    50.9121    50.4253    -3.5186   207.7365     0.6722   156.9752     2.7125     6.9141     6.8932     0.0000  2952.0000     0.0000     0.0463     0.3173     0.0000     0.0000     0.0000     0.6364     0.0000
   4443.5000     7.2654     7.2750  1068.9885    94.4001     0.5202     6.7148     6.6909     0.0582     0.0346     0.0339     7.7333     0.3240     0.0000     0.0043    45.1135    -4.0593     0.5561   174.0790   126.7291    50.9020    50.4045    -3.4815   207.5693     0.2323   156.8192     2.7112     6.9171     6.8920     0.0000  3100.0000     0.0000     0.0181     0.3264     0.0000     0.0000     0.0000     0.6555     0.0000
   4444.0000     7.2498     7.2913  1064.0116    94.4001     0.5206     6.7150     6.6825     0.0594     0.0356     0.0343     7.7144     0.3209     0.0000     0.0051    44.8209    -4.0144     0.5814   175.4322   126.7357    50.8854    50.3992    -3.4444   207.3930     0.3404   156.6602     2.7122     6.9167     6.8826     0.0000  2993.0000     0.0000     0.0208     0.3373     0.0000     0.0000     0.0000     0.6420     0.0000
