~VERSION INFORMATION
VERS.           1.2   :CWLS Log ASCII Standard - VERSION 1.2
WRAP.           NO    :One Line per depth step
PROD.  Schlumberger   :LAS Producer
PROG.  DLIS to ASCII 17C0-152                          :LAS Program name and version
CREA.        2011/10/27 17:25                          :LAS Creation date {YYYY/MM/DD hh:mm}
DLIS_CREA.  2011-Oct-27 07:30                          :DLIS Creation date and time {YYYY-MMM-DD hh:mm}
SOURCE.     9895fb31-02c7-4189-bf8e-52df0b775dd1       :DLIS File Name
#--------------------------------------------------
~WELL INFORMATION
#MNEM.UNIT      DATA             DESCRIPTION
#---- ------ --------------   -----------------------------
STRT .F      3344.0000       :START DEPTH     
STOP .F      3862.5000       :STOP DEPTH     
STEP .F       0.5000         :STEP       
NULL .          -999.25      :NULL VALUE
COMP .                 COMPANY:  SWEPI LP                           
WELL .                    WELL:  Harper Hill 2-29                   
FLD  .                   FIELD:  Swan                               
LOC  .                LOCATION:                                     
CNTY .                  COUNTY:  Moffat                             
STAT .                   STATE:  Colorado                           
CTRY .                 COUNTRY:                                     
SRVC .         SERVICE COMPANY:  Schlumberger                       
API  .              API NUMBER:  05-0081-07659                      
DATE .                LOG DATE:  26-Oct-2011
UWI  .          UNIQUE WELL ID:                                     
#-----------------------------------------------------------------------------
~PARAMETER INFORMATION
#MNEM.UNIT    VALUE                      DESCRIPTION
#---- -----   --------------------       ------------------------
CN   .        SWEPI LP                   :Company Name
WN   .        Harper Hill 2-29           :Well Name
FN   .        Swan                       :Field Name
FL   .                                   :Field Location
FL1  .                                   :Field Location Line 1
COUN .        Moffat                     :County or Rig Name
STAT .        Colorado                   :State or Province
NATI .                                   :Nation
DATE .        26-Oct-2011                :Date as Month-Day-Year
APIN .        05-0081-07659              :API Serial Number
SECT .        29                         :Section
TOWN .        5N                         :Township
RANG .        90W                        :Range
DMF  .        Kelly Bushing              :Drilling Measured From
LMF  .        Kelly Bushing              :Log Measured From
PDAT .        Ground Level               :Permanent Datum
ENGI .        Mark Kast                  :Engineer's Name
WITN .        Tony                       :Witness's Name
LATI .                                   :Latitude
LONG .                                   :Longitude
LUL  .        Rock Springs               :Logging Unit Location
LUN  .              2271                 :Logging Unit Number
RUN  .        Two                        :Run Number
SON  .                                   :Service Order Number
BHT  .DEGF     127.00000                 :Bottom Hole Temperature (used in calculations)
BS   .IN         6.75000                 :Bit Size
DFD  .LB/G       7.90000                 :Drilling Fluid Density
DFV  .S         44.00000                 :Drilling Fluid Viscosity
DFL  .C3        16.60000                 :Drilling Fluid Loss
RMFS .                                   :Resistivity of Mud Filtrate Sample
EKB  .F       6597.00000                 :Elevation of Kelly Bushing
EGL  .F       6585.00000                 :Elevation of Ground Level
BLI  .                                   :Bottom Log Interval
BSAL .PPM     44500.00000                :Borehole Salinity
FLEV .                                   :Fluid Level
MCST .                                   :Mud Cake Sample Temperature
MFST .                                   :Mud Filtrate Sample Temperature
MRT  .DEGF     127.00000                 :Maximum Recorded Temperature
MST  .                                   :Mud Sample Temperature
RMCS .                                   :Resistivity of Mud Cake Sample
RMS  .                                   :Resistivity of Mud Sample
RW   .OHMM       1.00000                 :Resistivity of Connate Water
TDD  .F       4480.00000                 :Total Depth - Driller
TDL  .F       4482.00000                 :Total Depth - Logger
TLI  .                                   :Top Log Interval
HIDE .                                   :Header Identifier
MATR .        SAND                       :Rock Matrix for Neutron Porosity Corrections
DFT  .        OBM                        :Drilling Fluid Type
DFPH .                                   :Drilling Fluid PH
MCSS .        N/A                        :Mud Cake Sample Source
MFSS .        N/A                        :Mud Filtrate Sample Source
MSS  .        N/A                        :Mud Sample Source
OS1  .                                   :Other Services Line 1
OS2  .                                   :Other Services Line 2
OS3  .                                   :Other Services Line 3
OS4  .                                   :Other Services Line 4
OS5  .                                   :Other Services Line 5
R1   .                                   :Remark Line 1
R2   .                                   :Remark Line 2
R3   .                                   :Remark Line 3
R4   .                                   :Remark Line 4
R5   .                                   :Remark Line 5
R6   .                                   :Remark Line 6
R7   .                                   :Remark Line 7
R8   .                                   :Remark Line 8
TCS  .        20 00                      :Time Circulation Stopped
TLAB .                                   :Time Logger At Bottom
EPD  .F         6585.000000              :Elevation of Permanent Datum above Mean Sea Level
APD  .F          12.000000               :Elevation of Depth Reference (LMF) above Permanent Datum
#-----------------------------------------------------------------------------
~CURVE INFORMATION
#MNEM.UNIT   API CODE                                  DESCRIPTION
#---- -----  --------                                  -----------------------
DEPT .F                                                :DEPTH (BOREHOLE) {F12.4}
C1_OBMT.IN                                             :OBMT Caliper 1 {F11.4}
C2_OBMT.IN                                             :OBMT Caliper 2 {F11.4}
CDF  .LBF                                              :Calibrated Downhole Force {F11.4}
CTEM .DEGF                                             :Cartridge Temperature {F11.4}
DCAL .IN                                               :Differential Caliper {F11.4}
DEVI .DEG                                              :Hole Deviation {F11.4}
DEVIM.DEG                                              :Memorized Deviation {F11.4}
DWAL_WALK2.                                            :Dry Weight Fraction Pseudo Aluminum (SpectroLith WALK2 Model) {F11.4}
DWCA_WALK2.                                            :Dry Weight Fraction Calcium (SpectroLith WALK2 Model) {F11.4}
DWFE_WALK2.                                            :Dry Weight Fraction Iron + 0.14 Aluminum (SpectroLith WALK2 Model) {F11.4}
DWGD_WALK2.PPM                                         :Dry Weight Fraction Gadolinium (SpectroLith WALK2 Model) {F11.4}
DWSI_WALK2.                                            :Dry Weight Fraction Silicon (SpectroLith WALK2 Model) {F11.4}
DWSU_WALK2.                                            :Dry Weight Fraction Sulfur (SpectroLith WALK2 Model) {F11.4}
DWTI_WALK2.                                            :Dry Weight Fraction Titanium (SpectroLith WALK2 Model) {F11.4}
ECST .DEGF                                             :ECS Temperature {F11.4}
ED   .F                                                :East Departure {F11.4}
ESUF_WALK2.                                            :Elemental Statistical Uncertainty Factor (SpectroLith WALK2 Model) {F11.4}
GR_EDTC.GAPI                                           :EDTC Gamma Ray {F11.4}
GTEM .DEGF                                             :Generalized Borehole Temperature {F11.4}
HAZI .DEG                                              :Hole Azimuth {F11.4}
HAZIM.DEG                                              :Hole Azimuth {F11.4}
ND   .F                                                :North Departure {F11.4}
P1AZ .DEG                                              :Pad 1 Azimuth {F11.4}
QCPMT.                                                 :Photomultiplier Tube Quality Control {F11.4}
RB   .DEG                                              :Relative Bearing {F11.4}
RHGE_WALK2.G/C3                                        :Matrix Density from Elemental Concentrations (SpectroLith WALK2 Model) {F11.4}
SDEV .DEG                                              :Sonde Deviation {F11.4}
SDEVM.DEG                                              :Sonde Deviation {F11.4}
STIT .F                                                :Stuck Tool Indicator, Total {F11.4}
TENS .LBF                                              :Cable Tension {F11.4}
WANH_WALK2.                                            :Dry Weight Fraction Anhydrite/Gypsum (SpectroLith WALK2 Model) {F11.4}
WCAR_WALK2.                                            :Dry Weight Fraction Carbonate (SpectroLith WALK2 Model) {F11.4}
WCLA_WALK2.                                            :Dry Weight Fraction Clay (SpectroLith WALK2 Model) {F11.4}
WCOA_WALK2.                                            :Dry Weight Fraction Coal (SpectroLith WALK2 Model) {F11.4}
WEVA_WALK2.                                            :Dry Weight Fraction Salt (SpectroLith WALK2 Model) {F11.4}
WPYR_WALK2.                                            :Dry Weight Fraction Pyrite (SpectroLith WALK2 Model) {F11.4}
WQFM_WALK2.                                            :Dry Weight Fraction Quartz+Feldspar+Mica (QFM) (SpectroLith WALK2 Model) {F11.4}
WSID_WALK2.                                            :Dry Weight Fraction Siderite (SpectroLith WALK2 Model) {F11.4}
#-----------------------------------------------------------------------------
# 
#      DEPT      C1_OBMT    C2_OBMT      CDF        CTEM       DCAL       DEVI      DEVIM    DWAL_WALK2 DWCA_WALK2 DWFE_WALK2 DWGD_WALK2 DWSI_WALK2 DWSU_WALK2 DWTI_WALK2    ECST        ED     ESUF_WALK2  GR_EDTC      GTEM       HAZI      HAZIM        ND        P1AZ      QCPMT        RB     RHGE_WALK2    SDEV      SDEVM       STIT       TENS    WANH_WALK2 WCAR_WALK2 WCLA_WALK2 WCOA_WALK2 WEVA_WALK2 WPYR_WALK2 WQFM_WALK2 WSID_WALK2
#
~A  
# ...
   3790.5000     7.2014     7.2630  1030.2390   122.0707     0.4821     4.8090     6.0837     0.0512     0.1033     0.0295    11.0492     0.2566     0.0004     0.0043    48.3325    -8.7253     0.7755   141.6004   118.0985    97.2190    88.5782    -1.2825   359.1386     0.3152   261.8902     2.7154     4.9207     6.2545     0.0000  2532.0000     0.0000     0.2028     0.2646     0.0000     0.0000     0.0008     0.5318     0.0000
   3791.0000     7.2196     7.2604   942.4305   122.0707     0.4900     4.8571     6.1022     0.0449     0.1180     0.0262    10.1886     0.2501     0.0011     0.0027    48.3325    -8.6723     0.7641   141.7716   118.1051    96.9200    88.4169    -1.2811   359.0420     0.7862   262.0925     2.7127     4.9708     6.2737     0.0000  2365.0000     0.0000     0.2424     0.2096     0.0000     0.0000     0.0021     0.5459     0.0000
   3791.5000     7.2144     7.2621   952.3845   122.0707     0.4882     4.8867     6.1423     0.0423     0.1377     0.0252    10.8022     0.2314     0.0019     0.0011    49.1129    -8.6190     0.6963   151.1177   118.1117    96.6384    88.2179    -1.2795   359.2389     0.2066   262.5727     2.7150     5.0018     6.3159     0.0000  2468.0000     0.0000     0.2953     0.1867     0.0000     0.0000     0.0035     0.5144     0.0000
   3792.0000     7.2092     7.2681  1034.8606   122.0707     0.4886     4.9188     6.1873     0.0428     0.1447     0.0258     9.9841     0.2220     0.0000     0.0009    49.5030    -8.5653     0.6896   156.6841   118.1183    96.3593    88.0568    -1.2778   359.6664     0.7920   263.2814     2.7152     5.0355     6.3633     0.0000  2605.0000     0.0000     0.3141     0.1915     0.0000     0.0000     0.0000     0.4944     0.0000
   3792.5000     7.2300     7.2707   981.5355   122.0707     0.5003     4.9468     6.2152     0.0441     0.1476     0.0266    10.0810     0.2162     0.0000     0.0007    48.3325    -8.5113     0.6577   156.8782   118.1249    96.1384    87.9008    -1.2759   359.3828     0.6187   263.2181     2.7173     5.0648     6.3928     0.0000  2467.0000     0.0000     0.3221     0.2024     0.0000     0.0000     0.0000     0.4755     0.0000
   3793.0000     7.2387     7.2690   942.4305   122.0707     0.5038     4.9826     6.2533     0.0468     0.1347     0.0281     8.1287     0.2264     0.0000     0.0012    48.3325    -8.4571     0.6838   149.2415   118.1315    95.8182    87.7238    -1.2738   359.3238     0.4876   263.4800     2.7178     5.1021     6.4327     0.0000  2397.0000     0.0000     0.2874     0.2265     0.0000     0.0000     0.0000     0.4860     0.0000
   3793.5000     7.2369     7.2630  1025.2621   122.0707     0.4999     5.0135     6.2935     0.0495     0.1230     0.0296     7.1251     0.2356     0.0000     0.0017    48.3325    -8.4025     0.7286   152.7478   118.1382    95.5636    87.5640    -1.2716   359.6279     0.7456   264.0407     2.7184     5.1342     6.4746     0.0000  2592.0000     0.0000     0.2558     0.2499     0.0000     0.0000     0.0000     0.4943     0.0000
   3794.0000     7.2014     7.2604  1015.6635   122.0707     0.4808     5.0436     6.3238     0.0498     0.1072     0.0295     4.8866     0.2536     0.0000     0.0024    48.3325    -8.3476     0.8469   147.7843   118.1448    95.2811    87.3890    -1.2692   359.6748     0.0000   264.3709     2.7156     5.1655     6.5063     0.0000  2467.0000     0.0000     0.2134     0.2529     0.0000     0.0000     0.0000     0.5336     0.0000
   3794.5000     7.2282     7.2604   942.4305   122.0707     0.4943     5.0824     6.3617     0.0478     0.1202     0.0273     3.5653     0.2429     0.0065     0.0026    49.5030    -8.2924     0.8386   153.2792   118.1514    95.0350    87.2567    -1.2666   359.5393     0.0732   264.4816     2.7214     5.2061     6.5461     0.0000  2338.0000     0.0000     0.2484     0.2354     0.0000     0.0000     0.0122     0.5040     0.0000
   3795.0000     7.2300     7.2707   991.1340   122.0707     0.5003     5.1123     6.4067     0.0447     0.1301     0.0257     1.9614     0.2367     0.0037     0.0028    49.1129    -8.2369     0.7679   155.9204   118.1580    94.7705    87.1039    -1.2638   359.5620     0.0000   264.7697     2.7168     5.2377     6.5938     0.0000  2526.0000     0.0000     0.2750     0.2077     0.0000     0.0000     0.0069     0.5103     0.0000
   3795.5000     7.2325     7.2681  1044.8146   122.0707     0.5003     5.1473     6.4328     0.0446     0.1397     0.0256     3.7134     0.2257     0.0027     0.0032    48.3325    -8.1811     0.7363   163.9721   118.1646    94.5228    87.0110    -1.2610   359.6288     0.0019   265.0851     2.7171     5.2742     6.6211     0.0000  2605.0000     0.0000     0.3007     0.2074     0.0000     0.0000     0.0050     0.4869     0.0000
   3796.0000     7.2387     7.2656   981.5355   122.0707     0.5021     5.1762     6.4695     0.0452     0.1241     0.0262     5.2200     0.2426     0.0000     0.0038    47.7472    -8.1250     0.7580   170.2028   118.1712    94.2928    86.8355    -1.2580   359.7837     0.1331   265.4716     2.7123     5.3042     6.6594     0.0000  2465.0000     0.0000     0.2589     0.2126     0.0000     0.0000     0.0000     0.5285     0.0000
   3796.5000     7.2404     7.2604   966.9600   122.0707     0.5004     5.2086     6.5080     0.0461     0.1008     0.0263     9.9088     0.2685     0.0000     0.0047    47.1620    -8.0685     0.8213   162.0492   118.1778    94.0490    86.6664    -1.2548   359.8448     0.2146   265.7776     2.7086     5.3379     6.6996     0.0000  2420.0000     0.0000     0.1962     0.2205     0.0000     0.0000     0.0000     0.5833     0.0000
   3797.0000     7.2299     7.2578  1030.2390   122.0707     0.4938     5.2468     6.5394     0.0495     0.0752     0.0281    10.8203     0.2927     0.0000     0.0054    48.3325    -8.0118     0.8780   164.5561   118.1844    93.8206    86.5284    -1.2514     0.1183     0.8246   266.2814     2.7075     5.3778     6.7324     0.0000  2631.0000     0.0000     0.1273     0.2498     0.0000     0.0000     0.0000     0.6229     0.0000
   3797.5000     7.2109     7.2656  1020.2850   122.0707     0.4882     5.2804     6.5762     0.0496     0.0722     0.0281    13.0824     0.2959     0.0000     0.0057    49.5030    -7.9548     0.9351   158.9930   118.1910    93.5910    86.3935    -1.2479     0.0060     0.0000   266.3990     2.7069     5.4132     6.7715     0.0000  2520.0000     0.0000     0.1193     0.2514     0.0000     0.0000     0.0000     0.6293     0.0000
   3798.0000     7.2118     7.2690   961.9830   122.0707     0.4903     5.3052     6.6192     0.0522     0.0812     0.0294    11.0117     0.2812     0.0042     0.0048    48.7227    -7.8975     0.8281   162.1333   118.1976    93.3266    86.2333    -1.2442   359.8287     0.0000   266.4864     2.7159     5.4393     6.8168     0.0000  2400.0000     0.0000     0.1433     0.2734     0.0000     0.0000     0.0079     0.5753     0.0000
   3798.5000     7.2256     7.2681  1001.0880   122.0707     0.4968     5.3459     6.6596     0.0512     0.0919     0.0285    10.5541     0.2706     0.0091     0.0040    48.3325    -7.8398     0.7546   159.2094   118.2042    93.0900    86.0820    -1.2403     0.1342     0.0000   267.0305     2.7218     5.4818     6.8592     0.0000  2588.0000     0.0000     0.1723     0.2654     0.0000     0.0000     0.0170     0.5453     0.0000
   3799.0000     7.2170     7.2810  1020.2850   122.0707     0.4989     5.3890     6.6847     0.0555     0.0951     0.0311    10.1515     0.2594     0.0105     0.0034    48.3325    -7.7819     0.7211   160.9168   118.2108    92.8495    85.9655    -1.2363     0.1313     0.0000   267.2690     2.7289     5.5274     6.8862     0.0000  2542.0000     0.0000     0.1807     0.3026     0.0000     0.0000     0.0197     0.4971     0.0000
   3799.5000     7.2178     7.2604   976.5585   122.0707     0.4891     5.4076     6.7346     0.0560     0.1015     0.0318    10.5726     0.2505     0.0083     0.0033    48.3325    -7.7236     0.7270   156.7641   118.2175    92.6121    85.7990    -1.2321     0.3260     0.0152   267.7031     2.7286     5.5460     6.9375     0.0000  2433.0000     0.0000     0.1982     0.3074     0.0000     0.0000     0.0155     0.4789     0.0000
