~VERSION INFORMATION
VERS.           1.2   :CWLS Log ASCII Standard - VERSION 1.2
WRAP.           NO    :One Line per depth step
PROD.  Schlumberger   :LAS Producer
PROG.  DLIS to ASCII 17C0-152                          :LAS Program name and version
CREA.        2011/10/27 17:24                          :LAS Creation date {YYYY/MM/DD hh:mm}
DLIS_CREA.  2011-Oct-27 07:22                          :DLIS Creation date and time {YYYY-MMM-DD hh:mm}
SOURCE.     7e486f41-920f-449c-9fc4-a1d2576f3c93       :DLIS File Name
#--------------------------------------------------
~WELL INFORMATION
#MNEM.UNIT      DATA             DESCRIPTION
#---- ------ --------------   -----------------------------
STRT .F      3201.5000       :START DEPTH     
STOP .F      4055.0000       :STOP DEPTH     
STEP .F       0.5000         :STEP       
NULL .          -999.25      :NULL VALUE
COMP .                 COMPANY:  SWEPI LP                           
WELL .                    WELL:  Harper Hill 2-29                   
FLD  .                   FIELD:  Swan                               
LOC  .                LOCATION:                                     
CNTY .                  COUNTY:  Moffat                             
STAT .                   STATE:  Colorado                           
CTRY .                 COUNTRY:                                     
SRVC .         SERVICE COMPANY:  Schlumberger                       
API  .              API NUMBER:  05-0081-07659                      
DATE .                LOG DATE:  26-Oct-2011
UWI  .          UNIQUE WELL ID:                                     
#-----------------------------------------------------------------------------
~PARAMETER INFORMATION
#MNEM.UNIT    VALUE                      DESCRIPTION
#---- -----   --------------------       ------------------------
CN   .        SWEPI LP                   :Company Name
WN   .        Harper Hill 2-29           :Well Name
FN   .        Swan                       :Field Name
FL   .                                   :Field Location
FL1  .                                   :Field Location Line 1
COUN .        Moffat                     :County or Rig Name
STAT .        Colorado                   :State or Province
NATI .                                   :Nation
DATE .        26-Oct-2011                :Date as Month-Day-Year
APIN .        05-0081-07659              :API Serial Number
SECT .        29                         :Section
TOWN .        5N                         :Township
RANG .        90W                        :Range
DMF  .        Kelly Bushing              :Drilling Measured From
LMF  .        Kelly Bushing              :Log Measured From
PDAT .        Ground Level               :Permanent Datum
ENGI .        Mark Kast                  :Engineer's Name
WITN .        Tony                       :Witness's Name
LATI .                                   :Latitude
LONG .                                   :Longitude
LUL  .        Rock Springs               :Logging Unit Location
LUN  .              2271                 :Logging Unit Number
RUN  .        Two                        :Run Number
SON  .                                   :Service Order Number
BHT  .DEGF     127.00000                 :Bottom Hole Temperature (used in calculations)
BS   .IN         6.75000                 :Bit Size
DFD  .LB/G       7.90000                 :Drilling Fluid Density
DFV  .S         44.00000                 :Drilling Fluid Viscosity
DFL  .C3        16.60000                 :Drilling Fluid Loss
RMFS .                                   :Resistivity of Mud Filtrate Sample
EKB  .F       6597.00000                 :Elevation of Kelly Bushing
EGL  .F       6585.00000                 :Elevation of Ground Level
BLI  .                                   :Bottom Log Interval
BSAL .PPM     44500.00000                :Borehole Salinity
FLEV .                                   :Fluid Level
MCST .                                   :Mud Cake Sample Temperature
MFST .                                   :Mud Filtrate Sample Temperature
MRT  .DEGF     127.00000                 :Maximum Recorded Temperature
MST  .                                   :Mud Sample Temperature
RMCS .                                   :Resistivity of Mud Cake Sample
RMS  .                                   :Resistivity of Mud Sample
RW   .OHMM       1.00000                 :Resistivity of Connate Water
TDD  .F       4480.00000                 :Total Depth - Driller
TDL  .F       4482.00000                 :Total Depth - Logger
TLI  .                                   :Top Log Interval
HIDE .                                   :Header Identifier
MATR .        SAND                       :Rock Matrix for Neutron Porosity Corrections
DFT  .        OBM                        :Drilling Fluid Type
DFPH .                                   :Drilling Fluid PH
MCSS .        N/A                        :Mud Cake Sample Source
MFSS .        N/A                        :Mud Filtrate Sample Source
MSS  .        N/A                        :Mud Sample Source
OS1  .                                   :Other Services Line 1
OS2  .                                   :Other Services Line 2
OS3  .                                   :Other Services Line 3
OS4  .                                   :Other Services Line 4
OS5  .                                   :Other Services Line 5
R1   .                                   :Remark Line 1
R2   .                                   :Remark Line 2
R3   .                                   :Remark Line 3
R4   .                                   :Remark Line 4
R5   .                                   :Remark Line 5
R6   .                                   :Remark Line 6
R7   .                                   :Remark Line 7
R8   .                                   :Remark Line 8
TCS  .        20 00                      :Time Circulation Stopped
TLAB .                                   :Time Logger At Bottom
EPD  .F         6585.000000              :Elevation of Permanent Datum above Mean Sea Level
APD  .F          12.000000               :Elevation of Depth Reference (LMF) above Permanent Datum
#-----------------------------------------------------------------------------
~CURVE INFORMATION
#MNEM.UNIT   API CODE                                  DESCRIPTION
#---- -----  --------                                  -----------------------
DEPT .F                                                :DEPTH (BOREHOLE) {F12.4}
C1_OBMT.IN                                             :OBMT Caliper 1 {F11.4}
C2_OBMT.IN                                             :OBMT Caliper 2 {F11.4}
CDF  .LBF                                              :Calibrated Downhole Force {F11.4}
CTEM .DEGF                                             :Cartridge Temperature {F11.4}
DCAL .IN                                               :Differential Caliper {F11.4}
DEVI .DEG                                              :Hole Deviation {F11.4}
DEVIM.DEG                                              :Memorized Deviation {F11.4}
DWAL_WALK2.                                            :Dry Weight Fraction Pseudo Aluminum (SpectroLith WALK2 Model) {F11.4}
DWCA_WALK2.                                            :Dry Weight Fraction Calcium (SpectroLith WALK2 Model) {F11.4}
DWFE_WALK2.                                            :Dry Weight Fraction Iron + 0.14 Aluminum (SpectroLith WALK2 Model) {F11.4}
DWGD_WALK2.PPM                                         :Dry Weight Fraction Gadolinium (SpectroLith WALK2 Model) {F11.4}
DWSI_WALK2.                                            :Dry Weight Fraction Silicon (SpectroLith WALK2 Model) {F11.4}
DWSU_WALK2.                                            :Dry Weight Fraction Sulfur (SpectroLith WALK2 Model) {F11.4}
DWTI_WALK2.                                            :Dry Weight Fraction Titanium (SpectroLith WALK2 Model) {F11.4}
ECST .DEGF                                             :ECS Temperature {F11.4}
ED   .F                                                :East Departure {F11.4}
ESUF_WALK2.                                            :Elemental Statistical Uncertainty Factor (SpectroLith WALK2 Model) {F11.4}
GR_EDTC.GAPI                                           :EDTC Gamma Ray {F11.4}
GTEM .DEGF                                             :Generalized Borehole Temperature {F11.4}
HAZI .DEG                                              :Hole Azimuth {F11.4}
HAZIM.DEG                                              :Hole Azimuth {F11.4}
ND   .F                                                :North Departure {F11.4}
P1AZ .DEG                                              :Pad 1 Azimuth {F11.4}
QCPMT.                                                 :Photomultiplier Tube Quality Control {F11.4}
RB   .DEG                                              :Relative Bearing {F11.4}
RHGE_WALK2.G/C3                                        :Matrix Density from Elemental Concentrations (SpectroLith WALK2 Model) {F11.4}
SDEV .DEG                                              :Sonde Deviation {F11.4}
SDEVM.DEG                                              :Sonde Deviation {F11.4}
STIT .F                                                :Stuck Tool Indicator, Total {F11.4}
TENS .LBF                                              :Cable Tension {F11.4}
WANH_WALK2.                                            :Dry Weight Fraction Anhydrite/Gypsum (SpectroLith WALK2 Model) {F11.4}
WCAR_WALK2.                                            :Dry Weight Fraction Carbonate (SpectroLith WALK2 Model) {F11.4}
WCLA_WALK2.                                            :Dry Weight Fraction Clay (SpectroLith WALK2 Model) {F11.4}
WCOA_WALK2.                                            :Dry Weight Fraction Coal (SpectroLith WALK2 Model) {F11.4}
WEVA_WALK2.                                            :Dry Weight Fraction Salt (SpectroLith WALK2 Model) {F11.4}
WPYR_WALK2.                                            :Dry Weight Fraction Pyrite (SpectroLith WALK2 Model) {F11.4}
WQFM_WALK2.                                            :Dry Weight Fraction Quartz+Feldspar+Mica (QFM) (SpectroLith WALK2 Model) {F11.4}
WSID_WALK2.                                            :Dry Weight Fraction Siderite (SpectroLith WALK2 Model) {F11.4}
#-----------------------------------------------------------------------------
# 
#      DEPT      C1_OBMT    C2_OBMT      CDF        CTEM       DCAL       DEVI      DEVIM    DWAL_WALK2 DWCA_WALK2 DWFE_WALK2 DWGD_WALK2 DWSI_WALK2 DWSU_WALK2 DWTI_WALK2    ECST        ED     ESUF_WALK2  GR_EDTC      GTEM       HAZI      HAZIM        ND        P1AZ      QCPMT        RB     RHGE_WALK2    SDEV      SDEVM       STIT       TENS    WANH_WALK2 WCAR_WALK2 WCLA_WALK2 WCOA_WALK2 WEVA_WALK2 WPYR_WALK2 WQFM_WALK2 WSID_WALK2
#
~A  
# ...
   3315.5000     7.1866     7.1864   986.5125   126.0236     0.4365    21.1977    18.4746     0.0481     0.2030     0.0280     8.7341     0.1454     0.0000     0.0035    47.7472   -26.8301     0.7327   127.4179   111.8205   209.3298   208.3589    37.9052    22.2115     0.7698   173.3792     2.7291    21.6489    18.9258     0.0000  2058.0000     0.0000     0.4709     0.2377     0.0000     0.0000     0.0000     0.2914     0.0000
   3316.0000     7.2013     7.1873  1039.8375   126.0236     0.4443    21.1554    18.3477     0.0470     0.1978     0.0265     6.6578     0.1541     0.0080     0.0029    47.1620   -26.9050     0.7041   135.2630   111.8271   209.3289   208.2851    37.7662    22.0273     0.0642   173.2066     2.7349    21.6084    18.8007     0.0000  2255.0000     0.0000     0.4571     0.2285     0.0000     0.0000     0.0150     0.2994     0.0000
   3316.5000     7.2040     7.1830  1025.2621   126.0236     0.4435    21.0486    18.2683     0.0532     0.1865     0.0288     3.3485     0.1576     0.0204     0.0022    47.1620   -26.9794     0.6638   141.0269   111.8337   209.3034   208.2452    37.6279    21.7459     0.0000   172.9630     2.7518    21.5019    18.7215     0.0000  2131.0000     0.0000     0.4268     0.2824     0.0000     0.0000     0.0381     0.2527     0.0000
   3317.0000     7.2100     7.1890  1025.2621   126.0236     0.4495    20.9426    18.2152     0.0538     0.1834     0.0295     3.0334     0.1597     0.0189     0.0020    47.1620   -27.0534     0.6738   146.6734   111.8403   209.2816   208.2126    37.4900    21.6890     0.0104   172.9252     2.7509    21.3966    18.6691     0.0000  2184.0000     0.0000     0.4184     0.2882     0.0000     0.0000     0.0354     0.2581     0.0000
   3317.5000     7.2247     7.1925  1049.4360   126.0236     0.4586    20.8834    18.1270     0.0554     0.1722     0.0313     4.7083     0.1692     0.0098     0.0029    47.1620   -27.1270     0.7136   148.4840   111.8469   209.2784   208.1627    37.3525    21.8674     0.0000   173.0920     2.7416    21.3391    18.5827     0.0000  2240.0000     0.0000     0.3883     0.3017     0.0000     0.0000     0.0183     0.2916     0.0000
   3318.0000     7.2282     7.2191  1044.8146   126.0236     0.4737    20.8017    18.0617     0.0550     0.1674     0.0319     8.6074     0.1747     0.0000     0.0043    47.1620   -27.2003     0.7830   162.5031   111.8535   209.2656   208.1324    37.2156    22.1119     0.1919   173.3285     2.7303    21.2579    18.5179     0.0000  2212.0000     0.0000     0.3754     0.2985     0.0000     0.0000     0.0000     0.3261     0.0000
   3318.5000     7.1978     7.2200  1064.0116   126.0236     0.4589    20.7356    17.9815     0.0599     0.1580     0.0345    10.6154     0.1772     0.0000     0.0053    47.1620   -27.2732     0.8075   161.2659   111.8601   209.2795   208.0763    37.0792    22.1854     0.8152   173.3811     2.7334    21.1881    18.4341     0.0000  2290.0000     0.0000     0.3499     0.3419     0.0000     0.0000     0.0000     0.3082     0.0000
   3319.0000     7.2022     7.2157  1020.2850   126.0236     0.4589    20.6152    17.9213     0.0627     0.1628     0.0362    10.9783     0.1667     0.0000     0.0054    47.1620   -27.3456     0.8102   162.9036   111.8668   209.2368   208.0305    36.9432    22.2775     0.5891   173.5018     2.7373    21.0683    18.3744     0.0000  2127.0000     0.0000     0.3629     0.3658     0.0000     0.0000     0.0000     0.2713     0.0000
   3319.5000     7.2066     7.2105   996.1110   126.0236     0.4585    20.5650    17.8563     0.0649     0.1599     0.0373     9.0752     0.1662     0.0033     0.0049    47.1620   -27.4178     0.7482   156.1346   111.8734   209.2407   207.9971    36.8076    22.2952     0.5557   173.5126     2.7429    21.0186    18.3099     0.0000  2053.0000     0.0000     0.3551     0.3858     0.0000     0.0000     0.0062     0.2528     0.0000
   3320.0000     7.1909     7.1804  1054.4131   126.0236     0.4357    20.5122    17.7617     0.0622     0.1653     0.0355     6.1593     0.1650     0.0069     0.0039    47.1620   -27.4895     0.6820   157.7365   111.8800   209.2368   207.9268    36.6725    22.4889     0.2798   173.6951     2.7446    20.9639    18.2134     0.0000  2271.0000     0.0000     0.3696     0.3615     0.0000     0.0000     0.0129     0.2560     0.0000
   3320.5000     7.1918     7.1856  1025.2621   126.0236     0.4387    20.3765    17.7069     0.0619     0.1578     0.0354     4.4393     0.1742     0.0082     0.0032    47.1620   -27.5608     0.6351   156.7630   111.8866   209.1679   207.8813    36.5379    23.2736     0.0000   174.4885     2.7448    20.8283    18.1587     0.0000  2163.0000     0.0000     0.3496     0.3591     0.0000     0.0000     0.0154     0.2760     0.0000
   3321.0000     7.1884     7.1985  1025.2621   126.0236     0.4434    20.3270    17.6327     0.0609     0.1559     0.0354     4.3324     0.1776     0.0049     0.0029    47.1620   -27.6317     0.6337   151.6546   111.8932   209.1665   207.8286    36.4037    23.4511     0.0371   174.6541     2.7406    20.7784    18.0841     0.0000  2183.0000     0.0000     0.3443     0.3505     0.0000     0.0000     0.0092     0.2960     0.0000
   3321.5000     7.1857     7.1976  1039.8375   126.0236     0.4417    20.2640    17.5399     0.0635     0.1440     0.0367     5.5626     0.1871     0.0058     0.0031    47.1620   -27.7021     0.6709   150.3163   111.8998   209.1392   207.7594    36.2701    24.2123     0.0117   175.3902     2.7421    20.7151    17.9910     0.0000  2253.0000     0.0000     0.3124     0.3728     0.0000     0.0000     0.0109     0.3039     0.0000
   3322.0000     7.1857     7.1907  1001.0880   126.0236     0.4382    20.1615    17.5089     0.0620     0.1553     0.0354     6.5345     0.1770     0.0093     0.0030    47.1620   -27.7722     0.6936   145.2756   111.9064   209.1215   207.7507    36.1368    24.6446     0.0000   175.8087     2.7456    20.6126    17.9600     0.0000  2085.0000     0.0000     0.3429     0.3596     0.0000     0.0000     0.0174     0.2801     0.0000
   3322.5000     7.1896     7.1959  1015.6635   126.0236     0.4428    20.0622    17.3919     0.0593     0.1711     0.0328     6.1780     0.1643     0.0161     0.0029    47.1620   -27.8419     0.6814   138.8501   111.9130   209.0695   207.6689    36.0041    24.6803     0.0095   175.8882     2.7517    20.5138    17.8435     0.0000  2153.0000     0.0000     0.3852     0.3359     0.0000     0.0000     0.0302     0.2487     0.0000
   3323.0000     7.2612     7.2277  1049.4360   126.0236     0.4944    20.0278    17.3151     0.0515     0.1944     0.0284     5.7826     0.1507     0.0157     0.0022    47.1620   -27.9112     0.6279   131.8406   111.9196   209.0891   207.6289    35.8720    25.3978     0.0000   176.5416     2.7470    20.4878    17.7752     0.0000  2264.0000     0.0000     0.4480     0.2677     0.0000     0.0000     0.0293     0.2550     0.0000
   3323.5000     7.3202     7.2621  1010.6865   126.0236     0.5411    19.9252    17.2728     0.0475     0.1991     0.0258     4.0418     0.1526     0.0171     0.0021    47.1620   -27.9801     0.6124   128.8778   111.9262   209.0504   207.6215    35.7403    25.6284     0.1355   176.7920     2.7446    20.3922    17.7398     0.0000  2072.0000     0.0000     0.4607     0.2324     0.0000     0.0000     0.0319     0.2750     0.0000
   3324.0000     7.3157     7.2578  1010.6865   126.0236     0.5367    19.8519    17.1349     0.0461     0.1992     0.0246     3.1206     0.1554     0.0201     0.0021    47.1620   -28.0486     0.6140   131.2658   111.9328   209.0291   207.5434    35.6092    25.7955     0.0000   176.9671     2.7459    20.3184    17.6014     0.0000  2157.0000     0.0000     0.4610     0.2201     0.0000     0.0000     0.0376     0.2813     0.0000
   3324.5000     7.2342     7.2148  1030.2390   126.0236     0.4745    19.7794    17.0998     0.0481     0.2048     0.0251     2.9021     0.1459     0.0244     0.0022    47.1620   -28.1166     0.6537   128.7150   111.9394   209.0065   207.5141    35.4787    26.4603     0.0000   177.6108     2.7530    20.2362    17.5567     0.0000  2197.0000     0.0000     0.4758     0.2377     0.0000     0.0000     0.0457     0.2408     0.0000
