~VERSION INFORMATION
VERS.           1.2   :CWLS Log ASCII Standard - VERSION 1.2
WRAP.           NO    :One Line per depth step
PROD.  Schlumberger   :LAS Producer
PROG.  DLIS to ASCII 17C0-152                          :LAS Program name and version
CREA.        2011/10/27 17:24                          :LAS Creation date {YYYY/MM/DD hh:mm}
DLIS_CREA.  2011-Oct-27 07:22                          :DLIS Creation date and time {YYYY-MMM-DD hh:mm}
SOURCE.     7e486f41-920f-449c-9fc4-a1d2576f3c93       :DLIS File Name
#--------------------------------------------------
~WELL INFORMATION
#MNEM.UNIT      DATA             DESCRIPTION
#---- ------ --------------   -----------------------------
STRT .F      3201.5000       :START DEPTH     
STOP .F      4055.0000       :STOP DEPTH     
STEP .F       0.5000         :STEP       
NULL .          -999.25      :NULL VALUE
COMP .                 COMPANY:  SWEPI LP                           
WELL .                    WELL:  Harper Hill 2-29                   
FLD  .                   FIELD:  Swan                               
LOC  .                LOCATION:                                     
CNTY .                  COUNTY:  Moffat                             
STAT .                   STATE:  Colorado                           
CTRY .                 COUNTRY:                                     
SRVC .         SERVICE COMPANY:  Schlumberger                       
API  .              API NUMBER:  05-0081-07659                      
DATE .                LOG DATE:  26-Oct-2011
UWI  .          UNIQUE WELL ID:                                     
#-----------------------------------------------------------------------------
~PARAMETER INFORMATION
#MNEM.UNIT    VALUE                      DESCRIPTION
#---- -----   --------------------       ------------------------
CN   .        SWEPI LP                   :Company Name
WN   .        Harper Hill 2-29           :Well Name
FN   .        Swan                       :Field Name
FL   .                                   :Field Location
FL1  .                                   :Field Location Line 1
COUN .        Moffat                     :County or Rig Name
STAT .        Colorado                   :State or Province
NATI .                                   :Nation
DATE .        26-Oct-2011                :Date as Month-Day-Year
APIN .        05-0081-07659              :API Serial Number
SECT .        29                         :Section
TOWN .        5N                         :Township
RANG .        90W                        :Range
DMF  .        Kelly Bushing              :Drilling Measured From
LMF  .        Kelly Bushing              :Log Measured From
PDAT .        Ground Level               :Permanent Datum
ENGI .        Mark Kast                  :Engineer's Name
WITN .        Tony                       :Witness's Name
LATI .                                   :Latitude
LONG .                                   :Longitude
LUL  .        Rock Springs               :Logging Unit Location
LUN  .              2271                 :Logging Unit Number
RUN  .        Two                        :Run Number
SON  .                                   :Service Order Number
BHT  .DEGF     127.00000                 :Bottom Hole Temperature (used in calculations)
BS   .IN         6.75000                 :Bit Size
DFD  .LB/G       7.90000                 :Drilling Fluid Density
DFV  .S         44.00000                 :Drilling Fluid Viscosity
DFL  .C3        16.60000                 :Drilling Fluid Loss
RMFS .                                   :Resistivity of Mud Filtrate Sample
EKB  .F       6597.00000                 :Elevation of Kelly Bushing
EGL  .F       6585.00000                 :Elevation of Ground Level
BLI  .                                   :Bottom Log Interval
BSAL .PPM     44500.00000                :Borehole Salinity
FLEV .                                   :Fluid Level
MCST .                                   :Mud Cake Sample Temperature
MFST .                                   :Mud Filtrate Sample Temperature
MRT  .DEGF     127.00000                 :Maximum Recorded Temperature
MST  .                                   :Mud Sample Temperature
RMCS .                                   :Resistivity of Mud Cake Sample
RMS  .                                   :Resistivity of Mud Sample
RW   .OHMM       1.00000                 :Resistivity of Connate Water
TDD  .F       4480.00000                 :Total Depth - Driller
TDL  .F       4482.00000                 :Total Depth - Logger
TLI  .                                   :Top Log Interval
HIDE .                                   :Header Identifier
MATR .        SAND                       :Rock Matrix for Neutron Porosity Corrections
DFT  .        OBM                        :Drilling Fluid Type
DFPH .                                   :Drilling Fluid PH
MCSS .        N/A                        :Mud Cake Sample Source
MFSS .        N/A                        :Mud Filtrate Sample Source
MSS  .        N/A                        :Mud Sample Source
OS1  .                                   :Other Services Line 1
OS2  .                                   :Other Services Line 2
OS3  .                                   :Other Services Line 3
OS4  .                                   :Other Services Line 4
OS5  .                                   :Other Services Line 5
R1   .                                   :Remark Line 1
R2   .                                   :Remark Line 2
R3   .                                   :Remark Line 3
R4   .                                   :Remark Line 4
R5   .                                   :Remark Line 5
R6   .                                   :Remark Line 6
R7   .                                   :Remark Line 7
R8   .                                   :Remark Line 8
TCS  .        20 00                      :Time Circulation Stopped
TLAB .                                   :Time Logger At Bottom
EPD  .F         6585.000000              :Elevation of Permanent Datum above Mean Sea Level
APD  .F          12.000000               :Elevation of Depth Reference (LMF) above Permanent Datum
#-----------------------------------------------------------------------------
~CURVE INFORMATION
#MNEM.UNIT   API CODE                                  DESCRIPTION
#---- -----  --------                                  -----------------------
DEPT .F                                                :DEPTH (BOREHOLE) {F12.4}
C1_OBMT.IN                                             :OBMT Caliper 1 {F11.4}
C2_OBMT.IN                                             :OBMT Caliper 2 {F11.4}
CDF  .LBF                                              :Calibrated Downhole Force {F11.4}
CTEM .DEGF                                             :Cartridge Temperature {F11.4}
DCAL .IN                                               :Differential Caliper {F11.4}
DEVI .DEG                                              :Hole Deviation {F11.4}
DEVIM.DEG                                              :Memorized Deviation {F11.4}
DWAL_WALK2.                                            :Dry Weight Fraction Pseudo Aluminum (SpectroLith WALK2 Model) {F11.4}
DWCA_WALK2.                                            :Dry Weight Fraction Calcium (SpectroLith WALK2 Model) {F11.4}
DWFE_WALK2.                                            :Dry Weight Fraction Iron + 0.14 Aluminum (SpectroLith WALK2 Model) {F11.4}
DWGD_WALK2.PPM                                         :Dry Weight Fraction Gadolinium (SpectroLith WALK2 Model) {F11.4}
DWSI_WALK2.                                            :Dry Weight Fraction Silicon (SpectroLith WALK2 Model) {F11.4}
DWSU_WALK2.                                            :Dry Weight Fraction Sulfur (SpectroLith WALK2 Model) {F11.4}
DWTI_WALK2.                                            :Dry Weight Fraction Titanium (SpectroLith WALK2 Model) {F11.4}
ECST .DEGF                                             :ECS Temperature {F11.4}
ED   .F                                                :East Departure {F11.4}
ESUF_WALK2.                                            :Elemental Statistical Uncertainty Factor (SpectroLith WALK2 Model) {F11.4}
GR_EDTC.GAPI                                           :EDTC Gamma Ray {F11.4}
GTEM .DEGF                                             :Generalized Borehole Temperature {F11.4}
HAZI .DEG                                              :Hole Azimuth {F11.4}
HAZIM.DEG                                              :Hole Azimuth {F11.4}
ND   .F                                                :North Departure {F11.4}
P1AZ .DEG                                              :Pad 1 Azimuth {F11.4}
QCPMT.                                                 :Photomultiplier Tube Quality Control {F11.4}
RB   .DEG                                              :Relative Bearing {F11.4}
RHGE_WALK2.G/C3                                        :Matrix Density from Elemental Concentrations (SpectroLith WALK2 Model) {F11.4}
SDEV .DEG                                              :Sonde Deviation {F11.4}
SDEVM.DEG                                              :Sonde Deviation {F11.4}
STIT .F                                                :Stuck Tool Indicator, Total {F11.4}
TENS .LBF                                              :Cable Tension {F11.4}
WANH_WALK2.                                            :Dry Weight Fraction Anhydrite/Gypsum (SpectroLith WALK2 Model) {F11.4}
WCAR_WALK2.                                            :Dry Weight Fraction Carbonate (SpectroLith WALK2 Model) {F11.4}
WCLA_WALK2.                                            :Dry Weight Fraction Clay (SpectroLith WALK2 Model) {F11.4}
WCOA_WALK2.                                            :Dry Weight Fraction Coal (SpectroLith WALK2 Model) {F11.4}
WEVA_WALK2.                                            :Dry Weight Fraction Salt (SpectroLith WALK2 Model) {F11.4}
WPYR_WALK2.                                            :Dry Weight Fraction Pyrite (SpectroLith WALK2 Model) {F11.4}
WQFM_WALK2.                                            :Dry Weight Fraction Quartz+Feldspar+Mica (QFM) (SpectroLith WALK2 Model) {F11.4}
WSID_WALK2.                                            :Dry Weight Fraction Siderite (SpectroLith WALK2 Model) {F11.4}
#-----------------------------------------------------------------------------
# 
#      DEPT      C1_OBMT    C2_OBMT      CDF        CTEM       DCAL       DEVI      DEVIM    DWAL_WALK2 DWCA_WALK2 DWFE_WALK2 DWGD_WALK2 DWSI_WALK2 DWSU_WALK2 DWTI_WALK2    ECST        ED     ESUF_WALK2  GR_EDTC      GTEM       HAZI      HAZIM        ND        P1AZ      QCPMT        RB     RHGE_WALK2    SDEV      SDEVM       STIT       TENS    WANH_WALK2 WCAR_WALK2 WCLA_WALK2 WCOA_WALK2 WEVA_WALK2 WPYR_WALK2 WQFM_WALK2 WSID_WALK2
#
~A  
# ...
   3648.0000     7.0713     7.1048   991.1340   128.0001     0.3380     3.7416     3.7523     0.0325     0.2020     0.0189     5.9507     0.1741     0.0000     0.0026    45.9914   -35.2944     0.5973   135.8715   116.2151   157.4544   157.2269    -3.8172   351.9589     0.1608   194.4739     2.7120     3.8076     3.8186     0.0000  2359.0000     0.0000     0.4684     0.1010     0.0000     0.0000     0.0000     0.4306     0.0000
   3648.5000     7.0774     7.1056  1015.6635   128.0001     0.3414     3.7424     3.7454     0.0376     0.1959     0.0216     5.7567     0.1725     0.0016     0.0030    45.9914   -35.2818     0.6011   131.0700   116.2217   157.5071   157.2335    -3.8474   351.9521     0.0000   194.4145     2.7179     3.8085     3.8116     0.0000  2485.0000     0.0000     0.4521     0.1454     0.0000     0.0000     0.0030     0.3996     0.0000
   3649.0000     7.0791     7.1090  1039.8375   128.0001     0.3440     3.7356     3.7482     0.0427     0.2008     0.0237     5.9360     0.1585     0.0089     0.0030    47.1620   -35.2691     0.5923   129.9157   116.2283   157.5004   157.2150    -3.8775   352.4096     0.0000   194.8778     2.7313     3.8016     3.8145     0.0000  2478.0000     0.0000     0.4651     0.1905     0.0000     0.0000     0.0167     0.3276     0.0000
   3649.5000     7.0765     7.1065   991.1340   128.0001     0.3415     3.7430     3.7516     0.0442     0.2175     0.0244     7.1225     0.1365     0.0113     0.0028    47.1620   -35.2564     0.6034   121.6376   116.2349   157.5862   157.1535    -3.9076   352.5998     0.1590   194.9819     2.7382     3.8092     3.8181     0.0000  2372.0000     0.0000     0.5101     0.2036     0.0000     0.0000     0.0212     0.2651     0.0000
   3650.0000     7.0765     7.1082  1030.2390   128.0001     0.3423     3.7405     3.7464     0.0449     0.2181     0.0250     8.6024     0.1344     0.0093     0.0029    48.3325   -35.2438     0.5998   121.5938   116.2415   157.5854   157.1974    -3.9378   352.8927     0.0000   195.2752     2.7371     3.8065     3.8127     0.0000  2499.0000     0.0000     0.5117     0.2097     0.0000     0.0000     0.0174     0.2612     0.0000
   3650.5000     7.0808     7.1107  1010.6865   128.0001     0.3458     3.7392     3.7495     0.0432     0.2085     0.0250    10.1677     0.1477     0.0006     0.0033    48.3325   -35.2311     0.6024   125.7032   116.2481   157.5762   157.1796    -3.9679   353.1383     0.1742   195.5296     2.7253     3.8053     3.8159     0.0000  2409.0000     0.0000     0.4858     0.1950     0.0000     0.0000     0.0012     0.3180     0.0000
   3651.0000     7.0756     7.1073  1005.7095   128.0001     0.3414     3.7472     3.7510     0.0416     0.1948     0.0242     9.4563     0.1663     0.0000     0.0032    47.1620   -35.2184     0.5833   133.2151   116.2548   157.5438   157.1790    -3.9980   353.1413     0.2514   195.5645     2.7207     3.8134     3.8174     0.0000  2458.0000     0.0000     0.4491     0.1810     0.0000     0.0000     0.0000     0.3699     0.0000
   3651.5000     7.0730     7.1030  1044.8146   128.0001     0.3380     3.7383     3.7509     0.0382     0.1885     0.0223     7.0972     0.1796     0.0000     0.0028    46.5767   -35.2057     0.6096   132.8257   116.2614   157.5706   157.1557    -4.0282   352.9841     0.1019   195.3813     2.7161     3.8042     3.8172     0.0000  2503.0000     0.0000     0.4322     0.1512     0.0000     0.0000     0.0000     0.4166     0.0000
   3652.0000     7.0739     7.1048   986.5125   128.0001     0.3393     3.7431     3.7533     0.0373     0.1796     0.0215     3.6940     0.1920     0.0013     0.0027    45.9914   -35.1930     0.6485   132.6104   116.2680   157.5826   157.1153    -4.0583   353.0551     0.0000   195.4399     2.7147     3.8092     3.8198     0.0000  2385.0000     0.0000     0.4080     0.1429     0.0000     0.0000     0.0024     0.4467     0.0000
   3652.5000     7.0774     7.1073  1030.2390   128.0001     0.3423     3.7484     3.7506     0.0375     0.1600     0.0210     0.0000     0.2150     0.0047     0.0032    45.9914   -35.1803     0.7046   133.7660   116.2746   157.5759   157.1032    -4.0885   353.2664     0.0927   195.6573     2.7144     3.8148     3.8170     0.0000  2525.0000     0.0000     0.3555     0.1447     0.0000     0.0000     0.0088     0.4910     0.0000
   3653.0000     7.0791     7.1021  1030.2390   128.0001     0.3406     3.7406     3.7514     0.0396     0.1435     0.0226     0.0000     0.2302     0.0008     0.0038    45.9914   -35.1675     0.7075   129.8002   116.2812   157.5703   157.0773    -4.1186   353.7350     0.6839   196.1308     2.7100     3.8067     3.8179     0.0000  2453.0000     0.0000     0.3111     0.1630     0.0000     0.0000     0.0015     0.5243     0.0000
   3653.5000     7.0791     7.1004   966.9600   128.0001     0.3397     3.7476     3.7538     0.0394     0.1512     0.0228     0.0000     0.2214     0.0000     0.0034    45.9914   -35.1548     0.6822   131.7473   116.2878   157.5600   157.0572    -4.1488   354.0310     0.8464   196.4366     2.7106     3.8140     3.8203     0.0000  2363.0000     0.0000     0.3316     0.1613     0.0000     0.0000     0.0000     0.5071     0.0000
   3654.0000     7.0791     7.0987  1034.8606   128.0001     0.3389     3.7453     3.7522     0.0413     0.1659     0.0242     1.8540     0.2005     0.0000     0.0027    45.9914   -35.1420     0.6370   132.7208   116.2944   157.5775   157.0591    -4.1789   353.5946     0.2341   195.9834     2.7157     3.8116     3.8187     0.0000  2525.0000     0.0000     0.3713     0.1779     0.0000     0.0000     0.0000     0.4508     0.0000
   3654.5000     7.0765     7.0927  1001.0880   128.0001     0.3346     3.7420     3.7521     0.0419     0.1792     0.0247     4.2041     0.1838     0.0016     0.0015    45.9914   -35.1293     0.6054   143.6962   116.3010   157.5999   157.0266    -4.2090   353.5990     0.0000   195.9656     2.7210     3.8080     3.8185     0.0000  2389.0000     0.0000     0.4070     0.1829     0.0000     0.0000     0.0031     0.4070     0.0000
   3655.0000     7.0826     7.0952   991.1340   128.0001     0.3389     3.7485     3.7539     0.0459     0.1744     0.0262     3.8959     0.1830     0.0094     0.0013    45.9914   -35.1165     0.5796   143.8909   116.3076   157.5740   156.9794    -4.2391   353.5152     0.0000   195.9077     2.7322     3.8149     3.8205     0.0000  2442.0000     0.0000     0.3941     0.2187     0.0000     0.0000     0.0177     0.3695     0.0000
   3655.5000     7.0799     7.0927  1030.2390   128.0001     0.3363     3.7443     3.7514     0.0465     0.1770     0.0266     5.4108     0.1790     0.0095     0.0014    45.9914   -35.1037     0.5648   147.7852   116.3142   157.5853   156.9626    -4.2693   353.3214     0.2526   195.7030     2.7333     3.8105     3.8178     0.0000  2489.0000     0.0000     0.4010     0.2239     0.0000     0.0000     0.0178     0.3573     0.0000
   3656.0000     7.0808     7.0970   971.9370   128.0001     0.3389     3.7432     3.7537     0.0448     0.1787     0.0260     6.8081     0.1795     0.0041     0.0020    45.9914   -35.0909     0.5548   144.4751   116.3208   157.5634   156.9709    -4.2994   353.0499     0.4491   195.4539     2.7262     3.8094     3.8203     0.0000  2330.0000     0.0000     0.4057     0.2091     0.0000     0.0000     0.0076     0.3776     0.0000
   3656.5000     7.0774     7.1021  1020.2850   128.0001     0.3397     3.7483     3.7554     0.0425     0.1789     0.0252     8.1926     0.1829     0.0001     0.0020    45.9914   -35.0781     0.5756   147.0873   116.3274   157.5658   156.9715    -4.3295   352.7256     0.7645   195.1278     2.7199     3.8146     3.8220     0.0000  2491.0000     0.0000     0.4063     0.1887     0.0000     0.0000     0.0002     0.4048     0.0000
   3657.0000     7.0747     7.1013  1025.2621   128.0001     0.3380     3.7453     3.7533     0.0402     0.1700     0.0236     7.4166     0.1976     0.0000     0.0024    46.5767   -35.0653     0.6278   142.8037   116.3341   157.5356   156.9391    -4.3596   352.4537     0.1133   194.8865     2.7154     3.8114     3.8197     0.0000  2444.0000     0.0000     0.3823     0.1687     0.0000     0.0000     0.0000     0.4490     0.0000
