~VERSION INFORMATION
VERS.           1.2   :CWLS Log ASCII Standard - VERSION 1.2
WRAP.           NO    :One Line per depth step
PROD.  Schlumberger   :LAS Producer
PROG.  DLIS to ASCII 17C0-152                          :LAS Program name and version
CREA.        2011/10/27 17:24                          :LAS Creation date {YYYY/MM/DD hh:mm}
DLIS_CREA.  2011-Oct-27 07:22                          :DLIS Creation date and time {YYYY-MMM-DD hh:mm}
SOURCE.     7e486f41-920f-449c-9fc4-a1d2576f3c93       :DLIS File Name
#--------------------------------------------------
~WELL INFORMATION
#MNEM.UNIT      DATA             DESCRIPTION
#---- ------ --------------   -----------------------------
STRT .F      3201.5000       :START DEPTH     
STOP .F      4055.0000       :STOP DEPTH     
STEP .F       0.5000         :STEP       
NULL .          -999.25      :NULL VALUE
COMP .                 COMPANY:  SWEPI LP                           
WELL .                    WELL:  Harper Hill 2-29                   
FLD  .                   FIELD:  Swan                               
LOC  .                LOCATION:                                     
CNTY .                  COUNTY:  Moffat                             
STAT .                   STATE:  Colorado                           
CTRY .                 COUNTRY:                                     
SRVC .         SERVICE COMPANY:  Schlumberger                       
API  .              API NUMBER:  05-0081-07659                      
DATE .                LOG DATE:  26-Oct-2011
UWI  .          UNIQUE WELL ID:                                     
#-----------------------------------------------------------------------------
~PARAMETER INFORMATION
#MNEM.UNIT    VALUE                      DESCRIPTION
#---- -----   --------------------       ------------------------
CN   .        SWEPI LP                   :Company Name
WN   .        Harper Hill 2-29           :Well Name
FN   .        Swan                       :Field Name
FL   .                                   :Field Location
FL1  .                                   :Field Location Line 1
COUN .        Moffat                     :County or Rig Name
STAT .        Colorado                   :State or Province
NATI .                                   :Nation
DATE .        26-Oct-2011                :Date as Month-Day-Year
APIN .        05-0081-07659              :API Serial Number
SECT .        29                         :Section
TOWN .        5N                         :Township
RANG .        90W                        :Range
DMF  .        Kelly Bushing              :Drilling Measured From
LMF  .        Kelly Bushing              :Log Measured From
PDAT .        Ground Level               :Permanent Datum
ENGI .        Mark Kast                  :Engineer's Name
WITN .        Tony                       :Witness's Name
LATI .                                   :Latitude
LONG .                                   :Longitude
LUL  .        Rock Springs               :Logging Unit Location
LUN  .              2271                 :Logging Unit Number
RUN  .        Two                        :Run Number
SON  .                                   :Service Order Number
BHT  .DEGF     127.00000                 :Bottom Hole Temperature (used in calculations)
BS   .IN         6.75000                 :Bit Size
DFD  .LB/G       7.90000                 :Drilling Fluid Density
DFV  .S         44.00000                 :Drilling Fluid Viscosity
DFL  .C3        16.60000                 :Drilling Fluid Loss
RMFS .                                   :Resistivity of Mud Filtrate Sample
EKB  .F       6597.00000                 :Elevation of Kelly Bushing
EGL  .F       6585.00000                 :Elevation of Ground Level
BLI  .                                   :Bottom Log Interval
BSAL .PPM     44500.00000                :Borehole Salinity
FLEV .                                   :Fluid Level
MCST .                                   :Mud Cake Sample Temperature
MFST .                                   :Mud Filtrate Sample Temperature
MRT  .DEGF     127.00000                 :Maximum Recorded Temperature
MST  .                                   :Mud Sample Temperature
RMCS .                                   :Resistivity of Mud Cake Sample
RMS  .                                   :Resistivity of Mud Sample
RW   .OHMM       1.00000                 :Resistivity of Connate Water
TDD  .F       4480.00000                 :Total Depth - Driller
TDL  .F       4482.00000                 :Total Depth - Logger
TLI  .                                   :Top Log Interval
HIDE .                                   :Header Identifier
MATR .        SAND                       :Rock Matrix for Neutron Porosity Corrections
DFT  .        OBM                        :Drilling Fluid Type
DFPH .                                   :Drilling Fluid PH
MCSS .        N/A                        :Mud Cake Sample Source
MFSS .        N/A                        :Mud Filtrate Sample Source
MSS  .        N/A                        :Mud Sample Source
OS1  .                                   :Other Services Line 1
OS2  .                                   :Other Services Line 2
OS3  .                                   :Other Services Line 3
OS4  .                                   :Other Services Line 4
OS5  .                                   :Other Services Line 5
R1   .                                   :Remark Line 1
R2   .                                   :Remark Line 2
R3   .                                   :Remark Line 3
R4   .                                   :Remark Line 4
R5   .                                   :Remark Line 5
R6   .                                   :Remark Line 6
R7   .                                   :Remark Line 7
R8   .                                   :Remark Line 8
TCS  .        20 00                      :Time Circulation Stopped
TLAB .                                   :Time Logger At Bottom
EPD  .F         6585.000000              :Elevation of Permanent Datum above Mean Sea Level
APD  .F          12.000000               :Elevation of Depth Reference (LMF) above Permanent Datum
#-----------------------------------------------------------------------------
~CURVE INFORMATION
#MNEM.UNIT   API CODE                                  DESCRIPTION
#---- -----  --------                                  -----------------------
DEPT .F                                                :DEPTH (BOREHOLE) {F12.4}
C1_OBMT.IN                                             :OBMT Caliper 1 {F11.4}
C2_OBMT.IN                                             :OBMT Caliper 2 {F11.4}
CDF  .LBF                                              :Calibrated Downhole Force {F11.4}
CTEM .DEGF                                             :Cartridge Temperature {F11.4}
DCAL .IN                                               :Differential Caliper {F11.4}
DEVI .DEG                                              :Hole Deviation {F11.4}
DEVIM.DEG                                              :Memorized Deviation {F11.4}
DWAL_WALK2.                                            :Dry Weight Fraction Pseudo Aluminum (SpectroLith WALK2 Model) {F11.4}
DWCA_WALK2.                                            :Dry Weight Fraction Calcium (SpectroLith WALK2 Model) {F11.4}
DWFE_WALK2.                                            :Dry Weight Fraction Iron + 0.14 Aluminum (SpectroLith WALK2 Model) {F11.4}
DWGD_WALK2.PPM                                         :Dry Weight Fraction Gadolinium (SpectroLith WALK2 Model) {F11.4}
DWSI_WALK2.                                            :Dry Weight Fraction Silicon (SpectroLith WALK2 Model) {F11.4}
DWSU_WALK2.                                            :Dry Weight Fraction Sulfur (SpectroLith WALK2 Model) {F11.4}
DWTI_WALK2.                                            :Dry Weight Fraction Titanium (SpectroLith WALK2 Model) {F11.4}
ECST .DEGF                                             :ECS Temperature {F11.4}
ED   .F                                                :East Departure {F11.4}
ESUF_WALK2.                                            :Elemental Statistical Uncertainty Factor (SpectroLith WALK2 Model) {F11.4}
GR_EDTC.GAPI                                           :EDTC Gamma Ray {F11.4}
GTEM .DEGF                                             :Generalized Borehole Temperature {F11.4}
HAZI .DEG                                              :Hole Azimuth {F11.4}
HAZIM.DEG                                              :Hole Azimuth {F11.4}
ND   .F                                                :North Departure {F11.4}
P1AZ .DEG                                              :Pad 1 Azimuth {F11.4}
QCPMT.                                                 :Photomultiplier Tube Quality Control {F11.4}
RB   .DEG                                              :Relative Bearing {F11.4}
RHGE_WALK2.G/C3                                        :Matrix Density from Elemental Concentrations (SpectroLith WALK2 Model) {F11.4}
SDEV .DEG                                              :Sonde Deviation {F11.4}
SDEVM.DEG                                              :Sonde Deviation {F11.4}
STIT .F                                                :Stuck Tool Indicator, Total {F11.4}
TENS .LBF                                              :Cable Tension {F11.4}
WANH_WALK2.                                            :Dry Weight Fraction Anhydrite/Gypsum (SpectroLith WALK2 Model) {F11.4}
WCAR_WALK2.                                            :Dry Weight Fraction Carbonate (SpectroLith WALK2 Model) {F11.4}
WCLA_WALK2.                                            :Dry Weight Fraction Clay (SpectroLith WALK2 Model) {F11.4}
WCOA_WALK2.                                            :Dry Weight Fraction Coal (SpectroLith WALK2 Model) {F11.4}
WEVA_WALK2.                                            :Dry Weight Fraction Salt (SpectroLith WALK2 Model) {F11.4}
WPYR_WALK2.                                            :Dry Weight Fraction Pyrite (SpectroLith WALK2 Model) {F11.4}
WQFM_WALK2.                                            :Dry Weight Fraction Quartz+Feldspar+Mica (QFM) (SpectroLith WALK2 Model) {F11.4}
WSID_WALK2.                                            :Dry Weight Fraction Siderite (SpectroLith WALK2 Model) {F11.4}
#-----------------------------------------------------------------------------
# 
#      DEPT      C1_OBMT    C2_OBMT      CDF        CTEM       DCAL       DEVI      DEVIM    DWAL_WALK2 DWCA_WALK2 DWFE_WALK2 DWGD_WALK2 DWSI_WALK2 DWSU_WALK2 DWTI_WALK2    ECST        ED     ESUF_WALK2  GR_EDTC      GTEM       HAZI      HAZIM        ND        P1AZ      QCPMT        RB     RHGE_WALK2    SDEV      SDEVM       STIT       TENS    WANH_WALK2 WCAR_WALK2 WCLA_WALK2 WCOA_WALK2 WEVA_WALK2 WPYR_WALK2 WQFM_WALK2 WSID_WALK2
#
~A  
# ...
   4047.0000     7.2117     7.2509   991.1340   126.0236     0.4813     6.5539     6.5386     0.0675     0.1962     0.0386    10.3452     0.1195     0.0151     0.0014    45.9914    -0.8304     0.8538   132.3322   121.4886    64.7159    64.2447    -0.4006   211.4356     1.0571   146.9021     2.7654     6.7458     6.7299     0.0000  2606.0000     0.0000     0.4527     0.4086     0.0000     0.0000     0.0283     0.1104     0.0000
   4047.5000     7.2013     7.2200   986.5125   126.0236     0.4606     6.5520     6.5394     0.0675     0.1962     0.0386    10.3452     0.1195     0.0151     0.0014    45.9914    -0.7791     0.8538   132.3322   121.4952    64.6706    64.2447    -0.3759   210.6049     1.0571   146.1186     2.7654     6.7430     6.7299     0.0000  2656.0000     0.0000     0.4527     0.4086     0.0000     0.0000     0.0283     0.1104     0.0000
   4048.0000     7.1988     7.2225   991.1340   126.0236     0.4606     6.5509     6.5395     0.0675     0.1962     0.0386    10.3452     0.1195     0.0151     0.0014    45.9914    -0.7278     0.8538   132.3322   121.5018    64.6305    64.2447    -0.3511   209.4915     1.0571   145.0479     2.7654     6.7418     6.7299     0.0000  2663.0000     0.0000     0.4527     0.4086     0.0000     0.0000     0.0283     0.1104     0.0000
   4048.5000     7.1857     7.2251   966.9600   126.0236     0.4554     6.5480     6.5397     0.0675     0.1962     0.0386    10.3452     0.1195     0.0151     0.0014    45.9914    -0.6765     0.8538   132.3322   121.5085    64.5734    64.2447    -0.3264   208.7802     1.0571   144.3950     2.7654     6.7383     6.7299     0.0000  2583.0000     0.0000     0.4527     0.4086     0.0000     0.0000     0.0283     0.1104     0.0000
   4049.0000     7.1857     7.2114   957.3615   126.0236     0.4485     6.5479     6.5400     0.0675     0.1962     0.0386    10.3452     0.1195     0.0151     0.0014    45.9914    -0.6252     0.8538   132.3322   121.5151    64.5507    64.2447    -0.3016   208.1922     1.0571   143.8308     2.7654     6.7381     6.7299     0.0000  2613.0000     0.0000     0.4527     0.4086     0.0000     0.0000     0.0283     0.1104     0.0000
   4049.5000     5.3377     5.2527  1010.6865   126.0236    -1.4549     6.6425     6.6342     0.0675     0.1962     0.0386    10.3452     0.1195     0.0151     0.0014    45.9914    -0.5736     0.8538   132.3322   121.5217    64.4954    64.2447    -0.2767   206.5366     1.0571   142.2337     2.7654     6.7386     6.7299     0.0000  2702.0000     0.0000     0.4527     0.4086     0.0000     0.0000     0.0283     0.1104     0.0000
   4050.0000     5.0238     4.9569   991.1340   126.0236    -1.7598     6.6521     6.6494     0.0675     0.1962     0.0386    10.3452     0.1195     0.0151     0.0014    45.9914    -0.5215     0.8538   132.3322   121.5283    64.4809    64.2447    -0.2516   205.0293     1.0571   140.7428     2.7654     6.7328     6.7299     0.0000  2621.0000     0.0000     0.4527     0.4086     0.0000     0.0000     0.0283     0.1104     0.0000
   4050.5000     5.0198     4.9529   981.5355   126.0236    -1.7638     6.6488     6.6496     0.0675     0.1962     0.0386    10.3452     0.1195     0.0151     0.0014    45.9914    -0.4693     0.8538   132.3322   121.5349    64.4519    64.2447    -0.2264   204.3937     1.0571   140.1368     2.7654     6.7292     6.7299     0.0000  2626.0000     0.0000     0.4527     0.4086     0.0000     0.0000     0.0283     0.1104     0.0000
   4051.0000     5.0170     4.9571  1010.6865   126.0236    -1.7630     6.6527     6.6496     0.0675     0.1962     0.0386    10.3452     0.1195     0.0151     0.0014    45.9914    -0.4172     0.8538   132.3322   121.5415    64.3934    64.2447    -0.2013   202.9337     1.0571   138.7370     2.7654     6.7331     6.7299     0.0000  2736.0000     0.0000     0.4527     0.4086     0.0000     0.0000     0.0283     0.1104     0.0000
   4051.5000     5.0160     4.9620   991.1340   126.0236    -1.7611     6.6516     6.6495     0.0675     0.1962     0.0386    10.3452     0.1195     0.0151     0.0014    45.9914    -0.3650     0.8538   132.3322   121.5481    64.3726    64.2447    -0.1761   202.9359     1.0571   138.7599     2.7654     6.7320     6.7299     0.0000  2651.0000     0.0000     0.4527     0.4086     0.0000     0.0000     0.0283     0.1104     0.0000
   4052.0000     5.0153     4.9623   923.2335   126.0236    -1.7613     6.6496     6.6496     0.0675     0.1962     0.0386    10.3452     0.1195     0.0151     0.0014    45.9914    -0.3129     0.8538   132.3322   121.5547    64.3419    64.2447    -0.1510   202.9433     1.0571   138.7978     2.7654     6.7300     6.7299     0.0000  2557.0000     0.0000     0.4527     0.4086     0.0000     0.0000     0.0283     0.1104     0.0000
   4052.5000     5.0238     4.9586   903.6810   126.0236    -1.7589     6.6521     6.6494     0.0675     0.1962     0.0386    10.3452     0.1195     0.0151     0.0014    45.9914    -0.2607     0.8538   132.3322   121.5613    64.3247    64.2447    -0.1258   202.9373     1.0571   138.8092     2.7654     6.7327     6.7299     0.0000  2515.0000     0.0000     0.4527     0.4086     0.0000     0.0000     0.0283     0.1104     0.0000
   4053.0000     5.0134     4.9637   898.7040   126.0236    -1.7615     6.6542     6.6496     0.0675     0.1962     0.0386    10.3452     0.1195     0.0151     0.0014    45.9914    -0.2086     0.8538   132.3322   121.5679    64.3006    64.2447    -0.1006   202.9345     1.0571   138.8306     2.7654     6.7347     6.7299     0.0000  2538.0000     0.0000     0.4527     0.4086     0.0000     0.0000     0.0283     0.1104     0.0000
   4053.5000     5.0134     4.9637   923.2335   126.0236    -1.7615     6.6482     6.6496     0.0675     0.1962     0.0386    10.3452     0.1195     0.0151     0.0014    45.9914    -0.1564     0.8538   132.3322   121.5745    64.2952    64.2447    -0.0755   202.9477     1.0571   138.8489     2.7654     6.7285     6.7299     0.0000  2604.0000     0.0000     0.4527     0.4086     0.0000     0.0000     0.0283     0.1104     0.0000
   4054.0000     5.0134     4.9637   913.2795   126.0236    -1.7615     6.6510     6.6496     0.0675     0.1962     0.0386    10.3452     0.1195     0.0151     0.0014    45.9914    -0.1043     0.8538   132.3322   121.5811    64.2732    64.2447    -0.0503   202.9441     1.0571   138.8673     2.7654     6.7314     6.7299     0.0000  2533.0000     0.0000     0.4527     0.4086     0.0000     0.0000     0.0283     0.1104     0.0000
   4054.5000     5.0134     4.9637   913.2795   126.0236    -1.7615     6.6551     6.6496     0.0675     0.1962     0.0386    10.3452     0.1195     0.0151     0.0014    45.9914    -0.0521     0.8538   132.3322   121.5878    64.2580    64.2447    -0.0252   202.9366     1.0571   138.8754     2.7654     6.7356     6.7299     0.0000  2533.0000     0.0000     0.4527     0.4086     0.0000     0.0000     0.0283     0.1104     0.0000
   4055.0000     5.0134     4.9637   913.2795   126.0236    -1.7615     6.6496     6.6496     0.0675     0.1962     0.0386    10.3452     0.1195     0.0151     0.0014    45.9914     0.0000     0.8538   132.3322   121.5944    64.2447    64.2447     0.0000   202.9518     1.0571   138.9035     2.7654     6.7299     6.7299     0.0000  2533.0000     0.0000     0.4527     0.4086     0.0000     0.0000     0.0283     0.1104     0.0000
