~VERSION INFORMATION
VERS.           1.2   :CWLS Log ASCII Standard - VERSION 1.2
WRAP.           NO    :One Line per depth step
PROD.  Schlumberger   :LAS Producer
PROG.  DLIS to ASCII 17C0-152                          :LAS Program name and version
CREA.        2011/10/27 17:25                          :LAS Creation date {YYYY/MM/DD hh:mm}
DLIS_CREA.  2011-Oct-27 07:30                          :DLIS Creation date and time {YYYY-MMM-DD hh:mm}
SOURCE.     9895fb31-02c7-4189-bf8e-52df0b775dd1       :DLIS File Name
#--------------------------------------------------
~WELL INFORMATION
#MNEM.UNIT      DATA             DESCRIPTION
#---- ------ --------------   -----------------------------
STRT .F      3344.0000       :START DEPTH     
STOP .F      3862.5000       :STOP DEPTH     
STEP .F       0.5000         :STEP       
NULL .          -999.25      :NULL VALUE
COMP .                 COMPANY:  SWEPI LP                           
WELL .                    WELL:  Harper Hill 2-29                   
FLD  .                   FIELD:  Swan                               
LOC  .                LOCATION:                                     
CNTY .                  COUNTY:  Moffat                             
STAT .                   STATE:  Colorado                           
CTRY .                 COUNTRY:                                     
SRVC .         SERVICE COMPANY:  Schlumberger                       
API  .              API NUMBER:  05-0081-07659                      
DATE .                LOG DATE:  26-Oct-2011
UWI  .          UNIQUE WELL ID:                                     
#-----------------------------------------------------------------------------
~PARAMETER INFORMATION
#MNEM.UNIT    VALUE                      DESCRIPTION
#---- -----   --------------------       ------------------------
CN   .        SWEPI LP                   :Company Name
WN   .        Harper Hill 2-29           :Well Name
FN   .        Swan                       :Field Name
FL   .                                   :Field Location
FL1  .                                   :Field Location Line 1
COUN .        Moffat                     :County or Rig Name
STAT .        Colorado                   :State or Province
NATI .                                   :Nation
DATE .        26-Oct-2011                :Date as Month-Day-Year
APIN .        05-0081-07659              :API Serial Number
SECT .        29                         :Section
TOWN .        5N                         :Township
RANG .        90W                        :Range
DMF  .        Kelly Bushing              :Drilling Measured From
LMF  .        Kelly Bushing              :Log Measured From
PDAT .        Ground Level               :Permanent Datum
ENGI .        Mark Kast                  :Engineer's Name
WITN .        Tony                       :Witness's Name
LATI .                                   :Latitude
LONG .                                   :Longitude
LUL  .        Rock Springs               :Logging Unit Location
LUN  .              2271                 :Logging Unit Number
RUN  .        Two                        :Run Number
SON  .                                   :Service Order Number
BHT  .DEGF     127.00000                 :Bottom Hole Temperature (used in calculations)
BS   .IN         6.75000                 :Bit Size
DFD  .LB/G       7.90000                 :Drilling Fluid Density
DFV  .S         44.00000                 :Drilling Fluid Viscosity
DFL  .C3        16.60000                 :Drilling Fluid Loss
RMFS .                                   :Resistivity of Mud Filtrate Sample
EKB  .F       6597.00000                 :Elevation of Kelly Bushing
EGL  .F       6585.00000                 :Elevation of Ground Level
BLI  .                                   :Bottom Log Interval
BSAL .PPM     44500.00000                :Borehole Salinity
FLEV .                                   :Fluid Level
MCST .                                   :Mud Cake Sample Temperature
MFST .                                   :Mud Filtrate Sample Temperature
MRT  .DEGF     127.00000                 :Maximum Recorded Temperature
MST  .                                   :Mud Sample Temperature
RMCS .                                   :Resistivity of Mud Cake Sample
RMS  .                                   :Resistivity of Mud Sample
RW   .OHMM       1.00000                 :Resistivity of Connate Water
TDD  .F       4480.00000                 :Total Depth - Driller
TDL  .F       4482.00000                 :Total Depth - Logger
TLI  .                                   :Top Log Interval
HIDE .                                   :Header Identifier
MATR .        SAND                       :Rock Matrix for Neutron Porosity Corrections
DFT  .        OBM                        :Drilling Fluid Type
DFPH .                                   :Drilling Fluid PH
MCSS .        N/A                        :Mud Cake Sample Source
MFSS .        N/A                        :Mud Filtrate Sample Source
MSS  .        N/A                        :Mud Sample Source
OS1  .                                   :Other Services Line 1
OS2  .                                   :Other Services Line 2
OS3  .                                   :Other Services Line 3
OS4  .                                   :Other Services Line 4
OS5  .                                   :Other Services Line 5
R1   .                                   :Remark Line 1
R2   .                                   :Remark Line 2
R3   .                                   :Remark Line 3
R4   .                                   :Remark Line 4
R5   .                                   :Remark Line 5
R6   .                                   :Remark Line 6
R7   .                                   :Remark Line 7
R8   .                                   :Remark Line 8
TCS  .        20 00                      :Time Circulation Stopped
TLAB .                                   :Time Logger At Bottom
EPD  .F         6585.000000              :Elevation of Permanent Datum above Mean Sea Level
APD  .F          12.000000               :Elevation of Depth Reference (LMF) above Permanent Datum
#-----------------------------------------------------------------------------
~CURVE INFORMATION
#MNEM.UNIT   API CODE                                  DESCRIPTION
#---- -----  --------                                  -----------------------
DEPT .F                                                :DEPTH (BOREHOLE) {F12.4}
C1_OBMT.IN                                             :OBMT Caliper 1 {F11.4}
C2_OBMT.IN                                             :OBMT Caliper 2 {F11.4}
CDF  .LBF                                              :Calibrated Downhole Force {F11.4}
CTEM .DEGF                                             :Cartridge Temperature {F11.4}
DCAL .IN                                               :Differential Caliper {F11.4}
DEVI .DEG                                              :Hole Deviation {F11.4}
DEVIM.DEG                                              :Memorized Deviation {F11.4}
DWAL_WALK2.                                            :Dry Weight Fraction Pseudo Aluminum (SpectroLith WALK2 Model) {F11.4}
DWCA_WALK2.                                            :Dry Weight Fraction Calcium (SpectroLith WALK2 Model) {F11.4}
DWFE_WALK2.                                            :Dry Weight Fraction Iron + 0.14 Aluminum (SpectroLith WALK2 Model) {F11.4}
DWGD_WALK2.PPM                                         :Dry Weight Fraction Gadolinium (SpectroLith WALK2 Model) {F11.4}
DWSI_WALK2.                                            :Dry Weight Fraction Silicon (SpectroLith WALK2 Model) {F11.4}
DWSU_WALK2.                                            :Dry Weight Fraction Sulfur (SpectroLith WALK2 Model) {F11.4}
DWTI_WALK2.                                            :Dry Weight Fraction Titanium (SpectroLith WALK2 Model) {F11.4}
ECST .DEGF                                             :ECS Temperature {F11.4}
ED   .F                                                :East Departure {F11.4}
ESUF_WALK2.                                            :Elemental Statistical Uncertainty Factor (SpectroLith WALK2 Model) {F11.4}
GR_EDTC.GAPI                                           :EDTC Gamma Ray {F11.4}
GTEM .DEGF                                             :Generalized Borehole Temperature {F11.4}
HAZI .DEG                                              :Hole Azimuth {F11.4}
HAZIM.DEG                                              :Hole Azimuth {F11.4}
ND   .F                                                :North Departure {F11.4}
P1AZ .DEG                                              :Pad 1 Azimuth {F11.4}
QCPMT.                                                 :Photomultiplier Tube Quality Control {F11.4}
RB   .DEG                                              :Relative Bearing {F11.4}
RHGE_WALK2.G/C3                                        :Matrix Density from Elemental Concentrations (SpectroLith WALK2 Model) {F11.4}
SDEV .DEG                                              :Sonde Deviation {F11.4}
SDEVM.DEG                                              :Sonde Deviation {F11.4}
STIT .F                                                :Stuck Tool Indicator, Total {F11.4}
TENS .LBF                                              :Cable Tension {F11.4}
WANH_WALK2.                                            :Dry Weight Fraction Anhydrite/Gypsum (SpectroLith WALK2 Model) {F11.4}
WCAR_WALK2.                                            :Dry Weight Fraction Carbonate (SpectroLith WALK2 Model) {F11.4}
WCLA_WALK2.                                            :Dry Weight Fraction Clay (SpectroLith WALK2 Model) {F11.4}
WCOA_WALK2.                                            :Dry Weight Fraction Coal (SpectroLith WALK2 Model) {F11.4}
WEVA_WALK2.                                            :Dry Weight Fraction Salt (SpectroLith WALK2 Model) {F11.4}
WPYR_WALK2.                                            :Dry Weight Fraction Pyrite (SpectroLith WALK2 Model) {F11.4}
WQFM_WALK2.                                            :Dry Weight Fraction Quartz+Feldspar+Mica (QFM) (SpectroLith WALK2 Model) {F11.4}
WSID_WALK2.                                            :Dry Weight Fraction Siderite (SpectroLith WALK2 Model) {F11.4}
#-----------------------------------------------------------------------------
# 
#      DEPT      C1_OBMT    C2_OBMT      CDF        CTEM       DCAL       DEVI      DEVIM    DWAL_WALK2 DWCA_WALK2 DWFE_WALK2 DWGD_WALK2 DWSI_WALK2 DWSU_WALK2 DWTI_WALK2    ECST        ED     ESUF_WALK2  GR_EDTC      GTEM       HAZI      HAZIM        ND        P1AZ      QCPMT        RB     RHGE_WALK2    SDEV      SDEVM       STIT       TENS    WANH_WALK2 WCAR_WALK2 WCLA_WALK2 WCOA_WALK2 WEVA_WALK2 WPYR_WALK2 WQFM_WALK2 WSID_WALK2
#
~A  
# ...
   3477.0000     7.2057     7.1967  1049.4360   124.0472     0.4512     8.2958     7.8629     0.0804     0.0599     0.0451     3.9808     0.2568     0.0162     0.0045    49.5030   -17.0235     0.7247   147.0312   113.9550   193.9452   193.1471    17.7650    21.8266     0.0000   187.7944     2.7554     8.5731     8.1189     0.0000  2417.0000     0.0000     0.0861     0.5214     0.0000     0.0000     0.0303     0.3623     0.0000
   3477.5000     7.2273     7.2604  1049.4360   124.0472     0.4938     8.2990     7.8633     0.0802     0.0697     0.0449     8.1554     0.2456     0.0173     0.0042    48.3325   -17.0391     0.7257   152.5235   113.9616   193.9351   193.0825    17.6983    21.4835     0.0000   187.4649     2.7581     8.5781     8.1210     0.0000  2314.0000     0.0000     0.1126     0.5197     0.0000     0.0000     0.0323     0.3354     0.0000
   3478.0000     7.2300     7.2673   952.3845   124.0472     0.4986     8.2915     7.8244     0.0736     0.0918     0.0419    11.8646     0.2308     0.0131     0.0032    48.3325   -17.0545     0.7376   155.0164   113.9682   193.9292   193.0363    17.6319    21.4222     0.2882   187.4103     2.7513     8.5704     8.0803     0.0000  2184.0000     0.0000     0.1719     0.4623     0.0000     0.0000     0.0245     0.3414     0.0000
   3478.5000     7.2300     7.2690  1039.8375   124.0472     0.4995     8.2772     7.7837     0.0662     0.1127     0.0392    13.4433     0.2181     0.0023     0.0024    48.3325   -17.0698     0.7277   156.7291   113.9748   193.9255   192.9768    17.5657    21.1713     0.8321   187.1661     2.7372     8.5554     8.0375     0.0000  2408.0000     0.0000     0.2280     0.3971     0.0000     0.0000     0.0044     0.3705     0.0000
   3479.0000     7.2334     7.2690  1034.8606   124.0472     0.5012     8.3037     7.7961     0.0619     0.1190     0.0370    12.0347     0.2181     0.0000     0.0020    48.3325   -17.0849     0.7376   149.9396   113.9815   193.9414   192.9220    17.4997    20.7769     1.3031   186.7596     2.7315     8.5835     8.0508     0.0000  2310.0000     0.0000     0.2450     0.3588     0.0000     0.0000     0.0000     0.3961     0.0000
   3479.5000     7.2378     7.2690   952.3845   124.0472     0.5034     8.2798     7.7536     0.0632     0.1123     0.0377     8.9005     0.2236     0.0000     0.0022    48.3325   -17.1000     0.7588   142.8531   113.9881   193.9257   192.8715    17.4337    20.7214     1.0660   186.7208     2.7317     8.5587     8.0065     0.0000  2222.0000     0.0000     0.2271     0.3701     0.0000     0.0000     0.0000     0.4028     0.0000
   3480.0000     7.2404     7.2638  1030.2390   124.0472     0.5021     8.2685     7.7123     0.0637     0.0980     0.0379     4.7254     0.2395     0.0000     0.0027    48.3325   -17.1150     0.7806   146.1770   113.9947   193.9198   192.8136    17.3681    20.4683     0.0000   186.4764     2.7295     8.5471     7.9632     0.0000  2404.0000     0.0000     0.1887     0.3749     0.0000     0.0000     0.0000     0.4365     0.0000
   3480.5000     7.2767     7.2982   991.1340   124.0472     0.5375     8.2834     7.7092     0.0669     0.0876     0.0389     3.8216     0.2467     0.0049     0.0032    48.3325   -17.1299     0.7755   148.5129   114.0013   193.9265   192.7746    17.3027    20.0038     0.0000   186.0100     2.7355     8.5654     7.9625     0.0000  2279.0000     0.0000     0.1605     0.4033     0.0000     0.0000     0.0092     0.4270     0.0000
   3481.0000     7.3167     7.3395   952.3845   124.0472     0.5781     8.2630     7.6678     0.0669     0.0762     0.0389     6.2106     0.2602     0.0032     0.0039    48.3325   -17.1446     0.7939   143.1143   114.0079   193.9181   192.7202    17.2375    19.9674     0.2246   185.9826     2.7313     8.5471     7.9217     0.0000  2252.0000     0.0000     0.1300     0.4026     0.0000     0.0000     0.0059     0.4615     0.0000
   3481.5000     7.3382     7.3730  1049.4360   124.0472     0.6056     8.2577     7.6203     0.0698     0.0690     0.0407     9.6699     0.2632     0.0021     0.0043    48.3325   -17.1592     0.7951   135.8433   114.0145   193.9154   192.6368    17.1726    20.3479     0.8216   186.3617     2.7322     8.5432     7.8732     0.0000  2424.0000     0.0000     0.1106     0.4287     0.0000     0.0000     0.0040     0.4567     0.0000
   3482.0000     7.2758     7.3455   991.1340   124.0472     0.5606     8.2640     7.6164     0.0714     0.0727     0.0413    11.7147     0.2563     0.0067     0.0036    48.3325   -17.1737     0.7487   137.6873   114.0211   193.9090   192.6010    17.1079    20.5906     0.3493   186.6082     2.7394     8.5451     7.8650     0.0000  2279.0000     0.0000     0.1206     0.4430     0.0000     0.0000     0.0125     0.4240     0.0000
   3482.5000     7.2716     7.3516   913.2795   124.0472     0.5615     8.2482     7.5775     0.0723     0.0848     0.0418    11.3118     0.2407     0.0102     0.0025    48.3325   -17.1881     0.7148   149.3412   114.0277   193.8935   192.5311    17.0434    20.5660     0.5630   186.5994     2.7465     8.5282     7.8238     0.0000  2101.0000     0.0000     0.1530     0.4508     0.0000     0.0000     0.0190     0.3771     0.0000
   3483.0000     7.2499     7.3008  1034.8606   124.0472     0.5253     8.2464     7.5390     0.0712     0.0954     0.0410    11.8004     0.2305     0.0116     0.0022    48.3325   -17.2023     0.6911   150.7722   114.0343   193.8854   192.4764    16.9792    20.6024     0.1573   186.6434     2.7485     8.5247     7.7819     0.0000  2441.0000     0.0000     0.1816     0.4405     0.0000     0.0000     0.0217     0.3562     0.0000
   3483.5000     7.1909     7.2268  1059.3900   124.0472     0.4588     8.2490     7.5346     0.0694     0.0956     0.0397    12.1714     0.2336     0.0114     0.0029    48.3325   -17.2165     0.7011   152.4333   114.0409   193.8860   192.4461    16.9151    20.0130     0.3948   186.0599     2.7459     8.5229     7.7734     0.0000  2345.0000     0.0000     0.1821     0.4251     0.0000     0.0000     0.0214     0.3714     0.0000
   3484.0000     7.1988     7.2243   961.9830   124.0472     0.4615     8.2243     7.4865     0.0658     0.0996     0.0376    14.3033     0.2353     0.0078     0.0037    48.3325   -17.2305     0.7124   146.0078   114.0475   193.8553   192.3458    16.8513    19.8907     0.4864   185.9696     2.7385     8.4976     7.7235     0.0000  2196.0000     0.0000     0.1929     0.3930     0.0000     0.0000     0.0146     0.3996     0.0000
   3484.5000     7.1988     7.2225   991.1340   124.0472     0.4606     8.2244     7.4415     0.0622     0.1045     0.0365    14.2627     0.2351     0.0014     0.0034    48.3325   -17.2443     0.7569   150.1859   114.0541   193.8477   192.2881    16.7879    19.9939     1.2267   186.0792     2.7296     8.4977     7.6762     0.0000  2322.0000     0.0000     0.2061     0.3618     0.0000     0.0000     0.0026     0.4295     0.0000
   3485.0000     7.1927     7.2182   981.5355   124.0472     0.4554     8.2175     7.4400     0.0655     0.1015     0.0387    11.8848     0.2324     0.0000     0.0034    48.3325   -17.2581     0.7644   147.7196   114.0608   193.8318   192.2012    16.7246    20.0604     0.9540   186.1609     2.7316     8.4900     7.6742     0.0000  2245.0000     0.0000     0.1981     0.3911     0.0000     0.0000     0.0000     0.4108     0.0000
   3485.5000     7.1884     7.2225   952.3845   124.0472     0.4554     8.1873     7.3910     0.0716     0.0884     0.0423     5.5711     0.2369     0.0000     0.0037    48.3325   -17.2717     0.7821   146.8742   114.0674   193.8083   192.1494    16.6615    20.2245     0.1888   186.3470     2.7360     8.4580     7.6226     0.0000  2214.0000     0.0000     0.1629     0.4439     0.0000     0.0000     0.0000     0.3932     0.0000
   3486.0000     7.1822     7.2217  1049.4360   124.0472     0.4519     8.1920     7.3411     0.0770     0.0701     0.0448     1.6242     0.2493     0.0037     0.0044    48.3325   -17.2852     0.8366   141.8884   114.0740   193.7858   192.0975    16.5988    20.0708     0.6654   186.2171     2.7418     8.4624     7.5698     0.0000  2408.0000     0.0000     0.1136     0.4915     0.0000     0.0000     0.0069     0.3881     0.0000
