~VERSION INFORMATION
VERS.           1.2   :CWLS Log ASCII Standard - VERSION 1.2
WRAP.           NO    :One Line per depth step
PROD.  Schlumberger   :LAS Producer
PROG.  DLIS to ASCII 17C0-152                          :LAS Program name and version
CREA.        2011/10/27 17:24                          :LAS Creation date {YYYY/MM/DD hh:mm}
DLIS_CREA.  2011-Oct-27 07:22                          :DLIS Creation date and time {YYYY-MMM-DD hh:mm}
SOURCE.     7e486f41-920f-449c-9fc4-a1d2576f3c93       :DLIS File Name
#--------------------------------------------------
~WELL INFORMATION
#MNEM.UNIT      DATA             DESCRIPTION
#---- ------ --------------   -----------------------------
STRT .F      3201.5000       :START DEPTH     
STOP .F      4055.0000       :STOP DEPTH     
STEP .F       0.5000         :STEP       
NULL .          -999.25      :NULL VALUE
COMP .                 COMPANY:  SWEPI LP                           
WELL .                    WELL:  Harper Hill 2-29                   
FLD  .                   FIELD:  Swan                               
LOC  .                LOCATION:                                     
CNTY .                  COUNTY:  Moffat                             
STAT .                   STATE:  Colorado                           
CTRY .                 COUNTRY:                                     
SRVC .         SERVICE COMPANY:  Schlumberger                       
API  .              API NUMBER:  05-0081-07659                      
DATE .                LOG DATE:  26-Oct-2011
UWI  .          UNIQUE WELL ID:                                     
#-----------------------------------------------------------------------------
~PARAMETER INFORMATION
#MNEM.UNIT    VALUE                      DESCRIPTION
#---- -----   --------------------       ------------------------
CN   .        SWEPI LP                   :Company Name
WN   .        Harper Hill 2-29           :Well Name
FN   .        Swan                       :Field Name
FL   .                                   :Field Location
FL1  .                                   :Field Location Line 1
COUN .        Moffat                     :County or Rig Name
STAT .        Colorado                   :State or Province
NATI .                                   :Nation
DATE .        26-Oct-2011                :Date as Month-Day-Year
APIN .        05-0081-07659              :API Serial Number
SECT .        29                         :Section
TOWN .        5N                         :Township
RANG .        90W                        :Range
DMF  .        Kelly Bushing              :Drilling Measured From
LMF  .        Kelly Bushing              :Log Measured From
PDAT .        Ground Level               :Permanent Datum
ENGI .        Mark Kast                  :Engineer's Name
WITN .        Tony                       :Witness's Name
LATI .                                   :Latitude
LONG .                                   :Longitude
LUL  .        Rock Springs               :Logging Unit Location
LUN  .              2271                 :Logging Unit Number
RUN  .        Two                        :Run Number
SON  .                                   :Service Order Number
BHT  .DEGF     127.00000                 :Bottom Hole Temperature (used in calculations)
BS   .IN         6.75000                 :Bit Size
DFD  .LB/G       7.90000                 :Drilling Fluid Density
DFV  .S         44.00000                 :Drilling Fluid Viscosity
DFL  .C3        16.60000                 :Drilling Fluid Loss
RMFS .                                   :Resistivity of Mud Filtrate Sample
EKB  .F       6597.00000                 :Elevation of Kelly Bushing
EGL  .F       6585.00000                 :Elevation of Ground Level
BLI  .                                   :Bottom Log Interval
BSAL .PPM     44500.00000                :Borehole Salinity
FLEV .                                   :Fluid Level
MCST .                                   :Mud Cake Sample Temperature
MFST .                                   :Mud Filtrate Sample Temperature
MRT  .DEGF     127.00000                 :Maximum Recorded Temperature
MST  .                                   :Mud Sample Temperature
RMCS .                                   :Resistivity of Mud Cake Sample
RMS  .                                   :Resistivity of Mud Sample
RW   .OHMM       1.00000                 :Resistivity of Connate Water
TDD  .F       4480.00000                 :Total Depth - Driller
TDL  .F       4482.00000                 :Total Depth - Logger
TLI  .                                   :Top Log Interval
HIDE .                                   :Header Identifier
MATR .        SAND                       :Rock Matrix for Neutron Porosity Corrections
DFT  .        OBM                        :Drilling Fluid Type
DFPH .                                   :Drilling Fluid PH
MCSS .        N/A                        :Mud Cake Sample Source
MFSS .        N/A                        :Mud Filtrate Sample Source
MSS  .        N/A                        :Mud Sample Source
OS1  .                                   :Other Services Line 1
OS2  .                                   :Other Services Line 2
OS3  .                                   :Other Services Line 3
OS4  .                                   :Other Services Line 4
OS5  .                                   :Other Services Line 5
R1   .                                   :Remark Line 1
R2   .                                   :Remark Line 2
R3   .                                   :Remark Line 3
R4   .                                   :Remark Line 4
R5   .                                   :Remark Line 5
R6   .                                   :Remark Line 6
R7   .                                   :Remark Line 7
R8   .                                   :Remark Line 8
TCS  .        20 00                      :Time Circulation Stopped
TLAB .                                   :Time Logger At Bottom
EPD  .F         6585.000000              :Elevation of Permanent Datum above Mean Sea Level
APD  .F          12.000000               :Elevation of Depth Reference (LMF) above Permanent Datum
#-----------------------------------------------------------------------------
~CURVE INFORMATION
#MNEM.UNIT   API CODE                                  DESCRIPTION
#---- -----  --------                                  -----------------------
DEPT .F                                                :DEPTH (BOREHOLE) {F12.4}
C1_OBMT.IN                                             :OBMT Caliper 1 {F11.4}
C2_OBMT.IN                                             :OBMT Caliper 2 {F11.4}
CDF  .LBF                                              :Calibrated Downhole Force {F11.4}
CTEM .DEGF                                             :Cartridge Temperature {F11.4}
DCAL .IN                                               :Differential Caliper {F11.4}
DEVI .DEG                                              :Hole Deviation {F11.4}
DEVIM.DEG                                              :Memorized Deviation {F11.4}
DWAL_WALK2.                                            :Dry Weight Fraction Pseudo Aluminum (SpectroLith WALK2 Model) {F11.4}
DWCA_WALK2.                                            :Dry Weight Fraction Calcium (SpectroLith WALK2 Model) {F11.4}
DWFE_WALK2.                                            :Dry Weight Fraction Iron + 0.14 Aluminum (SpectroLith WALK2 Model) {F11.4}
DWGD_WALK2.PPM                                         :Dry Weight Fraction Gadolinium (SpectroLith WALK2 Model) {F11.4}
DWSI_WALK2.                                            :Dry Weight Fraction Silicon (SpectroLith WALK2 Model) {F11.4}
DWSU_WALK2.                                            :Dry Weight Fraction Sulfur (SpectroLith WALK2 Model) {F11.4}
DWTI_WALK2.                                            :Dry Weight Fraction Titanium (SpectroLith WALK2 Model) {F11.4}
ECST .DEGF                                             :ECS Temperature {F11.4}
ED   .F                                                :East Departure {F11.4}
ESUF_WALK2.                                            :Elemental Statistical Uncertainty Factor (SpectroLith WALK2 Model) {F11.4}
GR_EDTC.GAPI                                           :EDTC Gamma Ray {F11.4}
GTEM .DEGF                                             :Generalized Borehole Temperature {F11.4}
HAZI .DEG                                              :Hole Azimuth {F11.4}
HAZIM.DEG                                              :Hole Azimuth {F11.4}
ND   .F                                                :North Departure {F11.4}
P1AZ .DEG                                              :Pad 1 Azimuth {F11.4}
QCPMT.                                                 :Photomultiplier Tube Quality Control {F11.4}
RB   .DEG                                              :Relative Bearing {F11.4}
RHGE_WALK2.G/C3                                        :Matrix Density from Elemental Concentrations (SpectroLith WALK2 Model) {F11.4}
SDEV .DEG                                              :Sonde Deviation {F11.4}
SDEVM.DEG                                              :Sonde Deviation {F11.4}
STIT .F                                                :Stuck Tool Indicator, Total {F11.4}
TENS .LBF                                              :Cable Tension {F11.4}
WANH_WALK2.                                            :Dry Weight Fraction Anhydrite/Gypsum (SpectroLith WALK2 Model) {F11.4}
WCAR_WALK2.                                            :Dry Weight Fraction Carbonate (SpectroLith WALK2 Model) {F11.4}
WCLA_WALK2.                                            :Dry Weight Fraction Clay (SpectroLith WALK2 Model) {F11.4}
WCOA_WALK2.                                            :Dry Weight Fraction Coal (SpectroLith WALK2 Model) {F11.4}
WEVA_WALK2.                                            :Dry Weight Fraction Salt (SpectroLith WALK2 Model) {F11.4}
WPYR_WALK2.                                            :Dry Weight Fraction Pyrite (SpectroLith WALK2 Model) {F11.4}
WQFM_WALK2.                                            :Dry Weight Fraction Quartz+Feldspar+Mica (QFM) (SpectroLith WALK2 Model) {F11.4}
WSID_WALK2.                                            :Dry Weight Fraction Siderite (SpectroLith WALK2 Model) {F11.4}
#-----------------------------------------------------------------------------
# 
#      DEPT      C1_OBMT    C2_OBMT      CDF        CTEM       DCAL       DEVI      DEVIM    DWAL_WALK2 DWCA_WALK2 DWFE_WALK2 DWGD_WALK2 DWSI_WALK2 DWSU_WALK2 DWTI_WALK2    ECST        ED     ESUF_WALK2  GR_EDTC      GTEM       HAZI      HAZIM        ND        P1AZ      QCPMT        RB     RHGE_WALK2    SDEV      SDEVM       STIT       TENS    WANH_WALK2 WCAR_WALK2 WCLA_WALK2 WCOA_WALK2 WEVA_WALK2 WPYR_WALK2 WQFM_WALK2 WSID_WALK2
#
~A  
# ...
   3762.0000     7.1103     7.1856  1010.6865   127.0119     0.3978     3.4070     4.1014     0.0637     0.1155     0.0378    11.0759     0.2192     0.0000     0.0027    47.1620   -31.2939     0.8305   141.1492   117.7218   121.8345   104.7204    -9.3087   355.2290     0.3299   233.3443     2.7324     3.4634     4.1821     0.0000  2542.0000     0.0000     0.2357     0.3747     0.0000     0.0000     0.0000     0.3897     0.0000
   3762.5000     7.1129     7.1804  1020.2850   127.0700     0.3966     3.4146     4.1302     0.0647     0.1207     0.0381    11.4253     0.2115     0.0026     0.0026    47.1620   -31.2591     0.7588   139.5998   117.7284   121.2536   104.2922    -9.3177   355.0568     0.5767   233.7528     2.7370     3.4712     4.2119     0.0000  2499.0000     0.0000     0.2498     0.3839     0.0000     0.0000     0.0049     0.3615     0.0000
   3763.0000     7.1129     7.1778   952.3845   126.9538     0.3953     3.4300     4.1648     0.0665     0.1143     0.0374     9.6208     0.2175     0.0166     0.0024    45.9914   -31.2240     0.7116   139.7560   117.7350   120.7508   103.8615    -9.3265   354.9118     0.5962   234.1106     2.7510     3.4871     4.2477     0.0000  2339.0000     0.0000     0.2324     0.3996     0.0000     0.0000     0.0311     0.3369     0.0000
   3763.5000     7.1042     7.1787   976.5585   127.1354     0.3914     3.4447     4.1983     0.0617     0.1029     0.0345     6.2734     0.2393     0.0171     0.0022    45.9914   -31.1886     0.6953   143.9120   117.7417   120.1807   103.3932    -9.3351   355.0011     0.0000   234.7698     2.7442     3.5022     4.2825     0.0000  2460.0000     0.0000     0.2019     0.3575     0.0000     0.0000     0.0319     0.4087     0.0000
   3764.0000     7.1042     7.1856  1044.8146   126.9538     0.3948     3.4554     4.2220     0.0573     0.0873     0.0312     4.1264     0.2660     0.0212     0.0022    45.9914   -31.1529     0.6799   143.3068   117.7483   119.6292   103.0613    -9.3435   355.7122     0.0000   236.0332     2.7404     3.5133     4.3072     0.0000  2581.0000     0.0000     0.1599     0.3188     0.0000     0.0000     0.0396     0.4817     0.0000
   3764.5000     7.1103     7.1881  1005.7095   127.0119     0.3991     3.4667     4.2541     0.0494     0.0889     0.0278     2.6289     0.2771     0.0116     0.0019    45.9914   -31.1169     0.6966   138.4391   117.7549   119.1079   102.6865    -9.3517   355.5886     0.4203   236.4305     2.7231     3.5251     4.3406     0.0000  2453.0000     0.0000     0.1643     0.2491     0.0000     0.0000     0.0218     0.5648     0.0000
   3765.0000     7.1155     7.1847   918.2565   127.0700     0.4000     3.4829     4.2878     0.0490     0.0985     0.0275     2.7080     0.2667     0.0107     0.0025    45.9914   -31.0805     0.7175   134.9343   117.7615   118.5505   102.3394    -9.3598   355.4922     0.6727   236.8917     2.7229     3.5418     4.3756     0.0000  2301.0000     0.0000     0.1900     0.2455     0.0000     0.0000     0.0200     0.5446     0.0000
   3765.5000     7.1129     7.1761  1001.0880   126.9538     0.3944     3.4968     4.3169     0.0491     0.1114     0.0281     3.6754     0.2509     0.0039     0.0034    45.9914   -31.0438     0.7229   134.9343   117.7681   118.0432   101.9630    -9.3677   355.4091     0.5658   237.3157     2.7183     3.5560     4.4057     0.0000  2475.0000     0.0000     0.2247     0.2465     0.0000     0.0000     0.0073     0.5215     0.0000
   3766.0000     7.1051     7.1804  1025.2621   127.0119     0.3927     3.5096     4.3491     0.0495     0.1255     0.0284     6.7765     0.2337     0.0039     0.0035    45.9914   -31.0069     0.6908   137.2708   117.7747   117.4849   101.6067    -9.3754   355.1073     0.1475   237.5722     2.7211     3.5693     4.4392     0.0000  2531.0000     0.0000     0.2626     0.2504     0.0000     0.0000     0.0072     0.4798     0.0000
   3766.5000     7.1051     7.1881   952.3845   126.9538     0.3965     3.5264     4.3860     0.0455     0.1341     0.0264     8.2629     0.2304     0.0021     0.0028    45.9914   -30.9695     0.6973   134.7396   117.7813   117.0210   101.2510    -9.3830   355.1796     0.2574   238.1083     2.7169     3.5868     4.4777     0.0000  2367.0000     0.0000     0.2857     0.2152     0.0000     0.0000     0.0039     0.4952     0.0000
   3767.0000     7.1103     7.1881   937.8090   127.0700     0.3991     3.5457     4.4114     0.0444     0.1305     0.0257     6.6543     0.2365     0.0044     0.0020    45.9914   -30.9319     0.6958   135.5981   117.7879   116.4996   100.8905    -9.3903   355.1641     0.0023   238.6141     2.7179     3.6068     4.5042     0.0000  2401.0000     0.0000     0.2761     0.2057     0.0000     0.0000     0.0083     0.5100     0.0000
   3767.5000     7.1155     7.1830  1020.2850   126.9538     0.3992     3.5584     4.4479     0.0450     0.1173     0.0260     4.2320     0.2510     0.0042     0.0023    45.9914   -30.8939     0.7038   133.7069   117.7945   116.0005   100.5131    -9.3975   354.8574     0.5214   238.8062     2.7159     3.6198     4.5420     0.0000  2563.0000     0.0000     0.2407     0.2104     0.0000     0.0000     0.0079     0.5410     0.0000
   3768.0000     7.1519     7.2165   991.1340   127.0700     0.4341     3.5725     4.4850     0.0497     0.1012     0.0291     4.4649     0.2612     0.0000     0.0032    45.9914   -30.8556     0.7412   133.5122   117.8011   115.4817   100.1756    -9.4045   355.1828     0.3237   239.6509     2.7138     3.6350     4.5815     0.0000  2405.0000     0.0000     0.1971     0.2515     0.0000     0.0000     0.0000     0.5514     0.0000
   3768.5000     7.1146     7.1821   942.4305   126.8884     0.3983     3.5908     4.5160     0.0518     0.0973     0.0302     6.4234     0.2621     0.0000     0.0037    48.3325   -30.8170     0.7610   134.7955   117.8077   115.0427    99.8037    -9.4113   355.2164     0.6779   240.1233     2.7152     3.6533     4.6129     0.0000  2385.0000     0.0000     0.1868     0.2701     0.0000     0.0000     0.0000     0.5431     0.0000
   3769.0000     7.1155     7.1899   991.1340   126.9538     0.4026     3.6037     4.5491     0.0502     0.1077     0.0294     7.7160     0.2526     0.0000     0.0032    48.3325   -30.7781     0.7476   133.9608   117.8143   114.5109    99.4577    -9.4179   355.5216     0.1785   240.9609     2.7155     3.6668     4.6476     0.0000  2545.0000     0.0000     0.2146     0.2566     0.0000     0.0000     0.0000     0.5288     0.0000
   3769.5000     7.1181     7.1830  1001.0880   126.8375     0.4005     3.6223     4.5864     0.0474     0.1180     0.0278     6.8440     0.2456     0.0000     0.0029    45.9914   -30.7388     0.7599   142.3333   117.8210   113.9847    99.1288    -9.4243   355.8876     0.3787   241.8536     2.7143     3.6860     4.6862     0.0000  2450.0000     0.0000     0.2425     0.2314     0.0000     0.0000     0.0000     0.5261     0.0000
   3770.0000     7.1528     7.1839   932.8320   126.8884     0.4183     3.6343     4.6222     0.0458     0.1224     0.0269     7.3195     0.2432     0.0000     0.0028    45.9914   -30.6991     0.8198   140.9703   117.8276   113.4640    98.8280    -9.4306   355.7623     0.0153   242.2491     2.7133     3.6985     4.7236     0.0000  2307.0000     0.0000     0.2544     0.2176     0.0000     0.0000     0.0000     0.5280     0.0000
   3770.5000     7.1458     7.2182   952.3845   126.4887     0.4319     3.6545     4.6406     0.0497     0.1165     0.0290     8.2733     0.2434     0.0000     0.0035    48.3325   -30.6592     0.7919   149.5124   117.8342   113.0063    98.5077    -9.4367   355.7719     0.1702   242.7164     2.7162     3.7199     4.7436     0.0000  2492.0000     0.0000     0.2384     0.2520     0.0000     0.0000     0.0000     0.5096     0.0000
   3771.0000     7.1441     7.2114  1020.2850   126.4887     0.4277     3.6733     4.6785     0.0517     0.1128     0.0302     8.3741     0.2441     0.0000     0.0035    47.1620   -30.6190     0.7625   150.0965   117.8408   112.5367    98.1657    -9.4426   356.1683     0.3173   243.5831     2.7178     3.7392     4.7829     0.0000  2567.0000     0.0000     0.2284     0.2698     0.0000     0.0000     0.0000     0.5018     0.0000
