~VERSION INFORMATION
VERS.           1.2   :CWLS Log ASCII Standard - VERSION 1.2
WRAP.           NO    :One Line per depth step
PROD.  Schlumberger   :LAS Producer
PROG.  DLIS to ASCII 17C0-152                          :LAS Program name and version
CREA.        2011/10/27 17:25                          :LAS Creation date {YYYY/MM/DD hh:mm}
DLIS_CREA.  2011-Oct-27 07:30                          :DLIS Creation date and time {YYYY-MMM-DD hh:mm}
SOURCE.     9895fb31-02c7-4189-bf8e-52df0b775dd1       :DLIS File Name
#--------------------------------------------------
~WELL INFORMATION
#MNEM.UNIT      DATA             DESCRIPTION
#---- ------ --------------   -----------------------------
STRT .F      3344.0000       :START DEPTH     
STOP .F      3862.5000       :STOP DEPTH     
STEP .F       0.5000         :STEP       
NULL .          -999.25      :NULL VALUE
COMP .                 COMPANY:  SWEPI LP                           
WELL .                    WELL:  Harper Hill 2-29                   
FLD  .                   FIELD:  Swan                               
LOC  .                LOCATION:                                     
CNTY .                  COUNTY:  Moffat                             
STAT .                   STATE:  Colorado                           
CTRY .                 COUNTRY:                                     
SRVC .         SERVICE COMPANY:  Schlumberger                       
API  .              API NUMBER:  05-0081-07659                      
DATE .                LOG DATE:  26-Oct-2011
UWI  .          UNIQUE WELL ID:                                     
#-----------------------------------------------------------------------------
~PARAMETER INFORMATION
#MNEM.UNIT    VALUE                      DESCRIPTION
#---- -----   --------------------       ------------------------
CN   .        SWEPI LP                   :Company Name
WN   .        Harper Hill 2-29           :Well Name
FN   .        Swan                       :Field Name
FL   .                                   :Field Location
FL1  .                                   :Field Location Line 1
COUN .        Moffat                     :County or Rig Name
STAT .        Colorado                   :State or Province
NATI .                                   :Nation
DATE .        26-Oct-2011                :Date as Month-Day-Year
APIN .        05-0081-07659              :API Serial Number
SECT .        29                         :Section
TOWN .        5N                         :Township
RANG .        90W                        :Range
DMF  .        Kelly Bushing              :Drilling Measured From
LMF  .        Kelly Bushing              :Log Measured From
PDAT .        Ground Level               :Permanent Datum
ENGI .        Mark Kast                  :Engineer's Name
WITN .        Tony                       :Witness's Name
LATI .                                   :Latitude
LONG .                                   :Longitude
LUL  .        Rock Springs               :Logging Unit Location
LUN  .              2271                 :Logging Unit Number
RUN  .        Two                        :Run Number
SON  .                                   :Service Order Number
BHT  .DEGF     127.00000                 :Bottom Hole Temperature (used in calculations)
BS   .IN         6.75000                 :Bit Size
DFD  .LB/G       7.90000                 :Drilling Fluid Density
DFV  .S         44.00000                 :Drilling Fluid Viscosity
DFL  .C3        16.60000                 :Drilling Fluid Loss
RMFS .                                   :Resistivity of Mud Filtrate Sample
EKB  .F       6597.00000                 :Elevation of Kelly Bushing
EGL  .F       6585.00000                 :Elevation of Ground Level
BLI  .                                   :Bottom Log Interval
BSAL .PPM     44500.00000                :Borehole Salinity
FLEV .                                   :Fluid Level
MCST .                                   :Mud Cake Sample Temperature
MFST .                                   :Mud Filtrate Sample Temperature
MRT  .DEGF     127.00000                 :Maximum Recorded Temperature
MST  .                                   :Mud Sample Temperature
RMCS .                                   :Resistivity of Mud Cake Sample
RMS  .                                   :Resistivity of Mud Sample
RW   .OHMM       1.00000                 :Resistivity of Connate Water
TDD  .F       4480.00000                 :Total Depth - Driller
TDL  .F       4482.00000                 :Total Depth - Logger
TLI  .                                   :Top Log Interval
HIDE .                                   :Header Identifier
MATR .        SAND                       :Rock Matrix for Neutron Porosity Corrections
DFT  .        OBM                        :Drilling Fluid Type
DFPH .                                   :Drilling Fluid PH
MCSS .        N/A                        :Mud Cake Sample Source
MFSS .        N/A                        :Mud Filtrate Sample Source
MSS  .        N/A                        :Mud Sample Source
OS1  .                                   :Other Services Line 1
OS2  .                                   :Other Services Line 2
OS3  .                                   :Other Services Line 3
OS4  .                                   :Other Services Line 4
OS5  .                                   :Other Services Line 5
R1   .                                   :Remark Line 1
R2   .                                   :Remark Line 2
R3   .                                   :Remark Line 3
R4   .                                   :Remark Line 4
R5   .                                   :Remark Line 5
R6   .                                   :Remark Line 6
R7   .                                   :Remark Line 7
R8   .                                   :Remark Line 8
TCS  .        20 00                      :Time Circulation Stopped
TLAB .                                   :Time Logger At Bottom
EPD  .F         6585.000000              :Elevation of Permanent Datum above Mean Sea Level
APD  .F          12.000000               :Elevation of Depth Reference (LMF) above Permanent Datum
#-----------------------------------------------------------------------------
~CURVE INFORMATION
#MNEM.UNIT   API CODE                                  DESCRIPTION
#---- -----  --------                                  -----------------------
DEPT .F                                                :DEPTH (BOREHOLE) {F12.4}
C1_OBMT.IN                                             :OBMT Caliper 1 {F11.4}
C2_OBMT.IN                                             :OBMT Caliper 2 {F11.4}
CDF  .LBF                                              :Calibrated Downhole Force {F11.4}
CTEM .DEGF                                             :Cartridge Temperature {F11.4}
DCAL .IN                                               :Differential Caliper {F11.4}
DEVI .DEG                                              :Hole Deviation {F11.4}
DEVIM.DEG                                              :Memorized Deviation {F11.4}
DWAL_WALK2.                                            :Dry Weight Fraction Pseudo Aluminum (SpectroLith WALK2 Model) {F11.4}
DWCA_WALK2.                                            :Dry Weight Fraction Calcium (SpectroLith WALK2 Model) {F11.4}
DWFE_WALK2.                                            :Dry Weight Fraction Iron + 0.14 Aluminum (SpectroLith WALK2 Model) {F11.4}
DWGD_WALK2.PPM                                         :Dry Weight Fraction Gadolinium (SpectroLith WALK2 Model) {F11.4}
DWSI_WALK2.                                            :Dry Weight Fraction Silicon (SpectroLith WALK2 Model) {F11.4}
DWSU_WALK2.                                            :Dry Weight Fraction Sulfur (SpectroLith WALK2 Model) {F11.4}
DWTI_WALK2.                                            :Dry Weight Fraction Titanium (SpectroLith WALK2 Model) {F11.4}
ECST .DEGF                                             :ECS Temperature {F11.4}
ED   .F                                                :East Departure {F11.4}
ESUF_WALK2.                                            :Elemental Statistical Uncertainty Factor (SpectroLith WALK2 Model) {F11.4}
GR_EDTC.GAPI                                           :EDTC Gamma Ray {F11.4}
GTEM .DEGF                                             :Generalized Borehole Temperature {F11.4}
HAZI .DEG                                              :Hole Azimuth {F11.4}
HAZIM.DEG                                              :Hole Azimuth {F11.4}
ND   .F                                                :North Departure {F11.4}
P1AZ .DEG                                              :Pad 1 Azimuth {F11.4}
QCPMT.                                                 :Photomultiplier Tube Quality Control {F11.4}
RB   .DEG                                              :Relative Bearing {F11.4}
RHGE_WALK2.G/C3                                        :Matrix Density from Elemental Concentrations (SpectroLith WALK2 Model) {F11.4}
SDEV .DEG                                              :Sonde Deviation {F11.4}
SDEVM.DEG                                              :Sonde Deviation {F11.4}
STIT .F                                                :Stuck Tool Indicator, Total {F11.4}
TENS .LBF                                              :Cable Tension {F11.4}
WANH_WALK2.                                            :Dry Weight Fraction Anhydrite/Gypsum (SpectroLith WALK2 Model) {F11.4}
WCAR_WALK2.                                            :Dry Weight Fraction Carbonate (SpectroLith WALK2 Model) {F11.4}
WCLA_WALK2.                                            :Dry Weight Fraction Clay (SpectroLith WALK2 Model) {F11.4}
WCOA_WALK2.                                            :Dry Weight Fraction Coal (SpectroLith WALK2 Model) {F11.4}
WEVA_WALK2.                                            :Dry Weight Fraction Salt (SpectroLith WALK2 Model) {F11.4}
WPYR_WALK2.                                            :Dry Weight Fraction Pyrite (SpectroLith WALK2 Model) {F11.4}
WQFM_WALK2.                                            :Dry Weight Fraction Quartz+Feldspar+Mica (QFM) (SpectroLith WALK2 Model) {F11.4}
WSID_WALK2.                                            :Dry Weight Fraction Siderite (SpectroLith WALK2 Model) {F11.4}
#-----------------------------------------------------------------------------
# 
#      DEPT      C1_OBMT    C2_OBMT      CDF        CTEM       DCAL       DEVI      DEVIM    DWAL_WALK2 DWCA_WALK2 DWFE_WALK2 DWGD_WALK2 DWSI_WALK2 DWSU_WALK2 DWTI_WALK2    ECST        ED     ESUF_WALK2  GR_EDTC      GTEM       HAZI      HAZIM        ND        P1AZ      QCPMT        RB     RHGE_WALK2    SDEV      SDEVM       STIT       TENS    WANH_WALK2 WCAR_WALK2 WCLA_WALK2 WCOA_WALK2 WEVA_WALK2 WPYR_WALK2 WQFM_WALK2 WSID_WALK2
#
~A  
# ...
   3382.0000     7.5292     7.3017  1010.6865   124.0472     0.6646    11.4541    10.3028     0.0665     0.1212     0.0378     6.2138     0.2090     0.0124     0.0027    49.5030   -13.5111     0.6374   166.4714   112.6994   200.5107   198.8813    31.4525    25.1778     0.0360   184.5673     2.7480    11.8956    10.7013     0.0000  2310.0000     0.0000     0.2511     0.3994     0.0000     0.0000     0.0232     0.3263     0.0000
   3382.5000     7.5292     7.3017  1010.6865   124.0472     0.6646    11.4541    10.2443     0.0666     0.1169     0.0384     6.1503     0.2134     0.0091     0.0025    49.5030   -13.5399     0.6160   171.7926   112.7060   200.5107   198.7241    31.3680    25.1778     0.0000   184.5673     2.7445    11.8956    10.6404     0.0000  2310.0000     0.0000     0.2394     0.4002     0.0000     0.0000     0.0170     0.3433     0.0000
   3383.0000     7.5292     7.3017  1010.6865   124.0472     0.6646    11.4541    10.2039     0.0659     0.1110     0.0379     4.8130     0.2216     0.0102     0.0025    48.9178   -13.5683     0.6668   162.4922   112.7126   200.5107   198.6243    31.2840    25.1778     0.1284   184.5673     2.7438    11.8956    10.5982     0.0000  2310.0000     0.0000     0.2235     0.3944     0.0000     0.0000     0.0191     0.3629     0.0000
   3383.5000     7.5292     7.3017  1010.6865   124.0472     0.6646    11.4541    10.1773     0.0662     0.1136     0.0386     5.9725     0.2176     0.0044     0.0031    48.3325   -13.5965     0.6820   158.7108   112.7192   200.5107   198.5290    31.2001    25.1778     0.2890   184.5673     2.7386    11.8956    10.5705     0.0000  2310.0000     0.0000     0.2306     0.3965     0.0000     0.0000     0.0082     0.3646     0.0000
   3384.0000     7.5292     7.3017  1010.6865   124.0472     0.6646    11.4541    10.1240     0.0680     0.1176     0.0388     5.1996     0.2105     0.0096     0.0036    48.3325   -13.6243     0.6802   146.7493   112.7259   200.5107   198.3795    31.1165    25.1778     0.3408   184.5673     2.7458    11.8956    10.5149     0.0000  2310.0000     0.0000     0.2415     0.4123     0.0000     0.0000     0.0180     0.3282     0.0000
   3384.5000     7.5292     7.3017  1010.6865   124.0472     0.6646    11.4541    10.0641     0.0714     0.1244     0.0407     3.5431     0.1966     0.0095     0.0042    48.3325   -13.6519     0.6797   140.8809   112.7325   200.5107   198.2596    31.0333    25.1778     0.0000   184.5673     2.7504    11.8956    10.4523     0.0000  2310.0000     0.0000     0.2595     0.4428     0.0000     0.0000     0.0178     0.2798     0.0000
   3385.0000     7.5292     7.3017  1010.6865   124.0472     0.6646    11.4541    10.0486     0.0718     0.1289     0.0402     0.8439     0.1914     0.0156     0.0039    48.3325   -13.6792     0.6756   145.5746   112.7391   200.5107   198.1834    30.9504    25.1778     0.0255   184.5673     2.7573    11.8956    10.4362     0.0000  2310.0000     0.0000     0.2716     0.4461     0.0000     0.0000     0.0291     0.2532     0.0000
   3385.5000     7.5292     7.3017  1010.6865   124.0472     0.6646    11.4541    10.0000     0.0701     0.1243     0.0391     0.1319     0.1998     0.0168     0.0035    48.3325   -13.7063     0.6739   154.2477   112.7457   200.5107   198.0861    30.8677    25.1778     0.3878   184.5673     2.7561    11.8956    10.3855     0.0000  2310.0000     0.0000     0.2593     0.4310     0.0000     0.0000     0.0315     0.2782     0.0000
   3386.0000     7.5292     7.3017  1010.6865   124.0472     0.6646    11.4541     9.9253     0.0666     0.1147     0.0363     2.3108     0.2180     0.0238     0.0028    48.3325   -13.7330     0.6492   166.6720   112.7523   200.5107   197.9558    30.7854    25.1778     0.0348   184.5673     2.7575    11.8956    10.3074     0.0000  2310.0000     0.0000     0.2335     0.4001     0.0000     0.0000     0.0446     0.3218     0.0000
   3386.5000     7.5292     7.3017  1010.6865   124.0472     0.6646    11.4541     9.9167     0.0641     0.1095     0.0353     6.0575     0.2279     0.0216     0.0024    48.3325   -13.7595     0.6702   163.5566   112.7589   200.5107   197.8623    30.7035    25.1778     0.0000   184.5673     2.7521    11.8956    10.2985     0.0000  2310.0000     0.0000     0.2196     0.3788     0.0000     0.0000     0.0404     0.3612     0.0000
   3387.0000     7.5292     7.3017  1010.6865   124.0472     0.6646    11.4323     9.8664     0.0616     0.1052     0.0341     7.5901     0.2373     0.0180     0.0025    48.3325   -13.7858     0.6650   161.6747   112.7655   200.5310   197.7347    30.6217    25.1768     0.1311   184.5468     2.7451    11.8731    10.2459     0.0000  2310.0000     0.0000     0.2079     0.3561     0.0000     0.0000     0.0337     0.4023     0.0000
   3387.5000     7.5292     7.3017  1010.6865   124.0472     0.6646    11.3965     9.8125     0.0620     0.1024     0.0354     7.4834     0.2388     0.0089     0.0031    48.3325   -13.8117     0.7083   157.0016   112.7721   200.5608   197.5841    30.5403    25.1744     0.0000   184.5159     2.7362    11.8361    10.1895     0.0000  2310.0000     0.0000     0.2003     0.3601     0.0000     0.0000     0.0166     0.4230     0.0000
   3388.0000     7.5292     7.3017  1010.6865   124.0472     0.6646    11.3848     9.7869     0.0638     0.0983     0.0367     6.3365     0.2402     0.0062     0.0036    48.3325   -13.8374     0.7006   163.9587   112.7787   200.6040   197.5096    30.4591    25.1836     0.0000   184.4829     2.7346    11.8240    10.1627     0.0000  2310.0000     0.0000     0.1895     0.3754     0.0000     0.0000     0.0116     0.4235     0.0000
   3388.5000     7.5266     7.3017  1010.6865   124.0472     0.6633    11.3713     9.7405     0.0635     0.1095     0.0368     5.9999     0.2273     0.0060     0.0028    48.3325   -13.8628     0.6917   156.6066   112.7853   200.6524   197.3872    30.3782    25.1943     0.0374   184.4462     2.7366    11.8097    10.1140     0.0000  2310.0000     0.0000     0.2196     0.3729     0.0000     0.0000     0.0111     0.3964     0.0000
   3389.0000     7.5248     7.3034  1010.6865   124.0472     0.6633    11.3154     9.6881     0.0623     0.1245     0.0354     6.2488     0.2127     0.0130     0.0021    48.3325   -13.8879     0.6376   157.1259   112.7919   200.6532   197.2635    30.2977    25.1783     0.1991   184.4306     2.7448    11.7518    10.0591     0.0000  2310.0000     0.0000     0.2598     0.3622     0.0000     0.0000     0.0244     0.3536     0.0000
   3389.5000     7.6358     7.3843  1010.6865   124.0472     0.7590    11.2672     9.6441     0.0614     0.1288     0.0337     4.7940     0.2102     0.0220     0.0019    48.3325   -13.9128     0.6386   148.1124   112.7985   200.6739   197.1596    30.2175    25.1744     0.0605   184.4072     2.7531    11.7140    10.0234     0.0000  2310.0000     0.0000     0.2715     0.3550     0.0000     0.0000     0.0412     0.3323     0.0000
   3390.0000     7.6827     7.4668  1010.6865   124.0472     0.8240    11.2526     9.6002     0.0672     0.1219     0.0358     3.9680     0.2093     0.0298     0.0029    48.3325   -13.9373     0.6491   149.7311   112.8052   200.6966   197.0514    30.1376    25.1799     0.0000   184.3905     2.7649    11.7040     9.9818     0.0000  2310.0000     0.0000     0.2528     0.4056     0.0000     0.0000     0.0558     0.2857     0.0000
   3390.5000     7.6879     7.4720  1010.6865   124.0472     0.8292    11.1961     9.5691     0.0713     0.1104     0.0387     1.5261     0.2149     0.0267     0.0030    48.3325   -13.9617     0.6621   148.2764   112.8118   200.7008   196.9372    30.0580    25.1659     0.1542   184.3735     2.7646    11.6460     9.9496     0.0000  2310.0000     0.0000     0.2220     0.4418     0.0000     0.0000     0.0499     0.2863     0.0000
   3391.0000     7.6931     7.4720  1010.6865   124.0472     0.8317    11.1353     9.5015     0.0711     0.1092     0.0404     1.8621     0.2150     0.0152     0.0023    48.3325   -13.9857     0.6576   148.4289   112.8184   200.6880   196.8079    29.9787    24.7927     0.4651   184.0213     2.7540    11.5836     9.8792     0.0000  2310.0000     0.0000     0.2187     0.4402     0.0000     0.0000     0.0284     0.3128     0.0000
