~VERSION INFORMATION
VERS.           1.2   :CWLS Log ASCII Standard - VERSION 1.2
WRAP.           NO    :One Line per depth step
PROD.  Schlumberger   :LAS Producer
PROG.  DLIS to ASCII 17C0-152                          :LAS Program name and version
CREA.        2011/10/27 17:25                          :LAS Creation date {YYYY/MM/DD hh:mm}
DLIS_CREA.  2011-Oct-27 07:30                          :DLIS Creation date and time {YYYY-MMM-DD hh:mm}
SOURCE.     9895fb31-02c7-4189-bf8e-52df0b775dd1       :DLIS File Name
#--------------------------------------------------
~WELL INFORMATION
#MNEM.UNIT      DATA             DESCRIPTION
#---- ------ --------------   -----------------------------
STRT .F      3344.0000       :START DEPTH     
STOP .F      3862.5000       :STOP DEPTH     
STEP .F       0.5000         :STEP       
NULL .          -999.25      :NULL VALUE
COMP .                 COMPANY:  SWEPI LP                           
WELL .                    WELL:  Harper Hill 2-29                   
FLD  .                   FIELD:  Swan                               
LOC  .                LOCATION:                                     
CNTY .                  COUNTY:  Moffat                             
STAT .                   STATE:  Colorado                           
CTRY .                 COUNTRY:                                     
SRVC .         SERVICE COMPANY:  Schlumberger                       
API  .              API NUMBER:  05-0081-07659                      
DATE .                LOG DATE:  26-Oct-2011
UWI  .          UNIQUE WELL ID:                                     
#-----------------------------------------------------------------------------
~PARAMETER INFORMATION
#MNEM.UNIT    VALUE                      DESCRIPTION
#---- -----   --------------------       ------------------------
CN   .        SWEPI LP                   :Company Name
WN   .        Harper Hill 2-29           :Well Name
FN   .        Swan                       :Field Name
FL   .                                   :Field Location
FL1  .                                   :Field Location Line 1
COUN .        Moffat                     :County or Rig Name
STAT .        Colorado                   :State or Province
NATI .                                   :Nation
DATE .        26-Oct-2011                :Date as Month-Day-Year
APIN .        05-0081-07659              :API Serial Number
SECT .        29                         :Section
TOWN .        5N                         :Township
RANG .        90W                        :Range
DMF  .        Kelly Bushing              :Drilling Measured From
LMF  .        Kelly Bushing              :Log Measured From
PDAT .        Ground Level               :Permanent Datum
ENGI .        Mark Kast                  :Engineer's Name
WITN .        Tony                       :Witness's Name
LATI .                                   :Latitude
LONG .                                   :Longitude
LUL  .        Rock Springs               :Logging Unit Location
LUN  .              2271                 :Logging Unit Number
RUN  .        Two                        :Run Number
SON  .                                   :Service Order Number
BHT  .DEGF     127.00000                 :Bottom Hole Temperature (used in calculations)
BS   .IN         6.75000                 :Bit Size
DFD  .LB/G       7.90000                 :Drilling Fluid Density
DFV  .S         44.00000                 :Drilling Fluid Viscosity
DFL  .C3        16.60000                 :Drilling Fluid Loss
RMFS .                                   :Resistivity of Mud Filtrate Sample
EKB  .F       6597.00000                 :Elevation of Kelly Bushing
EGL  .F       6585.00000                 :Elevation of Ground Level
BLI  .                                   :Bottom Log Interval
BSAL .PPM     44500.00000                :Borehole Salinity
FLEV .                                   :Fluid Level
MCST .                                   :Mud Cake Sample Temperature
MFST .                                   :Mud Filtrate Sample Temperature
MRT  .DEGF     127.00000                 :Maximum Recorded Temperature
MST  .                                   :Mud Sample Temperature
RMCS .                                   :Resistivity of Mud Cake Sample
RMS  .                                   :Resistivity of Mud Sample
RW   .OHMM       1.00000                 :Resistivity of Connate Water
TDD  .F       4480.00000                 :Total Depth - Driller
TDL  .F       4482.00000                 :Total Depth - Logger
TLI  .                                   :Top Log Interval
HIDE .                                   :Header Identifier
MATR .        SAND                       :Rock Matrix for Neutron Porosity Corrections
DFT  .        OBM                        :Drilling Fluid Type
DFPH .                                   :Drilling Fluid PH
MCSS .        N/A                        :Mud Cake Sample Source
MFSS .        N/A                        :Mud Filtrate Sample Source
MSS  .        N/A                        :Mud Sample Source
OS1  .                                   :Other Services Line 1
OS2  .                                   :Other Services Line 2
OS3  .                                   :Other Services Line 3
OS4  .                                   :Other Services Line 4
OS5  .                                   :Other Services Line 5
R1   .                                   :Remark Line 1
R2   .                                   :Remark Line 2
R3   .                                   :Remark Line 3
R4   .                                   :Remark Line 4
R5   .                                   :Remark Line 5
R6   .                                   :Remark Line 6
R7   .                                   :Remark Line 7
R8   .                                   :Remark Line 8
TCS  .        20 00                      :Time Circulation Stopped
TLAB .                                   :Time Logger At Bottom
EPD  .F         6585.000000              :Elevation of Permanent Datum above Mean Sea Level
APD  .F          12.000000               :Elevation of Depth Reference (LMF) above Permanent Datum
#-----------------------------------------------------------------------------
~CURVE INFORMATION
#MNEM.UNIT   API CODE                                  DESCRIPTION
#---- -----  --------                                  -----------------------
DEPT .F                                                :DEPTH (BOREHOLE) {F12.4}
C1_OBMT.IN                                             :OBMT Caliper 1 {F11.4}
C2_OBMT.IN                                             :OBMT Caliper 2 {F11.4}
CDF  .LBF                                              :Calibrated Downhole Force {F11.4}
CTEM .DEGF                                             :Cartridge Temperature {F11.4}
DCAL .IN                                               :Differential Caliper {F11.4}
DEVI .DEG                                              :Hole Deviation {F11.4}
DEVIM.DEG                                              :Memorized Deviation {F11.4}
DWAL_WALK2.                                            :Dry Weight Fraction Pseudo Aluminum (SpectroLith WALK2 Model) {F11.4}
DWCA_WALK2.                                            :Dry Weight Fraction Calcium (SpectroLith WALK2 Model) {F11.4}
DWFE_WALK2.                                            :Dry Weight Fraction Iron + 0.14 Aluminum (SpectroLith WALK2 Model) {F11.4}
DWGD_WALK2.PPM                                         :Dry Weight Fraction Gadolinium (SpectroLith WALK2 Model) {F11.4}
DWSI_WALK2.                                            :Dry Weight Fraction Silicon (SpectroLith WALK2 Model) {F11.4}
DWSU_WALK2.                                            :Dry Weight Fraction Sulfur (SpectroLith WALK2 Model) {F11.4}
DWTI_WALK2.                                            :Dry Weight Fraction Titanium (SpectroLith WALK2 Model) {F11.4}
ECST .DEGF                                             :ECS Temperature {F11.4}
ED   .F                                                :East Departure {F11.4}
ESUF_WALK2.                                            :Elemental Statistical Uncertainty Factor (SpectroLith WALK2 Model) {F11.4}
GR_EDTC.GAPI                                           :EDTC Gamma Ray {F11.4}
GTEM .DEGF                                             :Generalized Borehole Temperature {F11.4}
HAZI .DEG                                              :Hole Azimuth {F11.4}
HAZIM.DEG                                              :Hole Azimuth {F11.4}
ND   .F                                                :North Departure {F11.4}
P1AZ .DEG                                              :Pad 1 Azimuth {F11.4}
QCPMT.                                                 :Photomultiplier Tube Quality Control {F11.4}
RB   .DEG                                              :Relative Bearing {F11.4}
RHGE_WALK2.G/C3                                        :Matrix Density from Elemental Concentrations (SpectroLith WALK2 Model) {F11.4}
SDEV .DEG                                              :Sonde Deviation {F11.4}
SDEVM.DEG                                              :Sonde Deviation {F11.4}
STIT .F                                                :Stuck Tool Indicator, Total {F11.4}
TENS .LBF                                              :Cable Tension {F11.4}
WANH_WALK2.                                            :Dry Weight Fraction Anhydrite/Gypsum (SpectroLith WALK2 Model) {F11.4}
WCAR_WALK2.                                            :Dry Weight Fraction Carbonate (SpectroLith WALK2 Model) {F11.4}
WCLA_WALK2.                                            :Dry Weight Fraction Clay (SpectroLith WALK2 Model) {F11.4}
WCOA_WALK2.                                            :Dry Weight Fraction Coal (SpectroLith WALK2 Model) {F11.4}
WEVA_WALK2.                                            :Dry Weight Fraction Salt (SpectroLith WALK2 Model) {F11.4}
WPYR_WALK2.                                            :Dry Weight Fraction Pyrite (SpectroLith WALK2 Model) {F11.4}
WQFM_WALK2.                                            :Dry Weight Fraction Quartz+Feldspar+Mica (QFM) (SpectroLith WALK2 Model) {F11.4}
WSID_WALK2.                                            :Dry Weight Fraction Siderite (SpectroLith WALK2 Model) {F11.4}
#-----------------------------------------------------------------------------
# 
#      DEPT      C1_OBMT    C2_OBMT      CDF        CTEM       DCAL       DEVI      DEVIM    DWAL_WALK2 DWCA_WALK2 DWFE_WALK2 DWGD_WALK2 DWSI_WALK2 DWSU_WALK2 DWTI_WALK2    ECST        ED     ESUF_WALK2  GR_EDTC      GTEM       HAZI      HAZIM        ND        P1AZ      QCPMT        RB     RHGE_WALK2    SDEV      SDEVM       STIT       TENS    WANH_WALK2 WCAR_WALK2 WCLA_WALK2 WCOA_WALK2 WEVA_WALK2 WPYR_WALK2 WQFM_WALK2 WSID_WALK2
#
~A  
# ...
   3752.5000     7.1901     7.2535   957.3615   122.0707     0.4717     3.2782     3.6769     0.0467     0.1156     0.0270     5.2834     0.2500     0.0026     0.0029    48.3325   -11.8428     0.7407   144.4839   117.5963   131.8844   112.7453    -0.8557   353.9259     0.0000   221.9932     2.7155     3.3314     3.7433     0.0000  2398.0000     0.0000     0.2360     0.2254     0.0000     0.0000     0.0049     0.5337     0.0000
   3753.0000     7.1866     7.2578  1054.4131   122.0707     0.4721     3.2817     3.6911     0.0474     0.1135     0.0275     8.2079     0.2511     0.0000     0.0036    48.3325   -11.8131     0.7856   140.3072   117.6029   131.3164   112.2479    -0.8680   353.8283     0.8415   222.4634     2.7130     3.3350     3.7580     0.0000  2624.0000     0.0000     0.2302     0.2315     0.0000     0.0000     0.0000     0.5383     0.0000
   3753.5000     7.1892     7.2681  1044.8146   122.0707     0.4785     3.2803     3.7178     0.0500     0.1091     0.0289    11.2464     0.2518     0.0000     0.0043    48.3325   -11.7831     0.7880   137.7551   117.6095   130.7621   111.7478    -0.8801   353.8327     0.5641   223.0224     2.7147     3.3336     3.7858     0.0000  2506.0000     0.0000     0.2185     0.2543     0.0000     0.0000     0.0000     0.5271     0.0000
   3754.0000     7.1970     7.2630   961.9830   122.0707     0.4799     3.2958     3.7420     0.0513     0.1207     0.0294    11.5460     0.2361     0.0008     0.0046    48.3325   -11.7529     0.7781   137.5712   117.6161   130.1933   111.3616    -0.8920   353.7084     0.1106   223.4662     2.7186     3.3497     3.8109     0.0000  2351.0000     0.0000     0.2497     0.2661     0.0000     0.0000     0.0015     0.4826     0.0000
   3754.5000     7.1974     7.2539  1001.0880   122.0707     0.4756     3.2998     3.7588     0.0550     0.1113     0.0310    10.1835     0.2410     0.0033     0.0055    48.3325   -11.7224     0.7742   138.5257   117.6227   129.6261   110.8108    -0.9038   353.5108     0.2362   223.8357     2.7228     3.3537     3.8282     0.0000  2519.0000     0.0000     0.2244     0.2985     0.0000     0.0000     0.0061     0.4710     0.0000
   3755.0000     7.1910     7.2527  1054.4131   122.0707     0.4717     3.3046     3.7777     0.0571     0.1145     0.0317    10.8558     0.2341     0.0084     0.0052    48.3325   -11.6916     0.7629   147.3652   117.6293   129.0549   110.3486    -0.9153   352.6378     0.0148   223.5337     2.7307     3.3586     3.8478     0.0000  2572.0000     0.0000     0.2330     0.3171     0.0000     0.0000     0.0158     0.4341     0.0000
   3755.5000     7.1857     7.2561   996.1110   122.0707     0.4708     3.3054     3.8121     0.0556     0.1137     0.0309    10.1841     0.2377     0.0115     0.0039    48.3325   -11.6605     0.7607   147.4962   117.6359   128.4078   109.8288    -0.9267   352.3985     0.2214   223.9415     2.7327     3.3594     3.8834     0.0000  2447.0000     0.0000     0.2308     0.3039     0.0000     0.0000     0.0214     0.4439     0.0000
   3756.0000     7.1883     7.2268   952.3845   122.0707     0.4575     3.3244     3.8285     0.0529     0.1296     0.0294    11.5938     0.2237     0.0155     0.0021    48.3325   -11.6292     0.7451   145.9156   117.6425   127.9554   109.4319    -0.9379   352.3760     0.1464   224.3709     2.7375     3.3789     3.9001     0.0000  2384.0000     0.0000     0.2737     0.2803     0.0000     0.0000     0.0289     0.4171     0.0000
   3756.5000     7.1953     7.2277  1049.4360   122.0707     0.4615     3.3277     3.8493     0.0495     0.1217     0.0287    11.4492     0.2379     0.0062     0.0018    48.3325   -11.5975     0.7657   147.3956   117.6491   127.3745   108.9674    -0.9489   352.9123     0.3751   225.4878     2.7239     3.3823     3.9218     0.0000  2617.0000     0.0000     0.2523     0.2500     0.0000     0.0000     0.0117     0.4860     0.0000
   3757.0000     7.1953     7.2191  1025.2621   122.0707     0.4572     3.3279     3.8694     0.0541     0.1097     0.0320    12.4094     0.2431     0.0000     0.0027    48.3325   -11.5657     0.7501   146.6181   117.6557   126.8167   108.6040    -0.9597   353.1991     0.7223   226.3323     2.7206     3.3825     3.9424     0.0000  2499.0000     0.0000     0.2202     0.2904     0.0000     0.0000     0.0000     0.4894     0.0000
   3757.5000     7.1936     7.2243   937.8090   122.0707     0.4589     3.3448     3.9017     0.0612     0.0800     0.0357    11.1989     0.2656     0.0000     0.0042    48.3325   -11.5335     0.7566   151.5103   117.6624   126.2732   108.0789    -0.9704   353.0956     0.4078   226.7720     2.7224     3.4000     3.9760     0.0000  2287.0000     0.0000     0.1402     0.3529     0.0000     0.0000     0.0000     0.5069     0.0000
   3758.0000     7.1884     7.2449   996.1110   122.0707     0.4666     3.3493     3.9256     0.0663     0.0733     0.0386     8.8726     0.2645     0.0004     0.0049    48.3325   -11.5010     0.7750   144.6954   117.6690   125.7182   107.6788    -0.9809   353.2845     0.1241   227.5158     2.7269     3.4047     4.0010     0.0000  2478.0000     0.0000     0.1221     0.3982     0.0000     0.0000     0.0007     0.4790     0.0000
   3758.5000     7.1901     7.2449  1059.3900   122.0707     0.4674     3.3564     3.9486     0.0669     0.0733     0.0384     5.2879     0.2639     0.0041     0.0048    48.3325   -11.4683     0.8129   144.3047   117.6756   125.1456   107.2557    -0.9912   354.4763     0.0367   229.2806     2.7311     3.4121     4.0248     0.0000  2588.0000     0.0000     0.1223     0.4027     0.0000     0.0000     0.0078     0.4673     0.0000
   3759.0000     7.1909     7.2578  1020.2850   122.0707     0.4743     3.3626     3.9740     0.0612     0.0997     0.0350     4.9773     0.2432     0.0073     0.0036    48.3325   -11.4353     0.7756   138.1938   117.6822   124.6149   106.7996    -1.0013   354.6793     0.2613   230.0141     2.7330     3.4187     4.0514     0.0000  2458.0000     0.0000     0.1932     0.3532     0.0000     0.0000     0.0136     0.4400     0.0000
   3759.5000     7.1961     7.2561   932.8320   122.0707     0.4760     3.3787     4.0034     0.0543     0.1155     0.0318     6.4412     0.2362     0.0036     0.0023    47.7472   -11.4019     0.7479   138.3350   117.6888   124.0703   106.4405    -1.0112   354.6172     0.0669   230.4962     2.7255     3.4352     4.0820     0.0000  2342.0000     0.0000     0.2358     0.2925     0.0000     0.0000     0.0068     0.4649     0.0000
   3760.0000     7.1910     7.2570  1049.4360   122.0707     0.4739     3.3844     4.0308     0.0485     0.1223     0.0285     8.5825     0.2385     0.0019     0.0022    47.1620   -11.3683     0.7702   143.7350   117.6954   123.5261   106.0489    -1.0210   355.0146     0.1090   231.4381     2.7186     3.4412     4.1103     0.0000  2571.0000     0.0000     0.2539     0.2417     0.0000     0.0000     0.0035     0.5009     0.0000
   3760.5000     7.1857     7.2578  1030.2390   122.0707     0.4717     3.3895     4.0543     0.0443     0.1183     0.0261     9.6518     0.2506     0.0002     0.0023    47.7472   -11.3344     0.7840   146.3723   117.7020   123.0005   105.6734    -1.0307   355.5701     0.1246   232.5194     2.7115     3.4464     4.1347     0.0000  2509.0000     0.0000     0.2434     0.2041     0.0000     0.0000     0.0004     0.5522     0.0000
   3761.0000     7.1745     7.2690   957.3615   122.0707     0.4716     3.4069     4.0896     0.0466     0.1178     0.0263     9.3179     0.2482     0.0083     0.0024    48.3325   -11.3002     0.7562   142.8196   117.7086   122.4663   105.2535    -1.0401   355.4034     0.0539   232.8867     2.7214     3.4644     4.1715     0.0000  2346.0000     0.0000     0.2418     0.2243     0.0000     0.0000     0.0155     0.5184     0.0000
   3761.5000     6.7062     7.2578   991.1340   122.0707     0.2266     3.4190     4.1191     0.0514     0.1237     0.0288     8.9496     0.2332     0.0141     0.0017    48.3325   -11.2656     0.7179   136.4774   117.7152   121.9252   104.8164    -1.0494   355.3900     0.0000   233.4142     2.7337     3.4742     4.1988     0.0000  2475.0000     0.0000     0.2578     0.2664     0.0000     0.0000     0.0264     0.4494     0.0000
