~VERSION INFORMATION
VERS.           1.2   :CWLS Log ASCII Standard - VERSION 1.2
WRAP.           NO    :One Line per depth step
PROD.  Schlumberger   :LAS Producer
PROG.  DLIS to ASCII 17C0-152                          :LAS Program name and version
CREA.        2011/10/27 17:24                          :LAS Creation date {YYYY/MM/DD hh:mm}
DLIS_CREA.  2011-Oct-27 07:22                          :DLIS Creation date and time {YYYY-MMM-DD hh:mm}
SOURCE.     7e486f41-920f-449c-9fc4-a1d2576f3c93       :DLIS File Name
#--------------------------------------------------
~WELL INFORMATION
#MNEM.UNIT      DATA             DESCRIPTION
#---- ------ --------------   -----------------------------
STRT .F      3201.5000       :START DEPTH     
STOP .F      4055.0000       :STOP DEPTH     
STEP .F       0.5000         :STEP       
NULL .          -999.25      :NULL VALUE
COMP .                 COMPANY:  SWEPI LP                           
WELL .                    WELL:  Harper Hill 2-29                   
FLD  .                   FIELD:  Swan                               
LOC  .                LOCATION:                                     
CNTY .                  COUNTY:  Moffat                             
STAT .                   STATE:  Colorado                           
CTRY .                 COUNTRY:                                     
SRVC .         SERVICE COMPANY:  Schlumberger                       
API  .              API NUMBER:  05-0081-07659                      
DATE .                LOG DATE:  26-Oct-2011
UWI  .          UNIQUE WELL ID:                                     
#-----------------------------------------------------------------------------
~PARAMETER INFORMATION
#MNEM.UNIT    VALUE                      DESCRIPTION
#---- -----   --------------------       ------------------------
CN   .        SWEPI LP                   :Company Name
WN   .        Harper Hill 2-29           :Well Name
FN   .        Swan                       :Field Name
FL   .                                   :Field Location
FL1  .                                   :Field Location Line 1
COUN .        Moffat                     :County or Rig Name
STAT .        Colorado                   :State or Province
NATI .                                   :Nation
DATE .        26-Oct-2011                :Date as Month-Day-Year
APIN .        05-0081-07659              :API Serial Number
SECT .        29                         :Section
TOWN .        5N                         :Township
RANG .        90W                        :Range
DMF  .        Kelly Bushing              :Drilling Measured From
LMF  .        Kelly Bushing              :Log Measured From
PDAT .        Ground Level               :Permanent Datum
ENGI .        Mark Kast                  :Engineer's Name
WITN .        Tony                       :Witness's Name
LATI .                                   :Latitude
LONG .                                   :Longitude
LUL  .        Rock Springs               :Logging Unit Location
LUN  .              2271                 :Logging Unit Number
RUN  .        Two                        :Run Number
SON  .                                   :Service Order Number
BHT  .DEGF     127.00000                 :Bottom Hole Temperature (used in calculations)
BS   .IN         6.75000                 :Bit Size
DFD  .LB/G       7.90000                 :Drilling Fluid Density
DFV  .S         44.00000                 :Drilling Fluid Viscosity
DFL  .C3        16.60000                 :Drilling Fluid Loss
RMFS .                                   :Resistivity of Mud Filtrate Sample
EKB  .F       6597.00000                 :Elevation of Kelly Bushing
EGL  .F       6585.00000                 :Elevation of Ground Level
BLI  .                                   :Bottom Log Interval
BSAL .PPM     44500.00000                :Borehole Salinity
FLEV .                                   :Fluid Level
MCST .                                   :Mud Cake Sample Temperature
MFST .                                   :Mud Filtrate Sample Temperature
MRT  .DEGF     127.00000                 :Maximum Recorded Temperature
MST  .                                   :Mud Sample Temperature
RMCS .                                   :Resistivity of Mud Cake Sample
RMS  .                                   :Resistivity of Mud Sample
RW   .OHMM       1.00000                 :Resistivity of Connate Water
TDD  .F       4480.00000                 :Total Depth - Driller
TDL  .F       4482.00000                 :Total Depth - Logger
TLI  .                                   :Top Log Interval
HIDE .                                   :Header Identifier
MATR .        SAND                       :Rock Matrix for Neutron Porosity Corrections
DFT  .        OBM                        :Drilling Fluid Type
DFPH .                                   :Drilling Fluid PH
MCSS .        N/A                        :Mud Cake Sample Source
MFSS .        N/A                        :Mud Filtrate Sample Source
MSS  .        N/A                        :Mud Sample Source
OS1  .                                   :Other Services Line 1
OS2  .                                   :Other Services Line 2
OS3  .                                   :Other Services Line 3
OS4  .                                   :Other Services Line 4
OS5  .                                   :Other Services Line 5
R1   .                                   :Remark Line 1
R2   .                                   :Remark Line 2
R3   .                                   :Remark Line 3
R4   .                                   :Remark Line 4
R5   .                                   :Remark Line 5
R6   .                                   :Remark Line 6
R7   .                                   :Remark Line 7
R8   .                                   :Remark Line 8
TCS  .        20 00                      :Time Circulation Stopped
TLAB .                                   :Time Logger At Bottom
EPD  .F         6585.000000              :Elevation of Permanent Datum above Mean Sea Level
APD  .F          12.000000               :Elevation of Depth Reference (LMF) above Permanent Datum
#-----------------------------------------------------------------------------
~CURVE INFORMATION
#MNEM.UNIT   API CODE                                  DESCRIPTION
#---- -----  --------                                  -----------------------
DEPT .F                                                :DEPTH (BOREHOLE) {F12.4}
C1_OBMT.IN                                             :OBMT Caliper 1 {F11.4}
C2_OBMT.IN                                             :OBMT Caliper 2 {F11.4}
CDF  .LBF                                              :Calibrated Downhole Force {F11.4}
CTEM .DEGF                                             :Cartridge Temperature {F11.4}
DCAL .IN                                               :Differential Caliper {F11.4}
DEVI .DEG                                              :Hole Deviation {F11.4}
DEVIM.DEG                                              :Memorized Deviation {F11.4}
DWAL_WALK2.                                            :Dry Weight Fraction Pseudo Aluminum (SpectroLith WALK2 Model) {F11.4}
DWCA_WALK2.                                            :Dry Weight Fraction Calcium (SpectroLith WALK2 Model) {F11.4}
DWFE_WALK2.                                            :Dry Weight Fraction Iron + 0.14 Aluminum (SpectroLith WALK2 Model) {F11.4}
DWGD_WALK2.PPM                                         :Dry Weight Fraction Gadolinium (SpectroLith WALK2 Model) {F11.4}
DWSI_WALK2.                                            :Dry Weight Fraction Silicon (SpectroLith WALK2 Model) {F11.4}
DWSU_WALK2.                                            :Dry Weight Fraction Sulfur (SpectroLith WALK2 Model) {F11.4}
DWTI_WALK2.                                            :Dry Weight Fraction Titanium (SpectroLith WALK2 Model) {F11.4}
ECST .DEGF                                             :ECS Temperature {F11.4}
ED   .F                                                :East Departure {F11.4}
ESUF_WALK2.                                            :Elemental Statistical Uncertainty Factor (SpectroLith WALK2 Model) {F11.4}
GR_EDTC.GAPI                                           :EDTC Gamma Ray {F11.4}
GTEM .DEGF                                             :Generalized Borehole Temperature {F11.4}
HAZI .DEG                                              :Hole Azimuth {F11.4}
HAZIM.DEG                                              :Hole Azimuth {F11.4}
ND   .F                                                :North Departure {F11.4}
P1AZ .DEG                                              :Pad 1 Azimuth {F11.4}
QCPMT.                                                 :Photomultiplier Tube Quality Control {F11.4}
RB   .DEG                                              :Relative Bearing {F11.4}
RHGE_WALK2.G/C3                                        :Matrix Density from Elemental Concentrations (SpectroLith WALK2 Model) {F11.4}
SDEV .DEG                                              :Sonde Deviation {F11.4}
SDEVM.DEG                                              :Sonde Deviation {F11.4}
STIT .F                                                :Stuck Tool Indicator, Total {F11.4}
TENS .LBF                                              :Cable Tension {F11.4}
WANH_WALK2.                                            :Dry Weight Fraction Anhydrite/Gypsum (SpectroLith WALK2 Model) {F11.4}
WCAR_WALK2.                                            :Dry Weight Fraction Carbonate (SpectroLith WALK2 Model) {F11.4}
WCLA_WALK2.                                            :Dry Weight Fraction Clay (SpectroLith WALK2 Model) {F11.4}
WCOA_WALK2.                                            :Dry Weight Fraction Coal (SpectroLith WALK2 Model) {F11.4}
WEVA_WALK2.                                            :Dry Weight Fraction Salt (SpectroLith WALK2 Model) {F11.4}
WPYR_WALK2.                                            :Dry Weight Fraction Pyrite (SpectroLith WALK2 Model) {F11.4}
WQFM_WALK2.                                            :Dry Weight Fraction Quartz+Feldspar+Mica (QFM) (SpectroLith WALK2 Model) {F11.4}
WSID_WALK2.                                            :Dry Weight Fraction Siderite (SpectroLith WALK2 Model) {F11.4}
#-----------------------------------------------------------------------------
# 
#      DEPT      C1_OBMT    C2_OBMT      CDF        CTEM       DCAL       DEVI      DEVIM    DWAL_WALK2 DWCA_WALK2 DWFE_WALK2 DWGD_WALK2 DWSI_WALK2 DWSU_WALK2 DWTI_WALK2    ECST        ED     ESUF_WALK2  GR_EDTC      GTEM       HAZI      HAZIM        ND        P1AZ      QCPMT        RB     RHGE_WALK2    SDEV      SDEVM       STIT       TENS    WANH_WALK2 WCAR_WALK2 WCLA_WALK2 WCOA_WALK2 WEVA_WALK2 WPYR_WALK2 WQFM_WALK2 WSID_WALK2
#
~A  
# ...
   3543.5000     7.2724     7.2578  1005.7095   128.0001     0.5151     5.1800     4.4347     0.0599     0.1134     0.0329     2.3198     0.2307     0.0208     0.0020    47.1620   -37.7924     0.6649   152.3214   114.8339   179.8051   171.0711     2.6412    13.4653     0.0000   193.6038     2.7476     5.3084     4.5309     0.0000  2351.0000     0.0000     0.2301     0.3418     0.0000     0.0000     0.0390     0.3892     0.0000
   3544.0000     7.3053     7.3025  1001.0880   128.0001     0.5539     5.1397     4.4051     0.0602     0.1096     0.0335     1.9385     0.2343     0.0198     0.0014    47.1620   -37.7863     0.6251   153.5538   114.8405   179.5404   170.8207     2.6031    13.3774     0.3383   193.7808     2.7467     5.2674     4.5010     0.0000  2361.0000     0.0000     0.2200     0.3439     0.0000     0.0000     0.0370     0.3992     0.0000
   3544.5000     7.2924     7.3103  1005.7095   128.0001     0.5513     5.1193     4.4050     0.0604     0.1084     0.0335     1.2164     0.2355     0.0214     0.0012    47.7472   -37.7801     0.6689   151.8616   114.8472   179.3481   170.5607     2.5652    12.9528     0.0000   193.5498     2.7484     5.2457     4.5006     0.0000  2354.0000     0.0000     0.2167     0.3460     0.0000     0.0000     0.0400     0.3973     0.0000
   3545.0000     7.2351     7.2191   991.1340   128.0001     0.4771     5.1069     4.3906     0.0609     0.1034     0.0337     2.2252     0.2405     0.0196     0.0021    48.3325   -37.7738     0.6839   147.3468   114.8538   179.1169   170.3427     2.5274    12.5380     0.0000   193.3671     2.7458     5.2308     4.4842     0.0000  2304.0000     0.0000     0.2033     0.3505     0.0000     0.0000     0.0368     0.4095     0.0000
   3545.5000     7.2637     7.2346   986.5125   128.0001     0.4991     5.0729     4.3665     0.0596     0.1142     0.0322     1.5314     0.2310     0.0225     0.0028    47.1620   -37.7673     0.7506   145.6677   114.8604   178.9037   170.1129     2.4898    12.1155     0.0000   193.1595     2.7482     5.1962     4.4598     0.0000  2301.0000     0.0000     0.2322     0.3385     0.0000     0.0000     0.0421     0.3873     0.0000
   3546.0000     7.2768     7.2578  1010.6865   128.0001     0.5173     5.0513     4.3602     0.0612     0.1292     0.0329     1.8111     0.2108     0.0221     0.0036    47.1620   -37.7607     0.7456   144.5001   114.8670   178.7231   169.8705     2.4523    12.4611     0.0090   193.6841     2.7516     5.1741     4.4535     0.0000  2397.0000     0.0000     0.2726     0.3527     0.0000     0.0000     0.0413     0.3334     0.0000
   3546.5000     7.2672     7.2655  1001.0880   128.0001     0.5164     5.0393     4.3344     0.0623     0.1504     0.0337     1.4163     0.1840     0.0213     0.0036    45.9914   -37.7539     0.6844   144.5001   114.8736   178.5107   169.6172     2.4150    12.2933     0.0000   193.7289     2.7558     5.1612     4.4265     0.0000  2386.0000     0.0000     0.3295     0.3623     0.0000     0.0000     0.0399     0.2682     0.0000
   3547.0000     7.2768     7.3017   966.9600   128.0001     0.5392     5.0047     4.3234     0.0622     0.1645     0.0340     3.1162     0.1673     0.0193     0.0034    46.5767   -37.7470     0.6539   139.4085   114.8802   178.2757   169.3776     2.3779    11.9354     0.0000   193.6072     2.7564     5.1255     4.4153     0.0000  2216.0000     0.0000     0.3676     0.3616     0.0000     0.0000     0.0361     0.2347     0.0000
   3547.5000     7.2741     7.2647   981.5355   128.0001     0.5194     4.9794     4.3097     0.0577     0.1744     0.0319     3.7400     0.1633     0.0166     0.0026    47.1620   -37.7400     0.6238   137.4038   114.8868   178.0659   169.1726     2.3409    12.0365     0.0629   193.9174     2.7510     5.0989     4.4010     0.0000  2255.0000     0.0000     0.3941     0.3219     0.0000     0.0000     0.0310     0.2530     0.0000
   3548.0000     7.2741     7.2595  1044.8146   128.0001     0.5168     4.9741     4.2883     0.0550     0.1707     0.0300     4.6162     0.1727     0.0199     0.0022    47.1620   -37.7329     0.6232   137.9430   114.8934   177.8763   168.9075     2.3041    11.7248     0.0000   193.7960     2.7508     5.0934     4.3787     0.0000  2460.0000     0.0000     0.3843     0.2981     0.0000     0.0000     0.0373     0.2803     0.0000
   3548.5000     7.2793     7.2561  1030.2390   128.0001     0.5177     4.9382     4.2842     0.0544     0.1608     0.0297     3.8898     0.1853     0.0197     0.0020    46.7718   -37.7257     0.5727   140.2838   114.9000   177.6801   168.7014     2.2675    11.6934     0.0000   193.9609     2.7484     5.0561     4.3746     0.0000  2312.0000     0.0000     0.3575     0.2930     0.0000     0.0000     0.0369     0.3126     0.0000
   3549.0000     7.2446     7.2217  1015.6635   128.0001     0.4832     4.9177     4.2609     0.0574     0.1456     0.0318     5.5163     0.1973     0.0171     0.0022    45.9914   -37.7183     0.6041   144.5644   114.9066   177.4429   168.4250     2.2310    11.7690     0.0000   194.2731     2.7467     5.0336     4.3495     0.0000  2319.0000     0.0000     0.3168     0.3194     0.0000     0.0000     0.0321     0.3317     0.0000
   3549.5000     7.2282     7.2191  1039.8375   128.0001     0.4737     4.9008     4.2496     0.0573     0.1379     0.0332     7.4840     0.2051     0.0073     0.0021    46.7718   -37.7108     0.5999   145.0290   114.9132   177.1997   168.1979     2.1946    11.8917     0.0231   194.6382     2.7363     5.0154     4.3374     0.0000  2395.0000     0.0000     0.2961     0.3189     0.0000     0.0000     0.0137     0.3713     0.0000
   3550.0000     7.2369     7.2260  1020.2850   128.0001     0.4815     4.8670     4.2420     0.0547     0.1330     0.0328    10.4284     0.2144     0.0003     0.0015    47.1620   -37.7031     0.6793   143.8132   114.9198   176.9786   167.9553     2.1584    11.7070     0.4570   194.6752     2.7265     4.9805     4.3297     0.0000  2338.0000     0.0000     0.2828     0.2961     0.0000     0.0000     0.0006     0.4204     0.0000
   3550.5000     7.2369     7.2225  1025.2621   128.0001     0.4797     4.8439     4.2117     0.0513     0.1379     0.0308    10.3935     0.2147     0.0007     0.0011    47.1620   -37.6953     0.6903   137.4023   114.9265   176.7287   167.6537     2.1224    11.8385     0.3218   195.0559     2.7241     4.9563     4.2982     0.0000  2325.0000     0.0000     0.2961     0.2657     0.0000     0.0000     0.0013     0.4369     0.0000
   3551.0000     7.2342     7.2165  1039.8375   128.0001     0.4754     4.8253     4.1978     0.0559     0.1388     0.0320     7.3442     0.2069     0.0111     0.0016    47.7472   -37.6874     0.7386   139.3093   114.9331   176.4693   167.3737     2.0866    11.7147     0.0000   195.1914     2.7387     4.9368     4.2837     0.0000  2405.0000     0.0000     0.2985     0.3063     0.0000     0.0000     0.0208     0.3744     0.0000
   3551.5000     7.2404     7.2191  1001.0880   128.0001     0.4797     4.8001     4.1827     0.0615     0.1476     0.0341     5.0263     0.1879     0.0178     0.0027    48.3325   -37.6793     0.6883   139.7253   114.9397   176.2629   167.0983     2.0510    11.5367     0.3035   195.2204     2.7518     4.9108     4.2682     0.0000  2250.0000     0.0000     0.3221     0.3553     0.0000     0.0000     0.0332     0.2894     0.0000
   3552.0000     7.2342     7.2165  1025.2621   128.0001     0.4754     4.7689     4.1568     0.0637     0.1470     0.0349     4.1392     0.1851     0.0201     0.0031    47.1620   -37.6711     0.7019   143.8412   114.9463   175.9323   166.7925     2.0156    11.6841     0.0000   195.6975     2.7560     4.8781     4.2412     0.0000  2357.0000     0.0000     0.3204     0.3747     0.0000     0.0000     0.0376     0.2673     0.0000
   3552.5000     7.2326     7.2178  1039.8375   128.0001     0.4752     4.7514     4.1493     0.0579     0.1534     0.0317     5.7219     0.1877     0.0189     0.0028    47.1620   -37.6628     0.6433   141.6226   114.9529   175.7848   166.5544     1.9803    12.4360     0.0000   196.5947     2.7497     4.8598     4.2333     0.0000  2452.0000     0.0000     0.3376     0.3243     0.0000     0.0000     0.0354     0.3027     0.0000
