~VERSION INFORMATION
VERS.           1.2   :CWLS Log ASCII Standard - VERSION 1.2
WRAP.           NO    :One Line per depth step
PROD.  Schlumberger   :LAS Producer
PROG.  DLIS to ASCII 17C0-152                          :LAS Program name and version
CREA.        2011/10/27 17:25                          :LAS Creation date {YYYY/MM/DD hh:mm}
DLIS_CREA.  2011-Oct-27 07:17                          :DLIS Creation date and time {YYYY-MMM-DD hh:mm}
SOURCE.     79519d1b-f2ac-4620-a9ab-fbce0bbece67       :DLIS File Name
#--------------------------------------------------
~WELL INFORMATION
#MNEM.UNIT      DATA             DESCRIPTION
#---- ------ --------------   -----------------------------
STRT .F      3722.5000       :START DEPTH     
STOP .F      4490.0000       :STOP DEPTH     
STEP .F       0.5000         :STEP       
NULL .          -999.25      :NULL VALUE
COMP .                 COMPANY:  SWEPI LP                           
WELL .                    WELL:  Harper Hill 2-29                   
FLD  .                   FIELD:  Swan                               
LOC  .                LOCATION:                                     
CNTY .                  COUNTY:  Moffat                             
STAT .                   STATE:  Colorado                           
CTRY .                 COUNTRY:                                     
SRVC .         SERVICE COMPANY:  Schlumberger                       
API  .              API NUMBER:  05-0081-07659                      
DATE .                LOG DATE:  26-Oct-2011
UWI  .          UNIQUE WELL ID:                                     
#-----------------------------------------------------------------------------
~PARAMETER INFORMATION
#MNEM.UNIT    VALUE                      DESCRIPTION
#---- -----   --------------------       ------------------------
CN   .        SWEPI LP                   :Company Name
WN   .        Harper Hill 2-29           :Well Name
FN   .        Swan                       :Field Name
FL   .                                   :Field Location
FL1  .                                   :Field Location Line 1
COUN .        Moffat                     :County or Rig Name
STAT .        Colorado                   :State or Province
NATI .                                   :Nation
DATE .        26-Oct-2011                :Date as Month-Day-Year
APIN .        05-0081-07659              :API Serial Number
SECT .        29                         :Section
TOWN .        5N                         :Township
RANG .        90W                        :Range
DMF  .        Kelly Bushing              :Drilling Measured From
LMF  .        Kelly Bushing              :Log Measured From
PDAT .        Ground Level               :Permanent Datum
ENGI .        Mark Kast                  :Engineer's Name
WITN .        Tony                       :Witness's Name
LATI .                                   :Latitude
LONG .                                   :Longitude
LUL  .        Rock Springs               :Logging Unit Location
LUN  .              2271                 :Logging Unit Number
RUN  .        Two                        :Run Number
SON  .                                   :Service Order Number
BHT  .DEGF     127.00000                 :Bottom Hole Temperature (used in calculations)
BS   .IN         6.75000                 :Bit Size
DFD  .LB/G       7.90000                 :Drilling Fluid Density
DFV  .S         44.00000                 :Drilling Fluid Viscosity
DFL  .C3        16.60000                 :Drilling Fluid Loss
RMFS .                                   :Resistivity of Mud Filtrate Sample
EKB  .F       6597.00000                 :Elevation of Kelly Bushing
EGL  .F       6585.00000                 :Elevation of Ground Level
BLI  .                                   :Bottom Log Interval
BSAL .PPM     44500.00000                :Borehole Salinity
FLEV .                                   :Fluid Level
MCST .                                   :Mud Cake Sample Temperature
MFST .                                   :Mud Filtrate Sample Temperature
MRT  .DEGF     127.00000                 :Maximum Recorded Temperature
MST  .                                   :Mud Sample Temperature
RMCS .                                   :Resistivity of Mud Cake Sample
RMS  .                                   :Resistivity of Mud Sample
RW   .OHMM       1.00000                 :Resistivity of Connate Water
TDD  .F       4480.00000                 :Total Depth - Driller
TDL  .F       4482.00000                 :Total Depth - Logger
TLI  .                                   :Top Log Interval
HIDE .                                   :Header Identifier
MATR .        SAND                       :Rock Matrix for Neutron Porosity Corrections
DFT  .        OBM                        :Drilling Fluid Type
DFPH .                                   :Drilling Fluid PH
MCSS .        N/A                        :Mud Cake Sample Source
MFSS .        N/A                        :Mud Filtrate Sample Source
MSS  .        N/A                        :Mud Sample Source
OS1  .                                   :Other Services Line 1
OS2  .                                   :Other Services Line 2
OS3  .                                   :Other Services Line 3
OS4  .                                   :Other Services Line 4
OS5  .                                   :Other Services Line 5
R1   .                                   :Remark Line 1
R2   .                                   :Remark Line 2
R3   .                                   :Remark Line 3
R4   .                                   :Remark Line 4
R5   .                                   :Remark Line 5
R6   .                                   :Remark Line 6
R7   .                                   :Remark Line 7
R8   .                                   :Remark Line 8
TCS  .        20 00                      :Time Circulation Stopped
TLAB .                                   :Time Logger At Bottom
EPD  .F         6585.000000              :Elevation of Permanent Datum above Mean Sea Level
APD  .F          12.000000               :Elevation of Depth Reference (LMF) above Permanent Datum
#-----------------------------------------------------------------------------
~CURVE INFORMATION
#MNEM.UNIT   API CODE                                  DESCRIPTION
#---- -----  --------                                  -----------------------
DEPT .F                                                :DEPTH (BOREHOLE) {F12.4}
C1_OBMT.IN                                             :OBMT Caliper 1 {F11.4}
C2_OBMT.IN                                             :OBMT Caliper 2 {F11.4}
CDF  .LBF                                              :Calibrated Downhole Force {F11.4}
CTEM .DEGF                                             :Cartridge Temperature {F11.4}
DCAL .IN                                               :Differential Caliper {F11.4}
DEVI .DEG                                              :Hole Deviation {F11.4}
DEVIM.DEG                                              :Memorized Deviation {F11.4}
DWAL_WALK2.                                            :Dry Weight Fraction Pseudo Aluminum (SpectroLith WALK2 Model) {F11.4}
DWCA_WALK2.                                            :Dry Weight Fraction Calcium (SpectroLith WALK2 Model) {F11.4}
DWFE_WALK2.                                            :Dry Weight Fraction Iron + 0.14 Aluminum (SpectroLith WALK2 Model) {F11.4}
DWGD_WALK2.PPM                                         :Dry Weight Fraction Gadolinium (SpectroLith WALK2 Model) {F11.4}
DWSI_WALK2.                                            :Dry Weight Fraction Silicon (SpectroLith WALK2 Model) {F11.4}
DWSU_WALK2.                                            :Dry Weight Fraction Sulfur (SpectroLith WALK2 Model) {F11.4}
DWTI_WALK2.                                            :Dry Weight Fraction Titanium (SpectroLith WALK2 Model) {F11.4}
ECST .DEGF                                             :ECS Temperature {F11.4}
ED   .F                                                :East Departure {F11.4}
ESUF_WALK2.                                            :Elemental Statistical Uncertainty Factor (SpectroLith WALK2 Model) {F11.4}
GR_EDTC.GAPI                                           :EDTC Gamma Ray {F11.4}
GTEM .DEGF                                             :Generalized Borehole Temperature {F11.4}
HAZI .DEG                                              :Hole Azimuth {F11.4}
HAZIM.DEG                                              :Hole Azimuth {F11.4}
ND   .F                                                :North Departure {F11.4}
P1AZ .DEG                                              :Pad 1 Azimuth {F11.4}
QCPMT.                                                 :Photomultiplier Tube Quality Control {F11.4}
RB   .DEG                                              :Relative Bearing {F11.4}
RHGE_WALK2.G/C3                                        :Matrix Density from Elemental Concentrations (SpectroLith WALK2 Model) {F11.4}
SDEV .DEG                                              :Sonde Deviation {F11.4}
SDEVM.DEG                                              :Sonde Deviation {F11.4}
STIT .F                                                :Stuck Tool Indicator, Total {F11.4}
TENS .LBF                                              :Cable Tension {F11.4}
WANH_WALK2.                                            :Dry Weight Fraction Anhydrite/Gypsum (SpectroLith WALK2 Model) {F11.4}
WCAR_WALK2.                                            :Dry Weight Fraction Carbonate (SpectroLith WALK2 Model) {F11.4}
WCLA_WALK2.                                            :Dry Weight Fraction Clay (SpectroLith WALK2 Model) {F11.4}
WCOA_WALK2.                                            :Dry Weight Fraction Coal (SpectroLith WALK2 Model) {F11.4}
WEVA_WALK2.                                            :Dry Weight Fraction Salt (SpectroLith WALK2 Model) {F11.4}
WPYR_WALK2.                                            :Dry Weight Fraction Pyrite (SpectroLith WALK2 Model) {F11.4}
WQFM_WALK2.                                            :Dry Weight Fraction Quartz+Feldspar+Mica (QFM) (SpectroLith WALK2 Model) {F11.4}
WSID_WALK2.                                            :Dry Weight Fraction Siderite (SpectroLith WALK2 Model) {F11.4}
#-----------------------------------------------------------------------------
# 
#      DEPT      C1_OBMT    C2_OBMT      CDF        CTEM       DCAL       DEVI      DEVIM    DWAL_WALK2 DWCA_WALK2 DWFE_WALK2 DWGD_WALK2 DWSI_WALK2 DWSU_WALK2 DWTI_WALK2    ECST        ED     ESUF_WALK2  GR_EDTC      GTEM       HAZI      HAZIM        ND        P1AZ      QCPMT        RB     RHGE_WALK2    SDEV      SDEVM       STIT       TENS    WANH_WALK2 WCAR_WALK2 WCLA_WALK2 WCOA_WALK2 WEVA_WALK2 WPYR_WALK2 WQFM_WALK2 WSID_WALK2
#
~A  
   3722.5000     7.1944     7.2509   957.3615   126.0236     0.4726     3.6251     3.6251     0.0387     0.0927     0.0217    10.3064     0.2915     0.0000     0.0049    45.9914   -73.8286     0.8066   142.4485   117.1998   113.8333   113.8333   -35.8858   355.7306     0.8103   241.8476     2.6987     3.6900     3.6900     0.0000  2372.0000     0.0000     0.1742     0.1550     0.0000     0.0000     0.0000     0.6707     0.0000
   3723.0000     7.1944     7.2509   957.3615   126.0236     0.4726     3.6251     3.6251     0.0387     0.0927     0.0217    10.3064     0.2915     0.0000     0.0049    45.9914   -73.8286     0.8066   135.7775   117.2064   113.8333   113.8333   -35.8858   355.7306     0.8103   241.8476     2.6987     3.6900     3.6900     0.0000  2372.0000     0.0000     0.1742     0.1550     0.0000     0.0000     0.0000     0.6707     0.0000
   3723.5000     7.1944     7.2509   957.3615   126.0236     0.4726     3.6251     3.6251     0.0387     0.0927     0.0217    10.3064     0.2915     0.0000     0.0049    45.9914   -73.8286     0.8066   133.9078   117.2130   113.8333   113.8333   -35.8858   355.7306     0.8103   241.8476     2.6987     3.6900     3.6900     0.0000  2372.0000     0.0000     0.1742     0.1550     0.0000     0.0000     0.0000     0.6707     0.0000
   3724.0000     7.1944     7.2509   957.3615   126.0236     0.4726     3.6251     3.6251     0.0387     0.0927     0.0217    10.3064     0.2915     0.0000     0.0049    45.9914   -73.8286     0.8066   126.7035   117.2196   113.8333   113.8333   -35.8858   355.7306     0.8103   241.8476     2.6987     3.6900     3.6900     0.0000  2372.0000     0.0000     0.1742     0.1550     0.0000     0.0000     0.0000     0.6707     0.0000
   3724.5000     7.1944     7.2509   957.3615   126.0236     0.4726     3.6251     3.6251     0.0387     0.0927     0.0217    10.3064     0.2915     0.0000     0.0049    45.9914   -73.8286     0.8066   127.5577   117.2262   113.8333   113.8333   -35.8858   355.7306     0.8103   241.8476     2.6987     3.6900     3.6900     0.0000  2372.0000     0.0000     0.1742     0.1550     0.0000     0.0000     0.0000     0.6707     0.0000
   3725.0000     7.1944     7.2509   957.3615   126.0236     0.4726     3.6251     3.6251     0.0387     0.0927     0.0217    10.3064     0.2915     0.0000     0.0049    45.9914   -73.8286     0.8066   132.5196   117.2328   113.8333   113.8333   -35.8858   355.7306     0.8103   241.8476     2.6987     3.6900     3.6900     0.0000  2372.0000     0.0000     0.1742     0.1550     0.0000     0.0000     0.0000     0.6707     0.0000
   3725.5000     7.1944     7.2509   957.3615   126.0236     0.4726     3.6251     3.6251     0.0387     0.0927     0.0217    10.3064     0.2915     0.0000     0.0049    45.9914   -73.8286     0.8066   138.3327   117.2394   113.8333   113.8333   -35.8858   355.7306     0.8103   241.8476     2.6987     3.6900     3.6900     0.0000  2372.0000     0.0000     0.1742     0.1550     0.0000     0.0000     0.0000     0.6707     0.0000
   3726.0000     7.1944     7.2509   957.3615   126.0236     0.4726     3.6251     3.6251     0.0387     0.0927     0.0217    10.3064     0.2915     0.0000     0.0049    45.9914   -73.8286     0.8066   137.1136   117.2460   113.8333   113.8333   -35.8858   355.7306     0.8103   241.8476     2.6987     3.6900     3.6900     0.0000  2372.0000     0.0000     0.1742     0.1550     0.0000     0.0000     0.0000     0.6707     0.0000
   3726.5000     7.1944     7.2509   957.3615   126.0236     0.4726     3.6251     3.6251     0.0387     0.0927     0.0217    10.3064     0.2915     0.0000     0.0049    45.9914   -73.8286     0.8066   133.3982   117.2526   113.8333   113.8333   -35.8858   355.7306     0.8103   241.8476     2.6987     3.6900     3.6900     0.0000  2372.0000     0.0000     0.1742     0.1550     0.0000     0.0000     0.0000     0.6707     0.0000
   3727.0000     7.1944     7.2509   957.3615   126.0236     0.4726     3.6251     3.6251     0.0387     0.0927     0.0217    10.3064     0.2915     0.0000     0.0049    45.9914   -73.7997     0.8066   131.3004   117.2592   113.8333   113.8333   -35.8986   355.7306     0.8103   241.8476     2.6987     3.6900     3.6900     0.0000  2372.0000     0.0000     0.1742     0.1550     0.0000     0.0000     0.0000     0.6707     0.0000
   3727.5000     7.1944     7.2509   957.3615   126.0236     0.4726     3.6251     3.6251     0.0387     0.0927     0.0217    10.3064     0.2915     0.0000     0.0049    45.9914   -73.7708     0.8066   131.3004   117.2658   113.8333   113.8333   -35.9113   355.7306     0.8103   241.8476     2.6987     3.6900     3.6900     0.0000  2372.0000     0.0000     0.1742     0.1550     0.0000     0.0000     0.0000     0.6707     0.0000
   3728.0000     7.1944     7.2509   957.3615   126.0236     0.4726     3.6251     3.6251     0.0387     0.0927     0.0217    10.3064     0.2915     0.0000     0.0049    45.9914   -73.7419     0.8066   133.7700   117.2725   113.8333   113.8333   -35.9241   355.7306     0.8103   241.8476     2.6987     3.6900     3.6900     0.0000  2372.0000     0.0000     0.1742     0.1550     0.0000     0.0000     0.0000     0.6707     0.0000
   3728.5000     7.1944     7.2509   957.3615   126.0236     0.4726     3.6251     3.6251     0.0387     0.0927     0.0217    10.3064     0.2915     0.0000     0.0049    45.9914   -73.7129     0.8066   142.0755   117.2791   113.8333   113.8333   -35.9369   355.7306     0.8103   241.8476     2.6987     3.6900     3.6900     0.0000  2372.0000     0.0000     0.1742     0.1550     0.0000     0.0000     0.0000     0.6707     0.0000
   3729.0000     7.1944     7.2509   957.3615   126.0236     0.4726     3.6251     3.6251     0.0387     0.0927     0.0217    10.3064     0.2915     0.0000     0.0049    45.9914   -73.6840     0.8066   140.5178   117.2857   113.8333   113.8333   -35.9497   355.7306     0.8103   241.8476     2.6987     3.6900     3.6900     0.0000  2372.0000     0.0000     0.1742     0.1550     0.0000     0.0000     0.0000     0.6707     0.0000
   3729.5000     7.1944     7.2509   957.3615   126.0236     0.4726     3.6251     3.6251     0.0387     0.0927     0.0217    10.3064     0.2915     0.0000     0.0049    45.9914   -73.6551     0.8066   137.2173   117.2923   113.8333   113.8333   -35.9624   355.7306     0.8103   241.8476     2.6987     3.6900     3.6900     0.0000  2372.0000     0.0000     0.1742     0.1550     0.0000     0.0000     0.0000     0.6707     0.0000
   3730.0000     7.1944     7.2509   957.3615   126.0236     0.4726     3.6251     3.6251     0.0387     0.0927     0.0217    10.3064     0.2915     0.0000     0.0049    45.9914   -73.6262     0.8066   129.7840   117.2989   113.8333   113.8333   -35.9752   355.7306     0.8103   241.8476     2.6987     3.6900     3.6900     0.0000  2372.0000     0.0000     0.1742     0.1550     0.0000     0.0000     0.0000     0.6707     0.0000
   3730.5000     7.1944     7.2509   957.3615   126.0236     0.4726     3.6251     3.6251     0.0387     0.0927     0.0217    10.3064     0.2915     0.0000     0.0049    45.9914   -73.5973     0.8066   127.7614   117.3055   113.8333   113.8333   -35.9880   355.7306     0.8103   241.8476     2.6987     3.6900     3.6900     0.0000  2372.0000     0.0000     0.1742     0.1550     0.0000     0.0000     0.0000     0.6707     0.0000
   3731.0000     7.1944     7.2509   957.3615   126.0236     0.4726     3.6251     3.6251     0.0385     0.0927     0.0216    10.3146     0.2918     0.0000     0.0049    45.9914   -73.5684     0.8072   129.7106   117.3121   113.8333   113.8333   -36.0008   355.7306     0.8103   241.8476     2.6985     3.6900     3.6900     0.0000  2372.0000     0.0000     0.1744     0.1535     0.0000     0.0000     0.0000     0.6721     0.0000
   3731.5000     7.1944     7.2509   957.3615   126.0236     0.4726     3.6251     3.6251     0.0384     0.0928     0.0216    10.3205     0.2919     0.0000     0.0049    45.9914   -73.5394     0.8077   135.5065   117.3187   113.8333   113.8333   -36.0135   355.7306     0.8103   241.8476     2.6984     3.6900     3.6900     0.0000  2372.0000     0.0000     0.1746     0.1524     0.0000     0.0000     0.0000     0.6730     0.0000
