~VERSION INFORMATION
VERS.           1.2   :CWLS Log ASCII Standard - VERSION 1.2
WRAP.           NO    :One Line per depth step
PROD.  Schlumberger   :LAS Producer
PROG.  DLIS to ASCII 17C0-152                          :LAS Program name and version
CREA.        2011/10/27 17:24                          :LAS Creation date {YYYY/MM/DD hh:mm}
DLIS_CREA.  2011-Oct-27 07:22                          :DLIS Creation date and time {YYYY-MMM-DD hh:mm}
SOURCE.     7e486f41-920f-449c-9fc4-a1d2576f3c93       :DLIS File Name
#--------------------------------------------------
~WELL INFORMATION
#MNEM.UNIT      DATA             DESCRIPTION
#---- ------ --------------   -----------------------------
STRT .F      3201.5000       :START DEPTH     
STOP .F      4055.0000       :STOP DEPTH     
STEP .F       0.5000         :STEP       
NULL .          -999.25      :NULL VALUE
COMP .                 COMPANY:  SWEPI LP                           
WELL .                    WELL:  Harper Hill 2-29                   
FLD  .                   FIELD:  Swan                               
LOC  .                LOCATION:                                     
CNTY .                  COUNTY:  Moffat                             
STAT .                   STATE:  Colorado                           
CTRY .                 COUNTRY:                                     
SRVC .         SERVICE COMPANY:  Schlumberger                       
API  .              API NUMBER:  05-0081-07659                      
DATE .                LOG DATE:  26-Oct-2011
UWI  .          UNIQUE WELL ID:                                     
#-----------------------------------------------------------------------------
~PARAMETER INFORMATION
#MNEM.UNIT    VALUE                      DESCRIPTION
#---- -----   --------------------       ------------------------
CN   .        SWEPI LP                   :Company Name
WN   .        Harper Hill 2-29           :Well Name
FN   .        Swan                       :Field Name
FL   .                                   :Field Location
FL1  .                                   :Field Location Line 1
COUN .        Moffat                     :County or Rig Name
STAT .        Colorado                   :State or Province
NATI .                                   :Nation
DATE .        26-Oct-2011                :Date as Month-Day-Year
APIN .        05-0081-07659              :API Serial Number
SECT .        29                         :Section
TOWN .        5N                         :Township
RANG .        90W                        :Range
DMF  .        Kelly Bushing              :Drilling Measured From
LMF  .        Kelly Bushing              :Log Measured From
PDAT .        Ground Level               :Permanent Datum
ENGI .        Mark Kast                  :Engineer's Name
WITN .        Tony                       :Witness's Name
LATI .                                   :Latitude
LONG .                                   :Longitude
LUL  .        Rock Springs               :Logging Unit Location
LUN  .              2271                 :Logging Unit Number
RUN  .        Two                        :Run Number
SON  .                                   :Service Order Number
BHT  .DEGF     127.00000                 :Bottom Hole Temperature (used in calculations)
BS   .IN         6.75000                 :Bit Size
DFD  .LB/G       7.90000                 :Drilling Fluid Density
DFV  .S         44.00000                 :Drilling Fluid Viscosity
DFL  .C3        16.60000                 :Drilling Fluid Loss
RMFS .                                   :Resistivity of Mud Filtrate Sample
EKB  .F       6597.00000                 :Elevation of Kelly Bushing
EGL  .F       6585.00000                 :Elevation of Ground Level
BLI  .                                   :Bottom Log Interval
BSAL .PPM     44500.00000                :Borehole Salinity
FLEV .                                   :Fluid Level
MCST .                                   :Mud Cake Sample Temperature
MFST .                                   :Mud Filtrate Sample Temperature
MRT  .DEGF     127.00000                 :Maximum Recorded Temperature
MST  .                                   :Mud Sample Temperature
RMCS .                                   :Resistivity of Mud Cake Sample
RMS  .                                   :Resistivity of Mud Sample
RW   .OHMM       1.00000                 :Resistivity of Connate Water
TDD  .F       4480.00000                 :Total Depth - Driller
TDL  .F       4482.00000                 :Total Depth - Logger
TLI  .                                   :Top Log Interval
HIDE .                                   :Header Identifier
MATR .        SAND                       :Rock Matrix for Neutron Porosity Corrections
DFT  .        OBM                        :Drilling Fluid Type
DFPH .                                   :Drilling Fluid PH
MCSS .        N/A                        :Mud Cake Sample Source
MFSS .        N/A                        :Mud Filtrate Sample Source
MSS  .        N/A                        :Mud Sample Source
OS1  .                                   :Other Services Line 1
OS2  .                                   :Other Services Line 2
OS3  .                                   :Other Services Line 3
OS4  .                                   :Other Services Line 4
OS5  .                                   :Other Services Line 5
R1   .                                   :Remark Line 1
R2   .                                   :Remark Line 2
R3   .                                   :Remark Line 3
R4   .                                   :Remark Line 4
R5   .                                   :Remark Line 5
R6   .                                   :Remark Line 6
R7   .                                   :Remark Line 7
R8   .                                   :Remark Line 8
TCS  .        20 00                      :Time Circulation Stopped
TLAB .                                   :Time Logger At Bottom
EPD  .F         6585.000000              :Elevation of Permanent Datum above Mean Sea Level
APD  .F          12.000000               :Elevation of Depth Reference (LMF) above Permanent Datum
#-----------------------------------------------------------------------------
~CURVE INFORMATION
#MNEM.UNIT   API CODE                                  DESCRIPTION
#---- -----  --------                                  -----------------------
DEPT .F                                                :DEPTH (BOREHOLE) {F12.4}
C1_OBMT.IN                                             :OBMT Caliper 1 {F11.4}
C2_OBMT.IN                                             :OBMT Caliper 2 {F11.4}
CDF  .LBF                                              :Calibrated Downhole Force {F11.4}
CTEM .DEGF                                             :Cartridge Temperature {F11.4}
DCAL .IN                                               :Differential Caliper {F11.4}
DEVI .DEG                                              :Hole Deviation {F11.4}
DEVIM.DEG                                              :Memorized Deviation {F11.4}
DWAL_WALK2.                                            :Dry Weight Fraction Pseudo Aluminum (SpectroLith WALK2 Model) {F11.4}
DWCA_WALK2.                                            :Dry Weight Fraction Calcium (SpectroLith WALK2 Model) {F11.4}
DWFE_WALK2.                                            :Dry Weight Fraction Iron + 0.14 Aluminum (SpectroLith WALK2 Model) {F11.4}
DWGD_WALK2.PPM                                         :Dry Weight Fraction Gadolinium (SpectroLith WALK2 Model) {F11.4}
DWSI_WALK2.                                            :Dry Weight Fraction Silicon (SpectroLith WALK2 Model) {F11.4}
DWSU_WALK2.                                            :Dry Weight Fraction Sulfur (SpectroLith WALK2 Model) {F11.4}
DWTI_WALK2.                                            :Dry Weight Fraction Titanium (SpectroLith WALK2 Model) {F11.4}
ECST .DEGF                                             :ECS Temperature {F11.4}
ED   .F                                                :East Departure {F11.4}
ESUF_WALK2.                                            :Elemental Statistical Uncertainty Factor (SpectroLith WALK2 Model) {F11.4}
GR_EDTC.GAPI                                           :EDTC Gamma Ray {F11.4}
GTEM .DEGF                                             :Generalized Borehole Temperature {F11.4}
HAZI .DEG                                              :Hole Azimuth {F11.4}
HAZIM.DEG                                              :Hole Azimuth {F11.4}
ND   .F                                                :North Departure {F11.4}
P1AZ .DEG                                              :Pad 1 Azimuth {F11.4}
QCPMT.                                                 :Photomultiplier Tube Quality Control {F11.4}
RB   .DEG                                              :Relative Bearing {F11.4}
RHGE_WALK2.G/C3                                        :Matrix Density from Elemental Concentrations (SpectroLith WALK2 Model) {F11.4}
SDEV .DEG                                              :Sonde Deviation {F11.4}
SDEVM.DEG                                              :Sonde Deviation {F11.4}
STIT .F                                                :Stuck Tool Indicator, Total {F11.4}
TENS .LBF                                              :Cable Tension {F11.4}
WANH_WALK2.                                            :Dry Weight Fraction Anhydrite/Gypsum (SpectroLith WALK2 Model) {F11.4}
WCAR_WALK2.                                            :Dry Weight Fraction Carbonate (SpectroLith WALK2 Model) {F11.4}
WCLA_WALK2.                                            :Dry Weight Fraction Clay (SpectroLith WALK2 Model) {F11.4}
WCOA_WALK2.                                            :Dry Weight Fraction Coal (SpectroLith WALK2 Model) {F11.4}
WEVA_WALK2.                                            :Dry Weight Fraction Salt (SpectroLith WALK2 Model) {F11.4}
WPYR_WALK2.                                            :Dry Weight Fraction Pyrite (SpectroLith WALK2 Model) {F11.4}
WQFM_WALK2.                                            :Dry Weight Fraction Quartz+Feldspar+Mica (QFM) (SpectroLith WALK2 Model) {F11.4}
WSID_WALK2.                                            :Dry Weight Fraction Siderite (SpectroLith WALK2 Model) {F11.4}
#-----------------------------------------------------------------------------
# 
#      DEPT      C1_OBMT    C2_OBMT      CDF        CTEM       DCAL       DEVI      DEVIM    DWAL_WALK2 DWCA_WALK2 DWFE_WALK2 DWGD_WALK2 DWSI_WALK2 DWSU_WALK2 DWTI_WALK2    ECST        ED     ESUF_WALK2  GR_EDTC      GTEM       HAZI      HAZIM        ND        P1AZ      QCPMT        RB     RHGE_WALK2    SDEV      SDEVM       STIT       TENS    WANH_WALK2 WCAR_WALK2 WCLA_WALK2 WCOA_WALK2 WEVA_WALK2 WPYR_WALK2 WQFM_WALK2 WSID_WALK2
#
~A  
# ...
   3486.5000     7.1077     7.1804   981.5355   127.0778     0.3940     8.1968     7.3665     0.0645     0.1096     0.0369     4.8418     0.2258     0.0046     0.0047    47.1620   -37.3921     0.8324   144.9547   114.0806   193.5436   191.8235     8.3172    20.0536     0.0000   186.4397     2.7351     8.4620     7.5918     0.0000  2320.0000     0.0000     0.2199     0.3820     0.0000     0.0000     0.0086     0.3896     0.0000
   3487.0000     7.1094     7.1495  1015.6635   127.0119     0.3794     8.1762     7.3308     0.0633     0.1176     0.0367     6.8772     0.2182     0.0006     0.0048    47.1620   -37.4052     0.7736   136.2104   114.0872   193.5285   191.7492     8.2546    19.5091     0.3654   185.9163     2.7313     8.4405     7.5543     0.0000  2346.0000     0.0000     0.2414     0.3714     0.0000     0.0000     0.0011     0.3860     0.0000
   3487.5000     7.1155     7.1469   947.4075   127.0119     0.3812     8.1647     7.2973     0.0608     0.1214     0.0356     8.6655     0.2178     0.0000     0.0041    47.1620   -37.4181     0.7448   136.4182   114.0938   193.5045   191.6642     8.1923    19.2577     0.5488   185.6914     2.7292     8.4289     7.5196     0.0000  2192.0000     0.0000     0.2517     0.3496     0.0000     0.0000     0.0000     0.3987     0.0000
   3488.0000     7.1111     7.1667  1005.7095   127.0119     0.3889     8.1506     7.2634     0.0611     0.1116     0.0354    10.6616     0.2291     0.0027     0.0039    47.1620   -37.4309     0.7398   137.7094   114.1004   193.4711   191.5875     8.1302    19.2799     0.4932   185.7466     2.7304     8.4139     7.4838     0.0000  2377.0000     0.0000     0.2252     0.3522     0.0000     0.0000     0.0050     0.4176     0.0000
   3488.5000     7.1086     7.1469  1020.2850   127.0778     0.3777     8.1357     7.2313     0.0595     0.1019     0.0339     9.3054     0.2437     0.0068     0.0039    47.1620   -37.4435     0.7732   139.6016   114.1070   193.4443   191.5010     8.0684    19.2663     0.2706   185.7600     2.7308     8.3980     7.4500     0.0000  2312.0000     0.0000     0.1991     0.3383     0.0000     0.0000     0.0127     0.4498     0.0000
   3489.0000     7.1042     7.1426   947.4075   126.8884     0.3734     8.1169     7.1933     0.0612     0.0880     0.0341     8.9458     0.2578     0.0103     0.0047    47.1620   -37.4560     0.8023   154.5290   114.1136   193.4262   191.4367     8.0069    19.2962     0.1708   185.8078     2.7329     8.3780     7.4099     0.0000  2217.0000     0.0000     0.1616     0.3528     0.0000     0.0000     0.0192     0.4664     0.0000
   3489.5000     7.1025     7.1770  1010.6865   127.0119     0.3896     8.0943     7.1591     0.0555     0.0949     0.0315     8.4990     0.2591     0.0042     0.0046    47.1620   -37.4683     0.7772   164.0624   114.1202   193.3914   191.3437     7.9457    19.1550     0.3983   185.7029     2.7222     8.3542     7.3739     0.0000  2394.0000     0.0000     0.1802     0.3029     0.0000     0.0000     0.0079     0.5090     0.0000
   3490.0000     7.1059     7.1529  1005.7095   127.1354     0.3794     8.0858     7.1267     0.0566     0.1006     0.0326     8.0497     0.2501     0.0029     0.0042    47.1620   -37.4805     0.7437   172.1226   114.1268   193.3662   191.2321     7.8847    18.8984     0.4278   185.4740     2.7235     8.3456     7.3401     0.0000  2315.0000     0.0000     0.1957     0.3126     0.0000     0.0000     0.0054     0.4863     0.0000
   3490.5000     7.1086     7.1520   957.3615   127.0119     0.3803     8.0646     7.0916     0.0552     0.1147     0.0320     5.5959     0.2359     0.0036     0.0030    47.1620   -37.4925     0.6934   155.3255   114.1334   193.3266   191.1471     7.8240    18.8794     0.0163   185.4946     2.7258     8.3235     7.3035     0.0000  2280.0000     0.0000     0.2336     0.2998     0.0000     0.0000     0.0068     0.4597     0.0000
   3491.0000     7.1112     7.1632  1015.6635   127.2095     0.3871     8.0464     7.0586     0.0590     0.1128     0.0337     4.1284     0.2318     0.0092     0.0026    47.1620   -37.5043     0.6965   154.4675   114.1401   193.2783   191.0311     7.7636    18.7587     0.3681   185.4233     2.7353     8.3046     7.2690     0.0000  2398.0000     0.0000     0.2285     0.3336     0.0000     0.0000     0.0172     0.4206     0.0000
   3491.5000     7.1146     7.1529   991.1340   127.0778     0.3837     8.0353     7.0147     0.0558     0.1153     0.0316     5.1139     0.2349     0.0126     0.0020    47.1620   -37.5160     0.7015   144.3542   114.1467   193.2484   190.9252     7.7034    18.6719     0.0276   185.3670     2.7357     8.2933     7.2232     0.0000  2267.0000     0.0000     0.2351     0.3055     0.0000     0.0000     0.0237     0.4357     0.0000
   3492.0000     7.1129     7.1555   942.4305   127.0119     0.3841     8.0110     6.9987     0.0575     0.1105     0.0323     8.7841     0.2377     0.0145     0.0021    47.1620   -37.5275     0.7339   155.3374   114.1533   193.2096   190.8736     7.6436    18.6387     0.2515   185.3731     2.7385     8.2677     7.2063     0.0000  2267.0000     0.0000     0.2223     0.3204     0.0000     0.0000     0.0272     0.4300     0.0000
   3492.5000     7.1051     7.1392  1025.2621   127.0778     0.3721     7.9983     6.9640     0.0579     0.1132     0.0331    10.5707     0.2334     0.0114     0.0018    47.1620   -37.5389     0.7638   149.5477   114.1599   193.1660   190.7068     7.5839    18.6281     0.9342   185.4058     2.7366     8.2539     7.1695     0.0000  2394.0000     0.0000     0.2295     0.3237     0.0000     0.0000     0.0213     0.4255     0.0000
   3493.0000     7.1025     7.1417   966.9600   127.0119     0.3721     7.9872     6.9146     0.0657     0.1126     0.0378    10.1211     0.2201     0.0103     0.0023    47.1620   -37.5501     0.7922   148.8438   114.1665   193.1150   190.5652     7.5245    18.3211     0.0000   185.1526     2.7440     8.2419     7.1176     0.0000  2237.0000     0.0000     0.2278     0.3926     0.0000     0.0000     0.0193     0.3603     0.0000
   3493.5000     7.1007     7.1443   952.3845   127.0778     0.3725     7.9550     6.8961     0.0666     0.1115     0.0384     6.0814     0.2197     0.0087     0.0028    47.1620   -37.5610     0.8087   154.0348   114.1731   193.0689   190.4873     7.4654    18.3637     0.0000   185.2409     2.7430     8.2082     7.0981     0.0000  2275.0000     0.0000     0.2249     0.4005     0.0000     0.0000     0.0162     0.3583     0.0000
   3494.0000     7.1051     7.1460  1054.4131   126.9460     0.3755     7.9441     6.8684     0.0667     0.1071     0.0382     4.5369     0.2248     0.0086     0.0035    47.1620   -37.5719     0.8137   157.2844   114.1797   193.0461   190.3346     7.4065    18.3042     0.0492   185.2047     2.7417     8.1970     7.0693     0.0000  2424.0000     0.0000     0.2132     0.4013     0.0000     0.0000     0.0161     0.3695     0.0000
   3494.5000     7.1103     7.1443   991.1340   127.0778     0.3773     7.9295     6.8151     0.0612     0.0931     0.0346     2.9722     0.2513     0.0095     0.0036    47.1620   -37.5825     0.7889   160.4812   114.1863   193.0084   190.2031     7.3478    18.2644     0.0000   185.2028     2.7339     8.1821     7.0138     0.0000  2290.0000     0.0000     0.1755     0.3527     0.0000     0.0000     0.0179     0.4539     0.0000
   3495.0000     7.1094     7.1409   981.5355   126.9460     0.3751     7.8933     6.7953     0.0627     0.0851     0.0348     2.7394     0.2587     0.0147     0.0039    47.1620   -37.5929     0.7519   146.0616   114.1929   192.9609   190.0491     7.2895    18.2616     0.2406   185.2475     2.7388     8.1441     6.9929     0.0000  2299.0000     0.0000     0.1539     0.3660     0.0000     0.0000     0.0275     0.4526     0.0000
   3495.5000     7.1138     7.1546  1030.2390   126.9460     0.3842     7.8870     6.7804     0.0635     0.0866     0.0348     2.1579     0.2559     0.0194     0.0035    47.1620   -37.6031     0.6945   138.0230   114.1995   192.9038   189.9241     7.2313    18.2388     0.6178   185.2816     2.7447     8.1378     6.9775     0.0000  2403.0000     0.0000     0.1581     0.3734     0.0000     0.0000     0.0363     0.4322     0.0000
