~VERSION INFORMATION
VERS.           1.2   :CWLS Log ASCII Standard - VERSION 1.2
WRAP.           NO    :One Line per depth step
PROD.  Schlumberger   :LAS Producer
PROG.  DLIS to ASCII 17C0-152                          :LAS Program name and version
CREA.        2011/10/27 17:25                          :LAS Creation date {YYYY/MM/DD hh:mm}
DLIS_CREA.  2011-Oct-27 07:17                          :DLIS Creation date and time {YYYY-MMM-DD hh:mm}
SOURCE.     79519d1b-f2ac-4620-a9ab-fbce0bbece67       :DLIS File Name
#--------------------------------------------------
~WELL INFORMATION
#MNEM.UNIT      DATA             DESCRIPTION
#---- ------ --------------   -----------------------------
STRT .F      3722.5000       :START DEPTH     
STOP .F      4490.0000       :STOP DEPTH     
STEP .F       0.5000         :STEP       
NULL .          -999.25      :NULL VALUE
COMP .                 COMPANY:  SWEPI LP                           
WELL .                    WELL:  Harper Hill 2-29                   
FLD  .                   FIELD:  Swan                               
LOC  .                LOCATION:                                     
CNTY .                  COUNTY:  Moffat                             
STAT .                   STATE:  Colorado                           
CTRY .                 COUNTRY:                                     
SRVC .         SERVICE COMPANY:  Schlumberger                       
API  .              API NUMBER:  05-0081-07659                      
DATE .                LOG DATE:  26-Oct-2011
UWI  .          UNIQUE WELL ID:                                     
#-----------------------------------------------------------------------------
~PARAMETER INFORMATION
#MNEM.UNIT    VALUE                      DESCRIPTION
#---- -----   --------------------       ------------------------
CN   .        SWEPI LP                   :Company Name
WN   .        Harper Hill 2-29           :Well Name
FN   .        Swan                       :Field Name
FL   .                                   :Field Location
FL1  .                                   :Field Location Line 1
COUN .        Moffat                     :County or Rig Name
STAT .        Colorado                   :State or Province
NATI .                                   :Nation
DATE .        26-Oct-2011                :Date as Month-Day-Year
APIN .        05-0081-07659              :API Serial Number
SECT .        29                         :Section
TOWN .        5N                         :Township
RANG .        90W                        :Range
DMF  .        Kelly Bushing              :Drilling Measured From
LMF  .        Kelly Bushing              :Log Measured From
PDAT .        Ground Level               :Permanent Datum
ENGI .        Mark Kast                  :Engineer's Name
WITN .        Tony                       :Witness's Name
LATI .                                   :Latitude
LONG .                                   :Longitude
LUL  .        Rock Springs               :Logging Unit Location
LUN  .              2271                 :Logging Unit Number
RUN  .        Two                        :Run Number
SON  .                                   :Service Order Number
BHT  .DEGF     127.00000                 :Bottom Hole Temperature (used in calculations)
BS   .IN         6.75000                 :Bit Size
DFD  .LB/G       7.90000                 :Drilling Fluid Density
DFV  .S         44.00000                 :Drilling Fluid Viscosity
DFL  .C3        16.60000                 :Drilling Fluid Loss
RMFS .                                   :Resistivity of Mud Filtrate Sample
EKB  .F       6597.00000                 :Elevation of Kelly Bushing
EGL  .F       6585.00000                 :Elevation of Ground Level
BLI  .                                   :Bottom Log Interval
BSAL .PPM     44500.00000                :Borehole Salinity
FLEV .                                   :Fluid Level
MCST .                                   :Mud Cake Sample Temperature
MFST .                                   :Mud Filtrate Sample Temperature
MRT  .DEGF     127.00000                 :Maximum Recorded Temperature
MST  .                                   :Mud Sample Temperature
RMCS .                                   :Resistivity of Mud Cake Sample
RMS  .                                   :Resistivity of Mud Sample
RW   .OHMM       1.00000                 :Resistivity of Connate Water
TDD  .F       4480.00000                 :Total Depth - Driller
TDL  .F       4482.00000                 :Total Depth - Logger
TLI  .                                   :Top Log Interval
HIDE .                                   :Header Identifier
MATR .        SAND                       :Rock Matrix for Neutron Porosity Corrections
DFT  .        OBM                        :Drilling Fluid Type
DFPH .                                   :Drilling Fluid PH
MCSS .        N/A                        :Mud Cake Sample Source
MFSS .        N/A                        :Mud Filtrate Sample Source
MSS  .        N/A                        :Mud Sample Source
OS1  .                                   :Other Services Line 1
OS2  .                                   :Other Services Line 2
OS3  .                                   :Other Services Line 3
OS4  .                                   :Other Services Line 4
OS5  .                                   :Other Services Line 5
R1   .                                   :Remark Line 1
R2   .                                   :Remark Line 2
R3   .                                   :Remark Line 3
R4   .                                   :Remark Line 4
R5   .                                   :Remark Line 5
R6   .                                   :Remark Line 6
R7   .                                   :Remark Line 7
R8   .                                   :Remark Line 8
TCS  .        20 00                      :Time Circulation Stopped
TLAB .                                   :Time Logger At Bottom
EPD  .F         6585.000000              :Elevation of Permanent Datum above Mean Sea Level
APD  .F          12.000000               :Elevation of Depth Reference (LMF) above Permanent Datum
#-----------------------------------------------------------------------------
~CURVE INFORMATION
#MNEM.UNIT   API CODE                                  DESCRIPTION
#---- -----  --------                                  -----------------------
DEPT .F                                                :DEPTH (BOREHOLE) {F12.4}
C1_OBMT.IN                                             :OBMT Caliper 1 {F11.4}
C2_OBMT.IN                                             :OBMT Caliper 2 {F11.4}
CDF  .LBF                                              :Calibrated Downhole Force {F11.4}
CTEM .DEGF                                             :Cartridge Temperature {F11.4}
DCAL .IN                                               :Differential Caliper {F11.4}
DEVI .DEG                                              :Hole Deviation {F11.4}
DEVIM.DEG                                              :Memorized Deviation {F11.4}
DWAL_WALK2.                                            :Dry Weight Fraction Pseudo Aluminum (SpectroLith WALK2 Model) {F11.4}
DWCA_WALK2.                                            :Dry Weight Fraction Calcium (SpectroLith WALK2 Model) {F11.4}
DWFE_WALK2.                                            :Dry Weight Fraction Iron + 0.14 Aluminum (SpectroLith WALK2 Model) {F11.4}
DWGD_WALK2.PPM                                         :Dry Weight Fraction Gadolinium (SpectroLith WALK2 Model) {F11.4}
DWSI_WALK2.                                            :Dry Weight Fraction Silicon (SpectroLith WALK2 Model) {F11.4}
DWSU_WALK2.                                            :Dry Weight Fraction Sulfur (SpectroLith WALK2 Model) {F11.4}
DWTI_WALK2.                                            :Dry Weight Fraction Titanium (SpectroLith WALK2 Model) {F11.4}
ECST .DEGF                                             :ECS Temperature {F11.4}
ED   .F                                                :East Departure {F11.4}
ESUF_WALK2.                                            :Elemental Statistical Uncertainty Factor (SpectroLith WALK2 Model) {F11.4}
GR_EDTC.GAPI                                           :EDTC Gamma Ray {F11.4}
GTEM .DEGF                                             :Generalized Borehole Temperature {F11.4}
HAZI .DEG                                              :Hole Azimuth {F11.4}
HAZIM.DEG                                              :Hole Azimuth {F11.4}
ND   .F                                                :North Departure {F11.4}
P1AZ .DEG                                              :Pad 1 Azimuth {F11.4}
QCPMT.                                                 :Photomultiplier Tube Quality Control {F11.4}
RB   .DEG                                              :Relative Bearing {F11.4}
RHGE_WALK2.G/C3                                        :Matrix Density from Elemental Concentrations (SpectroLith WALK2 Model) {F11.4}
SDEV .DEG                                              :Sonde Deviation {F11.4}
SDEVM.DEG                                              :Sonde Deviation {F11.4}
STIT .F                                                :Stuck Tool Indicator, Total {F11.4}
TENS .LBF                                              :Cable Tension {F11.4}
WANH_WALK2.                                            :Dry Weight Fraction Anhydrite/Gypsum (SpectroLith WALK2 Model) {F11.4}
WCAR_WALK2.                                            :Dry Weight Fraction Carbonate (SpectroLith WALK2 Model) {F11.4}
WCLA_WALK2.                                            :Dry Weight Fraction Clay (SpectroLith WALK2 Model) {F11.4}
WCOA_WALK2.                                            :Dry Weight Fraction Coal (SpectroLith WALK2 Model) {F11.4}
WEVA_WALK2.                                            :Dry Weight Fraction Salt (SpectroLith WALK2 Model) {F11.4}
WPYR_WALK2.                                            :Dry Weight Fraction Pyrite (SpectroLith WALK2 Model) {F11.4}
WQFM_WALK2.                                            :Dry Weight Fraction Quartz+Feldspar+Mica (QFM) (SpectroLith WALK2 Model) {F11.4}
WSID_WALK2.                                            :Dry Weight Fraction Siderite (SpectroLith WALK2 Model) {F11.4}
#-----------------------------------------------------------------------------
# 
#      DEPT      C1_OBMT    C2_OBMT      CDF        CTEM       DCAL       DEVI      DEVIM    DWAL_WALK2 DWCA_WALK2 DWFE_WALK2 DWGD_WALK2 DWSI_WALK2 DWSU_WALK2 DWTI_WALK2    ECST        ED     ESUF_WALK2  GR_EDTC      GTEM       HAZI      HAZIM        ND        P1AZ      QCPMT        RB     RHGE_WALK2    SDEV      SDEVM       STIT       TENS    WANH_WALK2 WCAR_WALK2 WCLA_WALK2 WCOA_WALK2 WEVA_WALK2 WPYR_WALK2 WQFM_WALK2 WSID_WALK2
#
~A  
# ...
   4226.0000     7.2898     7.3154  1073.9656   110.2119     0.5526     6.3260     6.2879     0.0868     0.0000     0.0494     0.0000     0.3148     0.0081     0.0090    44.8209   -23.7379     0.8550   145.0203   123.8544    58.4917    57.8956   -18.1797   241.9618     0.3855   183.4478     2.7435     6.5100     6.4700     0.0000  2851.0000     0.0000     0.0000     0.5780     0.0000     0.0000     0.0152     0.4068     0.0000
   4226.5000     7.2508     7.3034  1049.4360   110.2119     0.5271     6.3126     6.2967     0.0830     0.0123     0.0463     0.0000     0.3080     0.0126     0.0072    44.8209   -23.6915     0.7842   138.5803   123.8610    58.4803    57.8492   -18.1506   242.0156     0.5013   183.5126     2.7453     6.4940     6.4773     0.0000  2817.0000     0.0000     0.0000     0.5442     0.0000     0.0000     0.0236     0.4322     0.0000
   4227.0000     7.2681     7.3068  1049.4360   110.2119     0.5375     6.3164     6.3078     0.0734     0.0467     0.0407     0.0000     0.2849     0.0153     0.0051    44.2356   -23.6451     0.7088   128.6318   123.8677    58.4469    57.7789   -18.1213   241.9760     0.4080   183.5065     2.7440     6.4989     6.4899     0.0000  2830.0000     0.0000     0.0506     0.4599     0.0000     0.0000     0.0286     0.4609     0.0000
   4227.5000     7.2256     7.2647  1059.3900   110.2119     0.4951     6.3283     6.2917     0.0627     0.0664     0.0353     0.0000     0.2800     0.0117     0.0036    43.6503   -23.5986     0.6885   113.0550   123.8743    58.4128    57.8070   -18.0921   241.7149     0.1689   183.2809     2.7330     6.5092     6.4708     0.0000  2861.0000     0.0000     0.1037     0.3659     0.0000     0.0000     0.0218     0.5086     0.0000
   4228.0000     7.2317     7.2724  1010.6865   110.2119     0.5020     6.3209     6.2897     0.0585     0.0771     0.0342     2.0166     0.2737     0.0027     0.0031    43.6503   -23.5523     0.6939   113.4704   123.8809    58.4359    57.7925   -18.0629   241.7278     0.8814   183.2707     2.7223     6.5018     6.4691     0.0000  2749.0000     0.0000     0.1325     0.3292     0.0000     0.0000     0.0051     0.5331     0.0000
   4228.5000     7.2334     7.2733  1064.0116   110.2119     0.5033     6.3092     6.3032     0.0614     0.0881     0.0363     4.8928     0.2553     0.0000     0.0030    43.6503   -23.5059     0.6717   110.2162   123.8875    58.4296    57.7424   -18.0336   241.7912     0.4057   183.3400     2.7250     6.4896     6.4833     0.0000  2877.0000     0.0000     0.1620     0.3546     0.0000     0.0000     0.0000     0.4834     0.0000
   4229.0000     7.2265     7.2475  1054.4131   110.2119     0.4870     6.3212     6.2889     0.0688     0.0983     0.0405     8.0380     0.2305     0.0008     0.0037    44.2356   -23.4595     0.6549   106.0024   123.8941    58.3830    57.7462   -18.0044   242.0872     0.0245   183.6805     2.7352     6.5018     6.4680     0.0000  2825.0000     0.0000     0.1894     0.4197     0.0000     0.0000     0.0015     0.3894     0.0000
   4229.5000     7.1988     7.2191  1020.2850   110.2119     0.4589     6.3234     6.2945     0.0717     0.1076     0.0412     6.3730     0.2153     0.0096     0.0033    44.8209   -23.4132     0.6246    98.4140   123.9007    58.3801    57.7288   -17.9751   242.2434     0.2502   183.8385     2.7485     6.5028     6.4725     0.0000  2735.0000     0.0000     0.2146     0.4453     0.0000     0.0000     0.0179     0.3222     0.0000
   4230.0000     7.2387     7.2527  1073.9656   110.2119     0.4956     6.3111     6.2981     0.0739     0.1093     0.0417     4.2547     0.2102     0.0159     0.0032    44.8209   -23.3668     0.6068    98.3114   123.9073    58.3820    57.6982   -17.9458   242.6016     0.0000   184.1926     2.7572     6.4919     6.4782     0.0000  2883.0000     0.0000     0.2190     0.4648     0.0000     0.0000     0.0297     0.2865     0.0000
   4230.5000     7.2334     7.2604  1098.1395   110.2119     0.4969     6.3220     6.2926     0.0738     0.1017     0.0414     1.2291     0.2195     0.0186     0.0028    44.8209   -23.3205     0.6096   101.9411   123.9139    58.3459    57.6640   -17.9165   242.8318     0.1150   184.4572     2.7586     6.5030     6.4722     0.0000  2917.0000     0.0000     0.1985     0.4639     0.0000     0.0000     0.0347     0.3029     0.0000
   4231.0000     7.2256     7.2630  1039.8375   110.2119     0.4942     6.3206     6.2938     0.0752     0.0845     0.0426     1.5182     0.2368     0.0140     0.0034    44.8209   -23.2742     0.6416   109.1140   123.9205    58.3292    57.6625   -17.8872   242.9013     0.1799   184.5428     2.7525     6.5012     6.4730     0.0000  2801.0000     0.0000     0.1522     0.4757     0.0000     0.0000     0.0262     0.3460     0.0000
   4231.5000     7.2273     7.2681  1030.2390   110.2119     0.4977     6.3160     6.2999     0.0727     0.0664     0.0418     2.4614     0.2617     0.0076     0.0039    44.8209   -23.2279     0.7068   115.4473   123.9271    58.3101    57.6321   -17.8579   242.9518     0.0000   184.6120     2.7403     6.4965     6.4796     0.0000  2731.0000     0.0000     0.1035     0.4538     0.0000     0.0000     0.0141     0.4285     0.0000
   4232.0000     7.2300     7.2707  1103.1166   110.2119     0.5003     6.3227     6.2904     0.0657     0.0686     0.0387     4.3363     0.2706     0.0000     0.0038    44.8209   -23.1816     0.7358   113.7206   123.9337    58.2830    57.6092   -17.8285   243.2975     0.1447   184.9823     2.7259     6.5036     6.4698     0.0000  2943.0000     0.0000     0.1096     0.3925     0.0000     0.0000     0.0000     0.4979     0.0000
   4232.5000     7.2343     7.2716  1088.5410   110.2119     0.5029     6.3219     6.2938     0.0588     0.0847     0.0348     3.7539     0.2639     0.0000     0.0029    44.8209   -23.1353     0.7229   113.5418   123.9404    58.2421    57.5826   -17.7991   243.6205     0.2174   185.3440     2.7215     6.5030     6.4735     0.0000  2847.0000     0.0000     0.1529     0.3320     0.0000     0.0000     0.0000     0.5151     0.0000
   4233.0000     7.2387     7.2673  1049.4360   110.2119     0.5030     6.3064     6.3048     0.0544     0.0982     0.0326     3.1993     0.2556     0.0000     0.0017    44.8209   -23.0890     0.6975   113.8694   123.9470    58.2661    57.5137   -17.7697   243.7125     0.3666   185.4117     2.7198     6.4870     6.4853     0.0000  2808.0000     0.0000     0.1892     0.2931     0.0000     0.0000     0.0000     0.5177     0.0000
   4233.5000     7.2404     7.2621  1083.5641   110.2119     0.5012     6.3260     6.2911     0.0528     0.0998     0.0315     1.4381     0.2567     0.0023     0.0010    44.8209   -23.0427     0.6943   114.0601   123.9536    58.2174    57.4954   -17.7402   243.8463     0.1445   185.5929     2.7208     6.5075     6.4710     0.0000  2924.0000     0.0000     0.1935     0.2789     0.0000     0.0000     0.0042     0.5234     0.0000
   4234.0000     7.2378     7.2604  1078.5870   110.2119     0.4991     6.3174     6.2898     0.0528     0.0982     0.0313     0.7210     0.2588     0.0040     0.0011    44.8209   -22.9965     0.7199   111.9348   123.9602    58.2220    57.4668   -17.7108   244.0244     0.0554   185.7654     2.7221     6.4985     6.4695     0.0000  2830.0000     0.0000     0.1892     0.2790     0.0000     0.0000     0.0075     0.5243     0.0000
   4234.5000     7.2299     7.2561  1044.8146   110.2119     0.4930     6.3048     6.3007     0.0539     0.1106     0.0306     0.9321     0.2436     0.0129     0.0013    44.8209   -22.9503     0.7086   108.0075   123.9668    58.2333    57.4615   -17.6813   244.0784     0.0000   185.8079     2.7335     6.4848     6.4806     0.0000  2804.0000     0.0000     0.2226     0.2887     0.0000     0.0000     0.0242     0.4646     0.0000
   4235.0000     7.2291     7.2638  1078.5870   110.2119     0.4964     6.3138     6.2926     0.0566     0.1226     0.0319     1.1357     0.2251     0.0148     0.0017    44.8209   -22.9041     0.7103   116.9147   123.9734    58.2115    57.4151   -17.6518   244.2258     0.0378   185.9758     2.7401     6.4942     6.4720     0.0000  2914.0000     0.0000     0.2547     0.3127     0.0000     0.0000     0.0277     0.4049     0.0000
