~VERSION INFORMATION
VERS.           1.2   :CWLS Log ASCII Standard - VERSION 1.2
WRAP.           NO    :One Line per depth step
PROD.  Schlumberger   :LAS Producer
PROG.  DLIS to ASCII 17C0-152                          :LAS Program name and version
CREA.        2011/10/27 17:25                          :LAS Creation date {YYYY/MM/DD hh:mm}
DLIS_CREA.  2011-Oct-27 07:30                          :DLIS Creation date and time {YYYY-MMM-DD hh:mm}
SOURCE.     9895fb31-02c7-4189-bf8e-52df0b775dd1       :DLIS File Name
#--------------------------------------------------
~WELL INFORMATION
#MNEM.UNIT      DATA             DESCRIPTION
#---- ------ --------------   -----------------------------
STRT .F      3344.0000       :START DEPTH     
STOP .F      3862.5000       :STOP DEPTH     
STEP .F       0.5000         :STEP       
NULL .          -999.25      :NULL VALUE
COMP .                 COMPANY:  SWEPI LP                           
WELL .                    WELL:  Harper Hill 2-29                   
FLD  .                   FIELD:  Swan                               
LOC  .                LOCATION:                                     
CNTY .                  COUNTY:  Moffat                             
STAT .                   STATE:  Colorado                           
CTRY .                 COUNTRY:                                     
SRVC .         SERVICE COMPANY:  Schlumberger                       
API  .              API NUMBER:  05-0081-07659                      
DATE .                LOG DATE:  26-Oct-2011
UWI  .          UNIQUE WELL ID:                                     
#-----------------------------------------------------------------------------
~PARAMETER INFORMATION
#MNEM.UNIT    VALUE                      DESCRIPTION
#---- -----   --------------------       ------------------------
CN   .        SWEPI LP                   :Company Name
WN   .        Harper Hill 2-29           :Well Name
FN   .        Swan                       :Field Name
FL   .                                   :Field Location
FL1  .                                   :Field Location Line 1
COUN .        Moffat                     :County or Rig Name
STAT .        Colorado                   :State or Province
NATI .                                   :Nation
DATE .        26-Oct-2011                :Date as Month-Day-Year
APIN .        05-0081-07659              :API Serial Number
SECT .        29                         :Section
TOWN .        5N                         :Township
RANG .        90W                        :Range
DMF  .        Kelly Bushing              :Drilling Measured From
LMF  .        Kelly Bushing              :Log Measured From
PDAT .        Ground Level               :Permanent Datum
ENGI .        Mark Kast                  :Engineer's Name
WITN .        Tony                       :Witness's Name
LATI .                                   :Latitude
LONG .                                   :Longitude
LUL  .        Rock Springs               :Logging Unit Location
LUN  .              2271                 :Logging Unit Number
RUN  .        Two                        :Run Number
SON  .                                   :Service Order Number
BHT  .DEGF     127.00000                 :Bottom Hole Temperature (used in calculations)
BS   .IN         6.75000                 :Bit Size
DFD  .LB/G       7.90000                 :Drilling Fluid Density
DFV  .S         44.00000                 :Drilling Fluid Viscosity
DFL  .C3        16.60000                 :Drilling Fluid Loss
RMFS .                                   :Resistivity of Mud Filtrate Sample
EKB  .F       6597.00000                 :Elevation of Kelly Bushing
EGL  .F       6585.00000                 :Elevation of Ground Level
BLI  .                                   :Bottom Log Interval
BSAL .PPM     44500.00000                :Borehole Salinity
FLEV .                                   :Fluid Level
MCST .                                   :Mud Cake Sample Temperature
MFST .                                   :Mud Filtrate Sample Temperature
MRT  .DEGF     127.00000                 :Maximum Recorded Temperature
MST  .                                   :Mud Sample Temperature
RMCS .                                   :Resistivity of Mud Cake Sample
RMS  .                                   :Resistivity of Mud Sample
RW   .OHMM       1.00000                 :Resistivity of Connate Water
TDD  .F       4480.00000                 :Total Depth - Driller
TDL  .F       4482.00000                 :Total Depth - Logger
TLI  .                                   :Top Log Interval
HIDE .                                   :Header Identifier
MATR .        SAND                       :Rock Matrix for Neutron Porosity Corrections
DFT  .        OBM                        :Drilling Fluid Type
DFPH .                                   :Drilling Fluid PH
MCSS .        N/A                        :Mud Cake Sample Source
MFSS .        N/A                        :Mud Filtrate Sample Source
MSS  .        N/A                        :Mud Sample Source
OS1  .                                   :Other Services Line 1
OS2  .                                   :Other Services Line 2
OS3  .                                   :Other Services Line 3
OS4  .                                   :Other Services Line 4
OS5  .                                   :Other Services Line 5
R1   .                                   :Remark Line 1
R2   .                                   :Remark Line 2
R3   .                                   :Remark Line 3
R4   .                                   :Remark Line 4
R5   .                                   :Remark Line 5
R6   .                                   :Remark Line 6
R7   .                                   :Remark Line 7
R8   .                                   :Remark Line 8
TCS  .        20 00                      :Time Circulation Stopped
TLAB .                                   :Time Logger At Bottom
EPD  .F         6585.000000              :Elevation of Permanent Datum above Mean Sea Level
APD  .F          12.000000               :Elevation of Depth Reference (LMF) above Permanent Datum
#-----------------------------------------------------------------------------
~CURVE INFORMATION
#MNEM.UNIT   API CODE                                  DESCRIPTION
#---- -----  --------                                  -----------------------
DEPT .F                                                :DEPTH (BOREHOLE) {F12.4}
C1_OBMT.IN                                             :OBMT Caliper 1 {F11.4}
C2_OBMT.IN                                             :OBMT Caliper 2 {F11.4}
CDF  .LBF                                              :Calibrated Downhole Force {F11.4}
CTEM .DEGF                                             :Cartridge Temperature {F11.4}
DCAL .IN                                               :Differential Caliper {F11.4}
DEVI .DEG                                              :Hole Deviation {F11.4}
DEVIM.DEG                                              :Memorized Deviation {F11.4}
DWAL_WALK2.                                            :Dry Weight Fraction Pseudo Aluminum (SpectroLith WALK2 Model) {F11.4}
DWCA_WALK2.                                            :Dry Weight Fraction Calcium (SpectroLith WALK2 Model) {F11.4}
DWFE_WALK2.                                            :Dry Weight Fraction Iron + 0.14 Aluminum (SpectroLith WALK2 Model) {F11.4}
DWGD_WALK2.PPM                                         :Dry Weight Fraction Gadolinium (SpectroLith WALK2 Model) {F11.4}
DWSI_WALK2.                                            :Dry Weight Fraction Silicon (SpectroLith WALK2 Model) {F11.4}
DWSU_WALK2.                                            :Dry Weight Fraction Sulfur (SpectroLith WALK2 Model) {F11.4}
DWTI_WALK2.                                            :Dry Weight Fraction Titanium (SpectroLith WALK2 Model) {F11.4}
ECST .DEGF                                             :ECS Temperature {F11.4}
ED   .F                                                :East Departure {F11.4}
ESUF_WALK2.                                            :Elemental Statistical Uncertainty Factor (SpectroLith WALK2 Model) {F11.4}
GR_EDTC.GAPI                                           :EDTC Gamma Ray {F11.4}
GTEM .DEGF                                             :Generalized Borehole Temperature {F11.4}
HAZI .DEG                                              :Hole Azimuth {F11.4}
HAZIM.DEG                                              :Hole Azimuth {F11.4}
ND   .F                                                :North Departure {F11.4}
P1AZ .DEG                                              :Pad 1 Azimuth {F11.4}
QCPMT.                                                 :Photomultiplier Tube Quality Control {F11.4}
RB   .DEG                                              :Relative Bearing {F11.4}
RHGE_WALK2.G/C3                                        :Matrix Density from Elemental Concentrations (SpectroLith WALK2 Model) {F11.4}
SDEV .DEG                                              :Sonde Deviation {F11.4}
SDEVM.DEG                                              :Sonde Deviation {F11.4}
STIT .F                                                :Stuck Tool Indicator, Total {F11.4}
TENS .LBF                                              :Cable Tension {F11.4}
WANH_WALK2.                                            :Dry Weight Fraction Anhydrite/Gypsum (SpectroLith WALK2 Model) {F11.4}
WCAR_WALK2.                                            :Dry Weight Fraction Carbonate (SpectroLith WALK2 Model) {F11.4}
WCLA_WALK2.                                            :Dry Weight Fraction Clay (SpectroLith WALK2 Model) {F11.4}
WCOA_WALK2.                                            :Dry Weight Fraction Coal (SpectroLith WALK2 Model) {F11.4}
WEVA_WALK2.                                            :Dry Weight Fraction Salt (SpectroLith WALK2 Model) {F11.4}
WPYR_WALK2.                                            :Dry Weight Fraction Pyrite (SpectroLith WALK2 Model) {F11.4}
WQFM_WALK2.                                            :Dry Weight Fraction Quartz+Feldspar+Mica (QFM) (SpectroLith WALK2 Model) {F11.4}
WSID_WALK2.                                            :Dry Weight Fraction Siderite (SpectroLith WALK2 Model) {F11.4}
#-----------------------------------------------------------------------------
# 
#      DEPT      C1_OBMT    C2_OBMT      CDF        CTEM       DCAL       DEVI      DEVIM    DWAL_WALK2 DWCA_WALK2 DWFE_WALK2 DWGD_WALK2 DWSI_WALK2 DWSU_WALK2 DWTI_WALK2    ECST        ED     ESUF_WALK2  GR_EDTC      GTEM       HAZI      HAZIM        ND        P1AZ      QCPMT        RB     RHGE_WALK2    SDEV      SDEVM       STIT       TENS    WANH_WALK2 WCAR_WALK2 WCLA_WALK2 WCOA_WALK2 WEVA_WALK2 WPYR_WALK2 WQFM_WALK2 WSID_WALK2
#
~A  
# ...
   3619.5000     7.1467     7.1899  1020.2850   122.9601     0.4183     3.7275     3.7398     0.0414     0.1663     0.0233     4.3829     0.2007     0.0054     0.0032    49.8932   -15.9387     0.6174   134.7750   115.8384   157.4680   157.7179     6.1513   355.2937     0.0000   197.7892     2.7206     3.7945     3.8071     0.0000  2499.0000     0.0000     0.3724     0.1793     0.0000     0.0000     0.0102     0.4381     0.0000
   3620.0000     7.1519     7.1881  1078.5870   123.1109     0.4200     3.7300     3.7469     0.0427     0.1564     0.0249     3.6352     0.2093     0.0000     0.0029    50.6736   -15.9263     0.6349   138.6795   115.8450   157.4741   157.7059     6.1211   355.4091     0.1147   197.8983     2.7155     3.7971     3.8146     0.0000  2547.0000     0.0000     0.3456     0.1901     0.0000     0.0000     0.0000     0.4643     0.0000
   3620.5000     7.1571     7.1813   996.1110   123.2150     0.4192     3.7322     3.7416     0.0458     0.1501     0.0269     3.7338     0.2110     0.0009     0.0024    48.3325   -15.9139     0.6746   141.7962   115.8516   157.4424   157.7094     6.0909   355.3517     0.0430   197.8725     2.7191     3.7995     3.8091     0.0000  2383.0000     0.0000     0.3287     0.2172     0.0000     0.0000     0.0017     0.4523     0.0000
   3621.0000     7.1589     7.1795  1005.7095   123.1109     0.4192     3.7298     3.7412     0.0494     0.1491     0.0281     5.1116     0.2065     0.0095     0.0021    48.3325   -15.9015     0.6535   148.9727   115.8582   157.4909   157.7204     6.0607   355.3759     0.0000   197.8482     2.7313     3.7970     3.8088     0.0000  2441.0000     0.0000     0.3262     0.2494     0.0000     0.0000     0.0177     0.4066     0.0000
   3621.5000     7.1545     7.1778  1078.5870   123.1109     0.4162     3.7298     3.7477     0.0474     0.1582     0.0268     7.1037     0.1996     0.0109     0.0016    48.3325   -15.8891     0.6175   151.2418   115.8649   157.5039   157.6955     6.0305   355.2388     0.0000   197.6984     2.7322     3.7970     3.8154     0.0000  2569.0000     0.0000     0.3506     0.2314     0.0000     0.0000     0.0203     0.3977     0.0000
   3622.0000     7.1485     7.1804  1034.8606   123.1109     0.4144     3.7295     3.7456     0.0427     0.1692     0.0246     9.4801     0.1946     0.0077     0.0012    49.5030   -15.8767     0.6154   142.0427   115.8715   157.4901   157.6953     6.0003   355.1040     0.0898   197.5777     2.7261     3.7965     3.8131     0.0000  2421.0000     0.0000     0.3800     0.1904     0.0000     0.0000     0.0143     0.4152     0.0000
   3622.5000     7.1467     7.1864   957.3615   123.1109     0.4165     3.7297     3.7441     0.0351     0.1870     0.0212    11.0665     0.1864     0.0000     0.0006    49.1129   -15.8643     0.5885   129.4894   115.8781   157.5095   157.6753     5.9701   355.1003     0.8007   197.5545     2.7139     3.7967     3.8116     0.0000  2286.0000     0.0000     0.4280     0.1233     0.0000     0.0000     0.0000     0.4487     0.0000
   3623.0000     7.1467     7.1881  1068.9885   123.0069     0.4174     3.7301     3.7468     0.0360     0.1955     0.0217    11.7222     0.1748     0.0000     0.0007    48.3325   -15.8519     0.6012   123.9510   115.8847   157.5272   157.7007     5.9399   355.2463     0.4395   197.6826     2.7163     3.7971     3.8144     0.0000  2550.0000     0.0000     0.4510     0.1311     0.0000     0.0000     0.0000     0.4179     0.0000
   3623.5000     7.1537     7.1856  1088.5410   123.1578     0.4196     3.7299     3.7453     0.0382     0.2041     0.0228    10.2780     0.1610     0.0019     0.0007    48.3325   -15.8396     0.5726   125.4586   115.8913   157.5191   157.7150     5.9096   355.2482     0.2679   197.6928     2.7220     3.7970     3.8130     0.0000  2512.0000     0.0000     0.4741     0.1507     0.0000     0.0000     0.0035     0.3718     0.0000
   3624.0000     7.1554     7.1795   981.5355   123.1109     0.4175     3.7306     3.7443     0.0441     0.2033     0.0253     8.2742     0.1524     0.0090     0.0012    48.3325   -15.8272     0.5800   125.5975   115.8979   157.5688   157.6855     5.8794   355.1988     0.0000   197.5938     2.7347     3.7978     3.8120     0.0000  2365.0000     0.0000     0.4719     0.2028     0.0000     0.0000     0.0168     0.3085     0.0000
   3624.5000     7.1545     7.1778  1010.6865   122.9491     0.4162     3.7296     3.7457     0.0433     0.2097     0.0241     6.3840     0.1470     0.0133     0.0013    50.6736   -15.8148     0.5362   125.7706   115.9045   157.5474   157.7063     5.8492   355.1980     0.5121   197.6142     2.7388     3.7968     3.8134     0.0000  2412.0000     0.0000     0.4890     0.1956     0.0000     0.0000     0.0250     0.2904     0.0000
   3625.0000     7.1537     7.1778  1088.5410   123.1109     0.4157     3.7302     3.7457     0.0418     0.2114     0.0227     5.1465     0.1481     0.0150     0.0019    49.5030   -15.8024     0.5397   130.0346   115.9111   157.5433   157.7080     5.8190   355.2391     0.4744   197.6593     2.7385     3.7973     3.8134     0.0000  2601.0000     0.0000     0.4936     0.1826     0.0000     0.0000     0.0281     0.2957     0.0000
   3625.5000     7.1458     7.1804  1054.4131   123.0589     0.4131     3.7323     3.7472     0.0376     0.2173     0.0203     5.2495     0.1487     0.0127     0.0023    48.3325   -15.7900     0.5213   125.8500   115.9177   157.5621   157.7079     5.7888   355.1534     0.0775   197.5548     2.7323     3.7993     3.8148     0.0000  2443.0000     0.0000     0.5096     0.1455     0.0000     0.0000     0.0237     0.3212     0.0000
   3626.0000     7.1441     7.1821   981.5355   123.1109     0.4131     3.7299     3.7469     0.0355     0.2177     0.0185     5.0339     0.1526     0.0154     0.0028    48.3325   -15.7776     0.5693   121.1928   115.9243   157.5478   157.7058     5.7585   355.1668     0.3547   197.5828     2.7322     3.7969     3.8145     0.0000  2340.0000     0.0000     0.5105     0.1270     0.0000     0.0000     0.0289     0.3336     0.0000
   3626.5000     7.1476     7.1856  1064.0116   123.2150     0.4165     3.7316     3.7472     0.0364     0.2201     0.0183     3.7111     0.1487     0.0211     0.0027    48.7227   -15.7652     0.5677   116.1360   115.9309   157.5438   157.7048     5.7283   355.0183     0.0792   197.4385     2.7389     3.7987     3.8148     0.0000  2571.0000     0.0000     0.5172     0.1352     0.0000     0.0000     0.0393     0.3083     0.0000
   3627.0000     7.1554     7.1864  1073.9656   123.0069     0.4209     3.7344     3.7492     0.0386     0.2218     0.0186     1.4792     0.1438     0.0266     0.0025    49.5030   -15.7528     0.6133   116.1777   115.9375   157.5367   157.6867     5.6981   354.9768     0.1096   197.4041     2.7463     3.8017     3.8170     0.0000  2510.0000     0.0000     0.5218     0.1544     0.0000     0.0000     0.0399     0.2840     0.0000
   3627.5000     7.1558     7.1821   986.5125   123.1109     0.4190     3.7283     3.7472     0.0400     0.2226     0.0203     0.3261     0.1395     0.0232     0.0023    48.9178   -15.7404     0.6189   118.4287   115.9442   157.5416   157.7166     5.6678   354.9685     0.3526   197.3910     2.7457     3.7953     3.8150     0.0000  2329.0000     0.0000     0.5238     0.1668     0.0000     0.0000     0.0435     0.2660     0.0000
   3628.0000     7.1554     7.1778  1049.4360   123.1109     0.4166     3.7331     3.7445     0.0403     0.2182     0.0208     1.5160     0.1440     0.0213     0.0023    48.3325   -15.7280     0.6387   124.1232   115.9508   157.5315   157.7253     5.6376   354.8477     0.0865   197.2804     2.7434     3.8004     3.8122     0.0000  2511.0000     0.0000     0.5119     0.1688     0.0000     0.0000     0.0398     0.2795     0.0000
   3628.5000     7.1537     7.1795  1083.5641   122.9491     0.4166     3.7399     3.7466     0.0393     0.2072     0.0205     3.3361     0.1583     0.0184     0.0026    48.3325   -15.7156     0.6490   129.3045   115.9574   157.5137   157.7437     5.6074   354.6249     0.0000   197.0756     2.7376     3.8074     3.8143     0.0000  2550.0000     0.0000     0.4823     0.1603     0.0000     0.0000     0.0345     0.3229     0.0000
