~VERSION INFORMATION
VERS.           1.2   :CWLS Log ASCII Standard - VERSION 1.2
WRAP.           NO    :One Line per depth step
PROD.  Schlumberger   :LAS Producer
PROG.  DLIS to ASCII 17C0-152                          :LAS Program name and version
CREA.        2011/10/27 17:25                          :LAS Creation date {YYYY/MM/DD hh:mm}
DLIS_CREA.  2011-Oct-27 07:17                          :DLIS Creation date and time {YYYY-MMM-DD hh:mm}
SOURCE.     79519d1b-f2ac-4620-a9ab-fbce0bbece67       :DLIS File Name
#--------------------------------------------------
~WELL INFORMATION
#MNEM.UNIT      DATA             DESCRIPTION
#---- ------ --------------   -----------------------------
STRT .F      3722.5000       :START DEPTH     
STOP .F      4490.0000       :STOP DEPTH     
STEP .F       0.5000         :STEP       
NULL .          -999.25      :NULL VALUE
COMP .                 COMPANY:  SWEPI LP                           
WELL .                    WELL:  Harper Hill 2-29                   
FLD  .                   FIELD:  Swan                               
LOC  .                LOCATION:                                     
CNTY .                  COUNTY:  Moffat                             
STAT .                   STATE:  Colorado                           
CTRY .                 COUNTRY:                                     
SRVC .         SERVICE COMPANY:  Schlumberger                       
API  .              API NUMBER:  05-0081-07659                      
DATE .                LOG DATE:  26-Oct-2011
UWI  .          UNIQUE WELL ID:                                     
#-----------------------------------------------------------------------------
~PARAMETER INFORMATION
#MNEM.UNIT    VALUE                      DESCRIPTION
#---- -----   --------------------       ------------------------
CN   .        SWEPI LP                   :Company Name
WN   .        Harper Hill 2-29           :Well Name
FN   .        Swan                       :Field Name
FL   .                                   :Field Location
FL1  .                                   :Field Location Line 1
COUN .        Moffat                     :County or Rig Name
STAT .        Colorado                   :State or Province
NATI .                                   :Nation
DATE .        26-Oct-2011                :Date as Month-Day-Year
APIN .        05-0081-07659              :API Serial Number
SECT .        29                         :Section
TOWN .        5N                         :Township
RANG .        90W                        :Range
DMF  .        Kelly Bushing              :Drilling Measured From
LMF  .        Kelly Bushing              :Log Measured From
PDAT .        Ground Level               :Permanent Datum
ENGI .        Mark Kast                  :Engineer's Name
WITN .        Tony                       :Witness's Name
LATI .                                   :Latitude
LONG .                                   :Longitude
LUL  .        Rock Springs               :Logging Unit Location
LUN  .              2271                 :Logging Unit Number
RUN  .        Two                        :Run Number
SON  .                                   :Service Order Number
BHT  .DEGF     127.00000                 :Bottom Hole Temperature (used in calculations)
BS   .IN         6.75000                 :Bit Size
DFD  .LB/G       7.90000                 :Drilling Fluid Density
DFV  .S         44.00000                 :Drilling Fluid Viscosity
DFL  .C3        16.60000                 :Drilling Fluid Loss
RMFS .                                   :Resistivity of Mud Filtrate Sample
EKB  .F       6597.00000                 :Elevation of Kelly Bushing
EGL  .F       6585.00000                 :Elevation of Ground Level
BLI  .                                   :Bottom Log Interval
BSAL .PPM     44500.00000                :Borehole Salinity
FLEV .                                   :Fluid Level
MCST .                                   :Mud Cake Sample Temperature
MFST .                                   :Mud Filtrate Sample Temperature
MRT  .DEGF     127.00000                 :Maximum Recorded Temperature
MST  .                                   :Mud Sample Temperature
RMCS .                                   :Resistivity of Mud Cake Sample
RMS  .                                   :Resistivity of Mud Sample
RW   .OHMM       1.00000                 :Resistivity of Connate Water
TDD  .F       4480.00000                 :Total Depth - Driller
TDL  .F       4482.00000                 :Total Depth - Logger
TLI  .                                   :Top Log Interval
HIDE .                                   :Header Identifier
MATR .        SAND                       :Rock Matrix for Neutron Porosity Corrections
DFT  .        OBM                        :Drilling Fluid Type
DFPH .                                   :Drilling Fluid PH
MCSS .        N/A                        :Mud Cake Sample Source
MFSS .        N/A                        :Mud Filtrate Sample Source
MSS  .        N/A                        :Mud Sample Source
OS1  .                                   :Other Services Line 1
OS2  .                                   :Other Services Line 2
OS3  .                                   :Other Services Line 3
OS4  .                                   :Other Services Line 4
OS5  .                                   :Other Services Line 5
R1   .                                   :Remark Line 1
R2   .                                   :Remark Line 2
R3   .                                   :Remark Line 3
R4   .                                   :Remark Line 4
R5   .                                   :Remark Line 5
R6   .                                   :Remark Line 6
R7   .                                   :Remark Line 7
R8   .                                   :Remark Line 8
TCS  .        20 00                      :Time Circulation Stopped
TLAB .                                   :Time Logger At Bottom
EPD  .F         6585.000000              :Elevation of Permanent Datum above Mean Sea Level
APD  .F          12.000000               :Elevation of Depth Reference (LMF) above Permanent Datum
#-----------------------------------------------------------------------------
~CURVE INFORMATION
#MNEM.UNIT   API CODE                                  DESCRIPTION
#---- -----  --------                                  -----------------------
DEPT .F                                                :DEPTH (BOREHOLE) {F12.4}
C1_OBMT.IN                                             :OBMT Caliper 1 {F11.4}
C2_OBMT.IN                                             :OBMT Caliper 2 {F11.4}
CDF  .LBF                                              :Calibrated Downhole Force {F11.4}
CTEM .DEGF                                             :Cartridge Temperature {F11.4}
DCAL .IN                                               :Differential Caliper {F11.4}
DEVI .DEG                                              :Hole Deviation {F11.4}
DEVIM.DEG                                              :Memorized Deviation {F11.4}
DWAL_WALK2.                                            :Dry Weight Fraction Pseudo Aluminum (SpectroLith WALK2 Model) {F11.4}
DWCA_WALK2.                                            :Dry Weight Fraction Calcium (SpectroLith WALK2 Model) {F11.4}
DWFE_WALK2.                                            :Dry Weight Fraction Iron + 0.14 Aluminum (SpectroLith WALK2 Model) {F11.4}
DWGD_WALK2.PPM                                         :Dry Weight Fraction Gadolinium (SpectroLith WALK2 Model) {F11.4}
DWSI_WALK2.                                            :Dry Weight Fraction Silicon (SpectroLith WALK2 Model) {F11.4}
DWSU_WALK2.                                            :Dry Weight Fraction Sulfur (SpectroLith WALK2 Model) {F11.4}
DWTI_WALK2.                                            :Dry Weight Fraction Titanium (SpectroLith WALK2 Model) {F11.4}
ECST .DEGF                                             :ECS Temperature {F11.4}
ED   .F                                                :East Departure {F11.4}
ESUF_WALK2.                                            :Elemental Statistical Uncertainty Factor (SpectroLith WALK2 Model) {F11.4}
GR_EDTC.GAPI                                           :EDTC Gamma Ray {F11.4}
GTEM .DEGF                                             :Generalized Borehole Temperature {F11.4}
HAZI .DEG                                              :Hole Azimuth {F11.4}
HAZIM.DEG                                              :Hole Azimuth {F11.4}
ND   .F                                                :North Departure {F11.4}
P1AZ .DEG                                              :Pad 1 Azimuth {F11.4}
QCPMT.                                                 :Photomultiplier Tube Quality Control {F11.4}
RB   .DEG                                              :Relative Bearing {F11.4}
RHGE_WALK2.G/C3                                        :Matrix Density from Elemental Concentrations (SpectroLith WALK2 Model) {F11.4}
SDEV .DEG                                              :Sonde Deviation {F11.4}
SDEVM.DEG                                              :Sonde Deviation {F11.4}
STIT .F                                                :Stuck Tool Indicator, Total {F11.4}
TENS .LBF                                              :Cable Tension {F11.4}
WANH_WALK2.                                            :Dry Weight Fraction Anhydrite/Gypsum (SpectroLith WALK2 Model) {F11.4}
WCAR_WALK2.                                            :Dry Weight Fraction Carbonate (SpectroLith WALK2 Model) {F11.4}
WCLA_WALK2.                                            :Dry Weight Fraction Clay (SpectroLith WALK2 Model) {F11.4}
WCOA_WALK2.                                            :Dry Weight Fraction Coal (SpectroLith WALK2 Model) {F11.4}
WEVA_WALK2.                                            :Dry Weight Fraction Salt (SpectroLith WALK2 Model) {F11.4}
WPYR_WALK2.                                            :Dry Weight Fraction Pyrite (SpectroLith WALK2 Model) {F11.4}
WQFM_WALK2.                                            :Dry Weight Fraction Quartz+Feldspar+Mica (QFM) (SpectroLith WALK2 Model) {F11.4}
WSID_WALK2.                                            :Dry Weight Fraction Siderite (SpectroLith WALK2 Model) {F11.4}
#-----------------------------------------------------------------------------
# 
#      DEPT      C1_OBMT    C2_OBMT      CDF        CTEM       DCAL       DEVI      DEVIM    DWAL_WALK2 DWCA_WALK2 DWFE_WALK2 DWGD_WALK2 DWSI_WALK2 DWSU_WALK2 DWTI_WALK2    ECST        ED     ESUF_WALK2  GR_EDTC      GTEM       HAZI      HAZIM        ND        P1AZ      QCPMT        RB     RHGE_WALK2    SDEV      SDEVM       STIT       TENS    WANH_WALK2 WCAR_WALK2 WCLA_WALK2 WCOA_WALK2 WEVA_WALK2 WPYR_WALK2 WQFM_WALK2 WSID_WALK2
#
~A  
# ...
   4074.0000     7.1875     7.2286   961.9830   118.1178     0.4580     6.5653     6.5210     0.0650     0.0444     0.0358    10.1545     0.3025     0.0151     0.0047    44.8209   -38.4944     0.8305   154.3503   121.8455    65.2229    64.3232   -26.3981   248.9252     0.0000   183.6766     2.7343     6.7559     6.7095     0.0000  2512.0000     0.0000     0.0443     0.3862     0.0000     0.0000     0.0283     0.5411     0.0000
   4074.5000     7.1944     7.2243   981.5355   118.1178     0.4593     6.5652     6.5227     0.0672     0.0404     0.0364     9.2398     0.3039     0.0200     0.0048    44.8209   -38.4432     0.8351   145.9792   121.8521    65.1933    64.2908   -26.3734   248.9843     0.0000   183.7648     2.7405     6.7562     6.7117     0.0000  2653.0000     0.0000     0.0336     0.4054     0.0000     0.0000     0.0374     0.5236     0.0000
   4075.0000     7.1961     7.2191  1088.5410   118.1178     0.4576     6.5484     6.5087     0.0618     0.0424     0.0345     6.6397     0.3100     0.0121     0.0041    44.8209   -38.3921     0.8394   153.6872   121.8587    65.1911    64.3014   -26.3488   249.1847     0.0000   183.9661     2.7279     6.7387     6.6970     0.0000  2839.0000     0.0000     0.0390     0.3582     0.0000     0.0000     0.0226     0.5803     0.0000
   4075.5000     7.2352     7.2578  1083.5641   118.1178     0.4965     6.5365     6.5158     0.0596     0.0527     0.0341     4.6886     0.3010     0.0088     0.0028    45.9914   -38.3410     0.8134   147.4668   121.8653    65.2211    64.2680   -26.3242   249.3944     0.1104   184.1446     2.7251     6.7282     6.7065     0.0000  2710.0000     0.0000     0.0667     0.3385     0.0000     0.0000     0.0165     0.5783     0.0000
   4076.0000     7.2300     7.2630   996.1110   118.1178     0.4965     6.5681     6.5200     0.0608     0.0527     0.0357     3.1910     0.2980     0.0027     0.0027    46.3816   -38.2899     0.8428   154.1080   121.8719    65.0890    64.2117   -26.2996   249.3706     0.0000   184.2520     2.7210     6.7611     6.7106     0.0000  2596.0000     0.0000     0.0667     0.3492     0.0000     0.0000     0.0051     0.5790     0.0000
   4076.5000     7.2274     7.2707  1054.4131   118.1178     0.4990     6.5576     6.4980     0.0661     0.0571     0.0381     2.1048     0.2841     0.0080     0.0029    47.1620   -38.2389     0.8235   149.7089   121.8785    65.1170    64.2295   -26.2749   249.5880     0.1173   184.4402     2.7325     6.7500     6.6874     0.0000  2747.0000     0.0000     0.0786     0.3960     0.0000     0.0000     0.0150     0.5104     0.0000
   4077.0000     7.2334     7.2707  1064.0116   118.1178     0.5021     6.5373     6.5083     0.0650     0.0589     0.0380     1.5726     0.2835     0.0045     0.0028    45.9914   -38.1879     0.8015   159.4444   121.8851    65.1334    64.1783   -26.2503   249.8144     0.0752   184.6488     2.7284     6.7289     6.6985     0.0000  2755.0000     0.0000     0.0833     0.3862     0.0000     0.0000     0.0085     0.5219     0.0000
   4077.5000     7.2378     7.2630  1030.2390   118.1178     0.5004     6.5430     6.5165     0.0618     0.0597     0.0355     1.5007     0.2888     0.0082     0.0028    44.8209   -38.1369     0.7312   158.6081   121.8917    65.0956    64.1074   -26.2255   249.6951     0.0000   184.5679     2.7283     6.7351     6.7074     0.0000  2625.0000     0.0000     0.0856     0.3579     0.0000     0.0000     0.0153     0.5412     0.0000
   4078.0000     7.2338     7.2475   986.5125   118.1178     0.4907     6.5558     6.4970     0.0632     0.0575     0.0360     1.7555     0.2891     0.0110     0.0027    44.8209   -38.0859     0.7062   157.0737   121.8983    65.0377    64.1523   -26.2008   249.6189     0.0000   184.5496     2.7321     6.7484     6.6867     0.0000  2585.0000     0.0000     0.0797     0.3705     0.0000     0.0000     0.0205     0.5293     0.0000
   4078.5000     7.2273     7.2234  1068.9885   118.1178     0.4754     6.5473     6.4980     0.0682     0.0551     0.0382     2.7976     0.2837     0.0144     0.0036    44.8209   -38.0350     0.6968   149.0905   121.9050    65.0153    64.1273   -26.1761   249.4273     0.1530   184.3817     2.7399     6.7391     6.6874     0.0000  2829.0000     0.0000     0.0734     0.4142     0.0000     0.0000     0.0270     0.4855     0.0000
   4079.0000     7.1978     7.2423  1064.0116   118.1178     0.4700     6.5326     6.5092     0.0727     0.0574     0.0411     5.8597     0.2728     0.0124     0.0040    47.1620   -37.9840     0.7294   148.5406   121.9116    65.0349    64.0661   -26.1514   249.1843     0.2568   184.1211     2.7431     6.7222     6.6976     0.0000  2751.0000     0.0000     0.0795     0.4539     0.0000     0.0000     0.0231     0.4435     0.0000
   4079.5000     7.2300     7.2690   996.1110   118.1178     0.4995     6.5460     6.4934     0.0737     0.0513     0.0423     7.9114     0.2775     0.0058     0.0049    47.1620   -37.9331     0.7793   150.2930   121.9182    64.9534    64.0724   -26.1266   249.0791     0.2378   184.0974     2.7366     6.7379     6.6827     0.0000  2590.0000     0.0000     0.0631     0.4631     0.0000     0.0000     0.0109     0.4629     0.0000
   4080.0000     7.2342     7.2647  1005.7095   118.1178     0.4994     6.5446     6.4906     0.0743     0.0483     0.0431     8.8573     0.2795     0.0033     0.0047    44.8209   -37.8823     0.8115   152.8243   121.9248    64.9468    64.0612   -26.1019   249.0701     0.0419   184.0949     2.7346     6.7367     6.6800     0.0000  2630.0000     0.0000     0.0549     0.4683     0.0000     0.0000     0.0062     0.4706     0.0000
   4080.5000     7.2325     7.2595  1059.3900   118.1178     0.4960     6.5383     6.5016     0.0740     0.0450     0.0431     7.7186     0.2838     0.0034     0.0043    44.8209   -37.8314     0.8137   154.6572   121.9314    64.9337    64.0306   -26.0771   249.1962     0.0000   184.2332     2.7340     6.7300     6.6914     0.0000  2803.0000     0.0000     0.0461     0.4657     0.0000     0.0000     0.0063     0.4819     0.0000
   4081.0000     7.2326     7.2570  1049.4360   118.1178     0.4948     6.5341     6.4885     0.0682     0.0563     0.0393     8.4070     0.2814     0.0070     0.0034    44.8209   -37.7806     0.7741   153.8784   121.9380    64.9329    64.0396   -26.0524   249.3493     0.0978   184.3862     2.7333     6.7255     6.6777     0.0000  2710.0000     0.0000     0.0763     0.4140     0.0000     0.0000     0.0131     0.4965     0.0000
   4081.5000     7.2334     7.2604  1001.0880   118.1178     0.4969     6.5358     6.4841     0.0625     0.0646     0.0355     8.0102     0.2823     0.0106     0.0031    45.4062   -37.7298     0.7343   148.9888   121.9446    64.8993    64.0285   -26.0277   249.4308     0.0379   184.5004     2.7319     6.7274     6.6731     0.0000  2648.0000     0.0000     0.0988     0.3640     0.0000     0.0000     0.0199     0.5173     0.0000
   4082.0000     7.2317     7.2604  1059.3900   118.1178     0.4960     6.5304     6.4948     0.0569     0.0743     0.0319     6.8105     0.2811     0.0120     0.0030    45.9914   -37.6790     0.7161   154.8000   121.9512    64.8698    63.9799   -26.0029   249.1657     0.0000   184.2664     2.7286     6.7216     6.6843     0.0000  2800.0000     0.0000     0.1249     0.3148     0.0000     0.0000     0.0225     0.5378     0.0000
   4082.5000     7.2273     7.2647  1034.8606   118.1178     0.4960     6.5306     6.4847     0.0567     0.0767     0.0316     4.1560     0.2789     0.0126     0.0033    45.4062   -37.6282     0.7210   159.2784   121.9578    64.8308    64.0058   -25.9781   249.1516     0.1431   184.2912     2.7291     6.7217     6.6734     0.0000  2749.0000     0.0000     0.1313     0.3132     0.0000     0.0000     0.0235     0.5320     0.0000
   4083.0000     7.2300     7.2621   991.1340   118.1178     0.4960     6.5239     6.4756     0.0534     0.0799     0.0313     4.8795     0.2794     0.0011     0.0030    44.8209   -37.5775     0.7451   158.5455   121.9644    64.8023    64.0164   -25.9534   249.3306     0.4556   184.4974     2.7155     6.7147     6.6641     0.0000  2561.0000     0.0000     0.1399     0.2846     0.0000     0.0000     0.0020     0.5735     0.0000
