~VERSION INFORMATION
VERS.           1.2   :CWLS Log ASCII Standard - VERSION 1.2
WRAP.           NO    :One Line per depth step
PROD.  Schlumberger   :LAS Producer
PROG.  DLIS to ASCII 17C0-152                          :LAS Program name and version
CREA.        2011/10/27 17:24                          :LAS Creation date {YYYY/MM/DD hh:mm}
DLIS_CREA.  2011-Oct-27 07:22                          :DLIS Creation date and time {YYYY-MMM-DD hh:mm}
SOURCE.     7e486f41-920f-449c-9fc4-a1d2576f3c93       :DLIS File Name
#--------------------------------------------------
~WELL INFORMATION
#MNEM.UNIT      DATA             DESCRIPTION
#---- ------ --------------   -----------------------------
STRT .F      3201.5000       :START DEPTH     
STOP .F      4055.0000       :STOP DEPTH     
STEP .F       0.5000         :STEP       
NULL .          -999.25      :NULL VALUE
COMP .                 COMPANY:  SWEPI LP                           
WELL .                    WELL:  Harper Hill 2-29                   
FLD  .                   FIELD:  Swan                               
LOC  .                LOCATION:                                     
CNTY .                  COUNTY:  Moffat                             
STAT .                   STATE:  Colorado                           
CTRY .                 COUNTRY:                                     
SRVC .         SERVICE COMPANY:  Schlumberger                       
API  .              API NUMBER:  05-0081-07659                      
DATE .                LOG DATE:  26-Oct-2011
UWI  .          UNIQUE WELL ID:                                     
#-----------------------------------------------------------------------------
~PARAMETER INFORMATION
#MNEM.UNIT    VALUE                      DESCRIPTION
#---- -----   --------------------       ------------------------
CN   .        SWEPI LP                   :Company Name
WN   .        Harper Hill 2-29           :Well Name
FN   .        Swan                       :Field Name
FL   .                                   :Field Location
FL1  .                                   :Field Location Line 1
COUN .        Moffat                     :County or Rig Name
STAT .        Colorado                   :State or Province
NATI .                                   :Nation
DATE .        26-Oct-2011                :Date as Month-Day-Year
APIN .        05-0081-07659              :API Serial Number
SECT .        29                         :Section
TOWN .        5N                         :Township
RANG .        90W                        :Range
DMF  .        Kelly Bushing              :Drilling Measured From
LMF  .        Kelly Bushing              :Log Measured From
PDAT .        Ground Level               :Permanent Datum
ENGI .        Mark Kast                  :Engineer's Name
WITN .        Tony                       :Witness's Name
LATI .                                   :Latitude
LONG .                                   :Longitude
LUL  .        Rock Springs               :Logging Unit Location
LUN  .              2271                 :Logging Unit Number
RUN  .        Two                        :Run Number
SON  .                                   :Service Order Number
BHT  .DEGF     127.00000                 :Bottom Hole Temperature (used in calculations)
BS   .IN         6.75000                 :Bit Size
DFD  .LB/G       7.90000                 :Drilling Fluid Density
DFV  .S         44.00000                 :Drilling Fluid Viscosity
DFL  .C3        16.60000                 :Drilling Fluid Loss
RMFS .                                   :Resistivity of Mud Filtrate Sample
EKB  .F       6597.00000                 :Elevation of Kelly Bushing
EGL  .F       6585.00000                 :Elevation of Ground Level
BLI  .                                   :Bottom Log Interval
BSAL .PPM     44500.00000                :Borehole Salinity
FLEV .                                   :Fluid Level
MCST .                                   :Mud Cake Sample Temperature
MFST .                                   :Mud Filtrate Sample Temperature
MRT  .DEGF     127.00000                 :Maximum Recorded Temperature
MST  .                                   :Mud Sample Temperature
RMCS .                                   :Resistivity of Mud Cake Sample
RMS  .                                   :Resistivity of Mud Sample
RW   .OHMM       1.00000                 :Resistivity of Connate Water
TDD  .F       4480.00000                 :Total Depth - Driller
TDL  .F       4482.00000                 :Total Depth - Logger
TLI  .                                   :Top Log Interval
HIDE .                                   :Header Identifier
MATR .        SAND                       :Rock Matrix for Neutron Porosity Corrections
DFT  .        OBM                        :Drilling Fluid Type
DFPH .                                   :Drilling Fluid PH
MCSS .        N/A                        :Mud Cake Sample Source
MFSS .        N/A                        :Mud Filtrate Sample Source
MSS  .        N/A                        :Mud Sample Source
OS1  .                                   :Other Services Line 1
OS2  .                                   :Other Services Line 2
OS3  .                                   :Other Services Line 3
OS4  .                                   :Other Services Line 4
OS5  .                                   :Other Services Line 5
R1   .                                   :Remark Line 1
R2   .                                   :Remark Line 2
R3   .                                   :Remark Line 3
R4   .                                   :Remark Line 4
R5   .                                   :Remark Line 5
R6   .                                   :Remark Line 6
R7   .                                   :Remark Line 7
R8   .                                   :Remark Line 8
TCS  .        20 00                      :Time Circulation Stopped
TLAB .                                   :Time Logger At Bottom
EPD  .F         6585.000000              :Elevation of Permanent Datum above Mean Sea Level
APD  .F          12.000000               :Elevation of Depth Reference (LMF) above Permanent Datum
#-----------------------------------------------------------------------------
~CURVE INFORMATION
#MNEM.UNIT   API CODE                                  DESCRIPTION
#---- -----  --------                                  -----------------------
DEPT .F                                                :DEPTH (BOREHOLE) {F12.4}
C1_OBMT.IN                                             :OBMT Caliper 1 {F11.4}
C2_OBMT.IN                                             :OBMT Caliper 2 {F11.4}
CDF  .LBF                                              :Calibrated Downhole Force {F11.4}
CTEM .DEGF                                             :Cartridge Temperature {F11.4}
DCAL .IN                                               :Differential Caliper {F11.4}
DEVI .DEG                                              :Hole Deviation {F11.4}
DEVIM.DEG                                              :Memorized Deviation {F11.4}
DWAL_WALK2.                                            :Dry Weight Fraction Pseudo Aluminum (SpectroLith WALK2 Model) {F11.4}
DWCA_WALK2.                                            :Dry Weight Fraction Calcium (SpectroLith WALK2 Model) {F11.4}
DWFE_WALK2.                                            :Dry Weight Fraction Iron + 0.14 Aluminum (SpectroLith WALK2 Model) {F11.4}
DWGD_WALK2.PPM                                         :Dry Weight Fraction Gadolinium (SpectroLith WALK2 Model) {F11.4}
DWSI_WALK2.                                            :Dry Weight Fraction Silicon (SpectroLith WALK2 Model) {F11.4}
DWSU_WALK2.                                            :Dry Weight Fraction Sulfur (SpectroLith WALK2 Model) {F11.4}
DWTI_WALK2.                                            :Dry Weight Fraction Titanium (SpectroLith WALK2 Model) {F11.4}
ECST .DEGF                                             :ECS Temperature {F11.4}
ED   .F                                                :East Departure {F11.4}
ESUF_WALK2.                                            :Elemental Statistical Uncertainty Factor (SpectroLith WALK2 Model) {F11.4}
GR_EDTC.GAPI                                           :EDTC Gamma Ray {F11.4}
GTEM .DEGF                                             :Generalized Borehole Temperature {F11.4}
HAZI .DEG                                              :Hole Azimuth {F11.4}
HAZIM.DEG                                              :Hole Azimuth {F11.4}
ND   .F                                                :North Departure {F11.4}
P1AZ .DEG                                              :Pad 1 Azimuth {F11.4}
QCPMT.                                                 :Photomultiplier Tube Quality Control {F11.4}
RB   .DEG                                              :Relative Bearing {F11.4}
RHGE_WALK2.G/C3                                        :Matrix Density from Elemental Concentrations (SpectroLith WALK2 Model) {F11.4}
SDEV .DEG                                              :Sonde Deviation {F11.4}
SDEVM.DEG                                              :Sonde Deviation {F11.4}
STIT .F                                                :Stuck Tool Indicator, Total {F11.4}
TENS .LBF                                              :Cable Tension {F11.4}
WANH_WALK2.                                            :Dry Weight Fraction Anhydrite/Gypsum (SpectroLith WALK2 Model) {F11.4}
WCAR_WALK2.                                            :Dry Weight Fraction Carbonate (SpectroLith WALK2 Model) {F11.4}
WCLA_WALK2.                                            :Dry Weight Fraction Clay (SpectroLith WALK2 Model) {F11.4}
WCOA_WALK2.                                            :Dry Weight Fraction Coal (SpectroLith WALK2 Model) {F11.4}
WEVA_WALK2.                                            :Dry Weight Fraction Salt (SpectroLith WALK2 Model) {F11.4}
WPYR_WALK2.                                            :Dry Weight Fraction Pyrite (SpectroLith WALK2 Model) {F11.4}
WQFM_WALK2.                                            :Dry Weight Fraction Quartz+Feldspar+Mica (QFM) (SpectroLith WALK2 Model) {F11.4}
WSID_WALK2.                                            :Dry Weight Fraction Siderite (SpectroLith WALK2 Model) {F11.4}
#-----------------------------------------------------------------------------
# 
#      DEPT      C1_OBMT    C2_OBMT      CDF        CTEM       DCAL       DEVI      DEVIM    DWAL_WALK2 DWCA_WALK2 DWFE_WALK2 DWGD_WALK2 DWSI_WALK2 DWSU_WALK2 DWTI_WALK2    ECST        ED     ESUF_WALK2  GR_EDTC      GTEM       HAZI      HAZIM        ND        P1AZ      QCPMT        RB     RHGE_WALK2    SDEV      SDEVM       STIT       TENS    WANH_WALK2 WCAR_WALK2 WCLA_WALK2 WCOA_WALK2 WEVA_WALK2 WPYR_WALK2 WQFM_WALK2 WSID_WALK2
#
~A  
# ...
   3705.0000     7.1441     7.1856   932.8320   128.0001     0.4148     3.6847     3.4431     0.0515     0.0936     0.0300    11.7190     0.2670     0.0000     0.0036    45.9914   -33.8142     0.6907   146.2265   116.9685   156.4963   151.2771    -7.1663   351.5024     0.9231   194.9754     2.7142     3.7501     3.5005     0.0000  2302.0000     0.0000     0.1768     0.2672     0.0000     0.0000     0.0000     0.5560     0.0000
   3705.5000     7.1458     7.1856   937.8090   128.0001     0.4157     3.6765     3.4397     0.0571     0.0940     0.0336     9.9490     0.2562     0.0000     0.0032    46.5767   -33.7997     0.6897   146.6417   116.9751   156.4232   151.0536    -7.1926   351.5091     0.2806   195.0550     2.7210     3.7416     3.4970     0.0000  2363.0000     0.0000     0.1780     0.3167     0.0000     0.0000     0.0000     0.5054     0.0000
   3706.0000     7.1510     7.1821  1020.2850   128.0001     0.4166     3.6628     3.4353     0.0622     0.0930     0.0360     7.7876     0.2490     0.0057     0.0032    47.1620   -33.7851     0.7360   146.0826   116.9817   156.3946   150.8397    -7.2188   351.5177     0.0294   195.0927     2.7318     3.7276     3.4925     0.0000  2540.0000     0.0000     0.1751     0.3619     0.0000     0.0000     0.0106     0.4524     0.0000
   3706.5000     7.1441     7.1727   981.5355   128.0001     0.4084     3.6693     3.4238     0.0605     0.0929     0.0341     6.5006     0.2529     0.0117     0.0032    47.1620   -33.7705     0.7088   149.7812   116.9883   156.2698   150.6194    -7.2449   351.2550     0.3332   194.9550     2.7355     3.7342     3.4805     0.0000  2381.0000     0.0000     0.1748     0.3470     0.0000     0.0000     0.0219     0.4562     0.0000
   3707.0000     7.1389     7.1753   918.2565   128.0001     0.4071     3.6600     3.4171     0.0564     0.0983     0.0323     4.6672     0.2532     0.0087     0.0024    47.1620   -33.7558     0.6887   148.7668   116.9949   156.2522   150.3580    -7.2709   351.2303     0.6314   194.9480     2.7296     3.7244     3.4735     0.0000  2259.0000     0.0000     0.1895     0.3111     0.0000     0.0000     0.0162     0.4831     0.0000
   3707.5000     7.1320     7.1753  1001.0880   128.0001     0.4036     3.6490     3.4144     0.0547     0.1035     0.0319     3.1482     0.2497     0.0058     0.0019    46.5767   -33.7410     0.6651   148.2133   117.0015   156.1458   150.1311    -7.2967   350.7558     1.0482   194.5806     2.7263     3.7130     3.4706     0.0000  2485.0000     0.0000     0.2034     0.2959     0.0000     0.0000     0.0109     0.4897     0.0000
   3708.0000     7.1216     7.1684  1020.2850   128.0001     0.3949     3.6539     3.4129     0.0569     0.1072     0.0331     3.6642     0.2416     0.0077     0.0015    45.9914   -33.7261     0.6595   134.4814   117.0081   156.0489   149.8968    -7.3225   350.3039     0.4436   194.2262     2.7314     3.7178     3.4689     0.0000  2494.0000     0.0000     0.2133     0.3152     0.0000     0.0000     0.0145     0.4570     0.0000
   3708.5000     7.1090     7.1503   952.3845   128.0001     0.3796     3.6410     3.3986     0.0595     0.1046     0.0339     5.6836     0.2407     0.0134     0.0015    46.5767   -33.7112     0.6472   135.1047   117.0147   155.9774   149.6645    -7.3482   350.2803     0.1683   194.2741     2.7391     3.7043     3.4540     0.0000  2307.0000     0.0000     0.2063     0.3381     0.0000     0.0000     0.0250     0.4306     0.0000
   3709.0000     7.1112     7.1477   981.5355   128.0001     0.3794     3.6355     3.3952     0.0581     0.1054     0.0329     9.0184     0.2424     0.0157     0.0012    47.1620   -33.6962     0.6311   133.3522   117.0213   155.8825   149.4505    -7.3737   350.3060     0.0898   194.3947     2.7401     3.6986     3.4505     0.0000  2449.0000     0.0000     0.2085     0.3259     0.0000     0.0000     0.0294     0.4362     0.0000
   3709.5000     7.1962     7.2225  1025.2621   128.0001     0.4593     3.6286     3.3933     0.0574     0.0967     0.0324     9.2394     0.2539     0.0140     0.0018    47.1620   -33.6811     0.6649   134.5981   117.0279   155.7844   149.2649    -7.3992   350.6275     0.1959   194.8136     2.7358     3.6930     3.4499     0.0000  2512.0000     0.0000     0.1851     0.3192     0.0000     0.0000     0.0263     0.4695     0.0000
   3710.0000     7.2369     7.2604   971.9370   128.0001     0.4986     3.6204     3.3774     0.0556     0.0954     0.0317     7.8722     0.2584     0.0083     0.0029    47.1620   -33.6659     0.7114   132.5207   117.0346   155.6804   149.0249    -7.4246   350.6347     0.2351   194.9247     2.7273     3.6852     3.4341     0.0000  2383.0000     0.0000     0.1815     0.3034     0.0000     0.0000     0.0154     0.4996     0.0000
   3710.5000     7.2195     7.2552   923.2335   128.0001     0.4873     3.6148     3.3763     0.0551     0.0947     0.0317     6.3131     0.2598     0.0022     0.0043    47.7472   -33.6507     0.7641   132.2892   117.0412   155.5575   148.7986    -7.4498   350.6427     0.1848   195.0557     2.7200     3.6791     3.4326     0.0000  2313.0000     0.0000     0.1797     0.2990     0.0000     0.0000     0.0041     0.5173     0.0000
   3711.0000     7.1926     7.2630  1025.2621   128.0001     0.4777     3.6088     3.3761     0.0505     0.1057     0.0292     7.0958     0.2549     0.0000     0.0042    48.3325   -33.6354     0.7600   137.6187   117.0478   155.4561   148.6058    -7.4749   350.5024     0.2125   195.0167     2.7147     3.6725     3.4321     0.0000  2533.0000     0.0000     0.2093     0.2587     0.0000     0.0000     0.0000     0.5320     0.0000
   3711.5000     7.1441     7.1856  1001.0880   128.0001     0.4148     3.6082     3.3638     0.0454     0.1151     0.0266     8.1126     0.2526     0.0000     0.0029    47.1620   -33.6201     0.7471   133.8582   117.0544   155.3200   148.3630    -7.5000   350.1795     0.1872   194.8304     2.7116     3.6710     3.4187     0.0000  2412.0000     0.0000     0.2345     0.2143     0.0000     0.0000     0.0000     0.5512     0.0000
   3712.0000     7.1519     7.1813   952.3845   128.0001     0.4166     3.5917     3.3619     0.0447     0.1262     0.0262     6.4321     0.2408     0.0041     0.0015    45.9914   -33.6046     0.7254   135.3339   117.0610   155.2115   148.1339    -7.5249   350.3087     0.0000   195.0681     2.7175     3.6540     3.4168     0.0000  2373.0000     0.0000     0.2645     0.2080     0.0000     0.0000     0.0077     0.5198     0.0000
   3712.5000     7.1545     7.1804  1020.2850   128.0001     0.4175     3.5922     3.3631     0.0460     0.1331     0.0268     4.9111     0.2306     0.0060     0.0011    47.1620   -33.5891     0.7216   138.2589   117.0676   155.1090   147.8961    -7.5498   350.9110     0.0000   195.7716     2.7222     3.6546     3.4180     0.0000  2496.0000     0.0000     0.2832     0.2189     0.0000     0.0000     0.0113     0.4866     0.0000
   3713.0000     7.1988     7.2191   996.1110   128.0001     0.4589     3.5898     3.3564     0.0520     0.1392     0.0297     3.6276     0.2133     0.0106     0.0016    48.3325   -33.5735     0.7124   146.4680   117.0742   155.0113   147.7334    -7.5746   351.6243     0.0000   196.5810     2.7339     3.6529     3.4118     0.0000  2474.0000     0.0000     0.2995     0.2724     0.0000     0.0000     0.0198     0.4083     0.0000
   3713.5000     7.1545     7.1778   932.8320   128.0001     0.4162     3.5751     3.3432     0.0534     0.1284     0.0302     3.3449     0.2239     0.0108     0.0023    47.1620   -33.5579     0.7390   154.7777   117.0808   154.8890   147.5541    -7.5993   351.7040     0.3243   196.7829     2.7333     3.6369     3.3975     0.0000  2295.0000     0.0000     0.2703     0.2842     0.0000     0.0000     0.0203     0.4252     0.0000
   3714.0000     7.1935     7.2458   952.3845   128.0001     0.4696     3.5717     3.3469     0.0583     0.1133     0.0323     2.8899     0.2335     0.0170     0.0024    45.9914   -33.5422     0.7654   155.8356   117.0874   154.7440   147.2704    -7.6239   351.8296     0.5619   197.0532     2.7419     3.6341     3.4020     0.0000  2384.0000     0.0000     0.2298     0.3274     0.0000     0.0000     0.0317     0.4111     0.0000
