~VERSION INFORMATION
VERS.           1.2   :CWLS Log ASCII Standard - VERSION 1.2
WRAP.           NO    :One Line per depth step
PROD.  Schlumberger   :LAS Producer
PROG.  DLIS to ASCII 17C0-152                          :LAS Program name and version
CREA.        2011/10/27 17:24                          :LAS Creation date {YYYY/MM/DD hh:mm}
DLIS_CREA.  2011-Oct-27 07:22                          :DLIS Creation date and time {YYYY-MMM-DD hh:mm}
SOURCE.     7e486f41-920f-449c-9fc4-a1d2576f3c93       :DLIS File Name
#--------------------------------------------------
~WELL INFORMATION
#MNEM.UNIT      DATA             DESCRIPTION
#---- ------ --------------   -----------------------------
STRT .F      3201.5000       :START DEPTH     
STOP .F      4055.0000       :STOP DEPTH     
STEP .F       0.5000         :STEP       
NULL .          -999.25      :NULL VALUE
COMP .                 COMPANY:  SWEPI LP                           
WELL .                    WELL:  Harper Hill 2-29                   
FLD  .                   FIELD:  Swan                               
LOC  .                LOCATION:                                     
CNTY .                  COUNTY:  Moffat                             
STAT .                   STATE:  Colorado                           
CTRY .                 COUNTRY:                                     
SRVC .         SERVICE COMPANY:  Schlumberger                       
API  .              API NUMBER:  05-0081-07659                      
DATE .                LOG DATE:  26-Oct-2011
UWI  .          UNIQUE WELL ID:                                     
#-----------------------------------------------------------------------------
~PARAMETER INFORMATION
#MNEM.UNIT    VALUE                      DESCRIPTION
#---- -----   --------------------       ------------------------
CN   .        SWEPI LP                   :Company Name
WN   .        Harper Hill 2-29           :Well Name
FN   .        Swan                       :Field Name
FL   .                                   :Field Location
FL1  .                                   :Field Location Line 1
COUN .        Moffat                     :County or Rig Name
STAT .        Colorado                   :State or Province
NATI .                                   :Nation
DATE .        26-Oct-2011                :Date as Month-Day-Year
APIN .        05-0081-07659              :API Serial Number
SECT .        29                         :Section
TOWN .        5N                         :Township
RANG .        90W                        :Range
DMF  .        Kelly Bushing              :Drilling Measured From
LMF  .        Kelly Bushing              :Log Measured From
PDAT .        Ground Level               :Permanent Datum
ENGI .        Mark Kast                  :Engineer's Name
WITN .        Tony                       :Witness's Name
LATI .                                   :Latitude
LONG .                                   :Longitude
LUL  .        Rock Springs               :Logging Unit Location
LUN  .              2271                 :Logging Unit Number
RUN  .        Two                        :Run Number
SON  .                                   :Service Order Number
BHT  .DEGF     127.00000                 :Bottom Hole Temperature (used in calculations)
BS   .IN         6.75000                 :Bit Size
DFD  .LB/G       7.90000                 :Drilling Fluid Density
DFV  .S         44.00000                 :Drilling Fluid Viscosity
DFL  .C3        16.60000                 :Drilling Fluid Loss
RMFS .                                   :Resistivity of Mud Filtrate Sample
EKB  .F       6597.00000                 :Elevation of Kelly Bushing
EGL  .F       6585.00000                 :Elevation of Ground Level
BLI  .                                   :Bottom Log Interval
BSAL .PPM     44500.00000                :Borehole Salinity
FLEV .                                   :Fluid Level
MCST .                                   :Mud Cake Sample Temperature
MFST .                                   :Mud Filtrate Sample Temperature
MRT  .DEGF     127.00000                 :Maximum Recorded Temperature
MST  .                                   :Mud Sample Temperature
RMCS .                                   :Resistivity of Mud Cake Sample
RMS  .                                   :Resistivity of Mud Sample
RW   .OHMM       1.00000                 :Resistivity of Connate Water
TDD  .F       4480.00000                 :Total Depth - Driller
TDL  .F       4482.00000                 :Total Depth - Logger
TLI  .                                   :Top Log Interval
HIDE .                                   :Header Identifier
MATR .        SAND                       :Rock Matrix for Neutron Porosity Corrections
DFT  .        OBM                        :Drilling Fluid Type
DFPH .                                   :Drilling Fluid PH
MCSS .        N/A                        :Mud Cake Sample Source
MFSS .        N/A                        :Mud Filtrate Sample Source
MSS  .        N/A                        :Mud Sample Source
OS1  .                                   :Other Services Line 1
OS2  .                                   :Other Services Line 2
OS3  .                                   :Other Services Line 3
OS4  .                                   :Other Services Line 4
OS5  .                                   :Other Services Line 5
R1   .                                   :Remark Line 1
R2   .                                   :Remark Line 2
R3   .                                   :Remark Line 3
R4   .                                   :Remark Line 4
R5   .                                   :Remark Line 5
R6   .                                   :Remark Line 6
R7   .                                   :Remark Line 7
R8   .                                   :Remark Line 8
TCS  .        20 00                      :Time Circulation Stopped
TLAB .                                   :Time Logger At Bottom
EPD  .F         6585.000000              :Elevation of Permanent Datum above Mean Sea Level
APD  .F          12.000000               :Elevation of Depth Reference (LMF) above Permanent Datum
#-----------------------------------------------------------------------------
~CURVE INFORMATION
#MNEM.UNIT   API CODE                                  DESCRIPTION
#---- -----  --------                                  -----------------------
DEPT .F                                                :DEPTH (BOREHOLE) {F12.4}
C1_OBMT.IN                                             :OBMT Caliper 1 {F11.4}
C2_OBMT.IN                                             :OBMT Caliper 2 {F11.4}
CDF  .LBF                                              :Calibrated Downhole Force {F11.4}
CTEM .DEGF                                             :Cartridge Temperature {F11.4}
DCAL .IN                                               :Differential Caliper {F11.4}
DEVI .DEG                                              :Hole Deviation {F11.4}
DEVIM.DEG                                              :Memorized Deviation {F11.4}
DWAL_WALK2.                                            :Dry Weight Fraction Pseudo Aluminum (SpectroLith WALK2 Model) {F11.4}
DWCA_WALK2.                                            :Dry Weight Fraction Calcium (SpectroLith WALK2 Model) {F11.4}
DWFE_WALK2.                                            :Dry Weight Fraction Iron + 0.14 Aluminum (SpectroLith WALK2 Model) {F11.4}
DWGD_WALK2.PPM                                         :Dry Weight Fraction Gadolinium (SpectroLith WALK2 Model) {F11.4}
DWSI_WALK2.                                            :Dry Weight Fraction Silicon (SpectroLith WALK2 Model) {F11.4}
DWSU_WALK2.                                            :Dry Weight Fraction Sulfur (SpectroLith WALK2 Model) {F11.4}
DWTI_WALK2.                                            :Dry Weight Fraction Titanium (SpectroLith WALK2 Model) {F11.4}
ECST .DEGF                                             :ECS Temperature {F11.4}
ED   .F                                                :East Departure {F11.4}
ESUF_WALK2.                                            :Elemental Statistical Uncertainty Factor (SpectroLith WALK2 Model) {F11.4}
GR_EDTC.GAPI                                           :EDTC Gamma Ray {F11.4}
GTEM .DEGF                                             :Generalized Borehole Temperature {F11.4}
HAZI .DEG                                              :Hole Azimuth {F11.4}
HAZIM.DEG                                              :Hole Azimuth {F11.4}
ND   .F                                                :North Departure {F11.4}
P1AZ .DEG                                              :Pad 1 Azimuth {F11.4}
QCPMT.                                                 :Photomultiplier Tube Quality Control {F11.4}
RB   .DEG                                              :Relative Bearing {F11.4}
RHGE_WALK2.G/C3                                        :Matrix Density from Elemental Concentrations (SpectroLith WALK2 Model) {F11.4}
SDEV .DEG                                              :Sonde Deviation {F11.4}
SDEVM.DEG                                              :Sonde Deviation {F11.4}
STIT .F                                                :Stuck Tool Indicator, Total {F11.4}
TENS .LBF                                              :Cable Tension {F11.4}
WANH_WALK2.                                            :Dry Weight Fraction Anhydrite/Gypsum (SpectroLith WALK2 Model) {F11.4}
WCAR_WALK2.                                            :Dry Weight Fraction Carbonate (SpectroLith WALK2 Model) {F11.4}
WCLA_WALK2.                                            :Dry Weight Fraction Clay (SpectroLith WALK2 Model) {F11.4}
WCOA_WALK2.                                            :Dry Weight Fraction Coal (SpectroLith WALK2 Model) {F11.4}
WEVA_WALK2.                                            :Dry Weight Fraction Salt (SpectroLith WALK2 Model) {F11.4}
WPYR_WALK2.                                            :Dry Weight Fraction Pyrite (SpectroLith WALK2 Model) {F11.4}
WQFM_WALK2.                                            :Dry Weight Fraction Quartz+Feldspar+Mica (QFM) (SpectroLith WALK2 Model) {F11.4}
WSID_WALK2.                                            :Dry Weight Fraction Siderite (SpectroLith WALK2 Model) {F11.4}
#-----------------------------------------------------------------------------
# 
#      DEPT      C1_OBMT    C2_OBMT      CDF        CTEM       DCAL       DEVI      DEVIM    DWAL_WALK2 DWCA_WALK2 DWFE_WALK2 DWGD_WALK2 DWSI_WALK2 DWSU_WALK2 DWTI_WALK2    ECST        ED     ESUF_WALK2  GR_EDTC      GTEM       HAZI      HAZIM        ND        P1AZ      QCPMT        RB     RHGE_WALK2    SDEV      SDEVM       STIT       TENS    WANH_WALK2 WCAR_WALK2 WCLA_WALK2 WCOA_WALK2 WEVA_WALK2 WPYR_WALK2 WQFM_WALK2 WSID_WALK2
#
~A  
# ...
   3933.0000     7.3296     7.3421   947.4075   126.0236     0.5858     6.3872     6.3970     0.0591     0.1002     0.0352     5.7576     0.2451     0.0000     0.0022    45.9914   -12.6457     0.7765   127.6714   119.9819    69.2188    68.3226    -5.6220   263.9876     0.3962   194.6759     2.7250     6.5763     6.5866     0.0000  2500.0000     0.0000     0.1945     0.3345     0.0000     0.0000     0.0000     0.4710     0.0000
   3933.5000     7.3340     7.3413  1088.5410   126.0236     0.5876     6.3898     6.4045     0.0562     0.1073     0.0336     7.0652     0.2418     0.0000     0.0017    45.9914   -12.5939     0.7910   131.2030   119.9885    69.2024    68.2853    -5.6013   263.6588     0.2117   194.3652     2.7233     6.5793     6.5947     0.0000  2817.0000     0.0000     0.2137     0.3087     0.0000     0.0000     0.0000     0.4776     0.0000
   3934.0000     7.3288     7.3550  1093.1626   126.0236     0.5919     6.3983     6.4040     0.0543     0.1099     0.0318     6.2962     0.2429     0.0037     0.0020    45.9914   -12.5421     0.7803   140.6421   119.9951    69.1723    68.2590    -5.5807   263.0751     0.0055   193.8146     2.7247     6.5880     6.5940     0.0000  2756.0000     0.0000     0.2206     0.2919     0.0000     0.0000     0.0069     0.4807     0.0000
   3934.5000     7.3521     7.3850  1020.2850   126.0236     0.6186     6.3905     6.4007     0.0544     0.1064     0.0326     3.4864     0.2460     0.0000     0.0016    48.3325   -12.4903     0.7648   149.9622   120.0017    69.1474    68.2400    -5.5600   263.0302     0.5128   193.7949     2.7213     6.5809     6.5917     0.0000  2613.0000     0.0000     0.2111     0.2935     0.0000     0.0000     0.0000     0.4954     0.0000
   3935.0000     7.3497     7.3894  1034.8606   126.0236     0.6195     6.3941     6.3906     0.0576     0.1024     0.0348     2.1691     0.2447     0.0000     0.0011    48.3325   -12.4386     0.7362   147.8848   120.0083    69.1011    68.2433    -5.5394   263.0326     0.7110   193.8430     2.7246     6.5846     6.5809     0.0000  2673.0000     0.0000     0.2005     0.3216     0.0000     0.0000     0.0000     0.4779     0.0000
   3935.5000     7.3483     7.3962  1078.5870   126.0236     0.6222     6.4010     6.4121     0.0610     0.0944     0.0369     2.4689     0.2479     0.0007     0.0008    45.9914   -12.3868     0.7269   134.9966   120.0149    69.0526    68.1441    -5.5187   262.7530     0.2145   193.6131     2.7279     6.5918     6.6035     0.0000  2792.0000     0.0000     0.1789     0.3516     0.0000     0.0000     0.0014     0.4682     0.0000
   3936.0000     7.3625     7.4297  1049.4360   126.0236     0.6461     6.3975     6.4023     0.0637     0.0998     0.0375     6.4406     0.2378     0.0058     0.0016    45.9914   -12.3351     0.7164   129.7537   120.0216    69.0363    68.1383    -5.4979   262.6638     0.0000   193.5407     2.7359     6.5890     6.5940     0.0000  2658.0000     0.0000     0.1935     0.3745     0.0000     0.0000     0.0108     0.4211     0.0000
   3936.5000     7.3687     7.4307  1010.6865   126.0236     0.6497     6.3980     6.3934     0.0629     0.0939     0.0365     7.7432     0.2464     0.0049     0.0032    45.9914   -12.2834     0.7356   131.6234   120.0282    69.0112    68.1232    -5.4772   262.3882     0.3180   193.2917     2.7320     6.5897     6.5849     0.0000  2647.0000     0.0000     0.1777     0.3681     0.0000     0.0000     0.0091     0.4451     0.0000
   3937.0000     7.3739     7.4221  1039.8375   126.0236     0.6480     6.4002     6.3958     0.0648     0.0934     0.0370     8.0395     0.2443     0.0047     0.0049    45.9914   -12.2317     0.7703   134.8500   120.0348    68.9732    68.0668    -5.4564   262.2374     0.0000   193.1795     2.7326     6.5922     6.5877     0.0000  2743.0000     0.0000     0.1762     0.3846     0.0000     0.0000     0.0089     0.4303     0.0000
   3937.5000     7.3989     7.4177  1015.6635   126.0236     0.6583     6.4061     6.4072     0.0651     0.0740     0.0366     3.4624     0.2670     0.0075     0.0055    47.1620   -12.1800     0.8111   137.3171   120.0414    68.9462    68.0228    -5.4355   262.3231     0.0082   193.2913     2.7318     6.5997     6.6008     0.0000  2615.0000     0.0000     0.1240     0.3873     0.0000     0.0000     0.0141     0.4746     0.0000
   3938.0000     7.3972     7.4212  1001.0880   126.0236     0.6592     6.3956     6.4023     0.0682     0.0590     0.0384     0.1816     0.2789     0.0081     0.0055    47.1620   -12.1283     0.8557   135.8840   120.0480    68.9188    68.0007    -5.4147   262.3506     0.1368   193.3463     2.7333     6.5886     6.5956     0.0000  2576.0000     0.0000     0.0838     0.4148     0.0000     0.0000     0.0152     0.4862     0.0000
   3938.5000     7.3963     7.4212  1059.3900   126.0236     0.6587     6.4008     6.3855     0.0688     0.0485     0.0400     0.0000     0.2891     0.0024     0.0042    45.9914   -12.0766     0.8769   143.7300   120.0546    68.8797    68.0103    -5.3938   261.1721     0.2766   192.2135     2.7279     6.5940     6.5779     0.0000  2755.0000     0.0000     0.0553     0.4196     0.0000     0.0000     0.0046     0.5205     0.0000
   3939.0000     7.3989     7.4280  1049.4360   126.0236     0.6635     6.4028     6.4110     0.0696     0.0625     0.0413     0.3404     0.2704     0.0000     0.0031    45.9914   -12.0250     0.8771   140.2247   120.0612    68.8427    67.9252    -5.3729   260.1623     0.5043   191.2466     2.7298     6.5962     6.6048     0.0000  2627.0000     0.0000     0.0932     0.4272     0.0000     0.0000     0.0000     0.4796     0.0000
   3939.5000     7.3504     7.3902   971.9370   126.0236     0.6203     6.4056     6.4116     0.0663     0.0850     0.0397     4.7671     0.2498     0.0000     0.0022    45.9914   -11.9732     0.8456   141.8656   120.0678    68.7985    67.9036    -5.3519   260.0773     0.4074   191.2060     2.7306     6.5968     6.6030     0.0000  2496.0000     0.0000     0.1537     0.3979     0.0000     0.0000     0.0000     0.4484     0.0000
   3940.0000     7.3575     7.3877  1044.8146   126.0236     0.6226     6.4006     6.3976     0.0641     0.0978     0.0382     8.6104     0.2389     0.0000     0.0024    45.9914   -11.9216     0.8187   132.7033   120.0744    68.7613    67.9153    -5.3309   259.9551     0.2976   191.1217     2.7301     6.5918     6.5886     0.0000  2739.0000     0.0000     0.1881     0.3784     0.0000     0.0000     0.0000     0.4335     0.0000
   3940.5000     7.3591     7.3752  1064.0116   126.0236     0.6172     6.4039     6.3988     0.0646     0.0912     0.0382     8.3003     0.2460     0.0000     0.0033    45.9914   -11.8699     0.8121   134.3881   120.0810    68.7299    67.8704    -5.3100   259.3131     0.2248   190.5148     2.7289     6.5953     6.5900     0.0000  2691.0000     0.0000     0.1704     0.3829     0.0000     0.0000     0.0000     0.4467     0.0000
   3941.0000     7.3601     7.3791   996.1110   126.0236     0.6196     6.4054     6.4130     0.0676     0.0845     0.0397     6.2510     0.2488     0.0000     0.0040    45.9914   -11.8183     0.8059   136.8347   120.0876    68.6997    67.7966    -5.2889   259.3777     0.0548   190.6088     2.7306     6.5970     6.6049     0.0000  2567.0000     0.0000     0.1523     0.4091     0.0000     0.0000     0.0000     0.4387     0.0000
   3941.5000     7.3521     7.3782   971.9370   126.0236     0.6151     6.4037     6.4062     0.0706     0.0810     0.0413     3.8870     0.2476     0.0000     0.0046    48.3325   -11.7666     0.8080   139.0345   120.0942    68.6649    67.7980    -5.2678   259.3816     0.3450   190.6474     2.7329     6.5948     6.5974     0.0000  2552.0000     0.0000     0.1428     0.4358     0.0000     0.0000     0.0000     0.4214     0.0000
   3942.0000     7.3469     7.3842  1059.3900   126.0236     0.6155     6.4044     6.3966     0.0709     0.0881     0.0416     3.0137     0.2386     0.0000     0.0044    48.3325   -11.7150     0.7824   137.0888   120.1009    68.6215    67.8001    -5.2468   258.9255     0.6094   190.2373     2.7346     6.5952     6.5871     0.0000  2789.0000     0.0000     0.1621     0.4385     0.0000     0.0000     0.0000     0.3994     0.0000
