~VERSION INFORMATION
VERS.           1.2   :CWLS Log ASCII Standard - VERSION 1.2
WRAP.           NO    :One Line per depth step
PROD.  Schlumberger   :LAS Producer
PROG.  DLIS to ASCII 17C0-152                          :LAS Program name and version
CREA.        2011/10/27 17:25                          :LAS Creation date {YYYY/MM/DD hh:mm}
DLIS_CREA.  2011-Oct-27 07:17                          :DLIS Creation date and time {YYYY-MMM-DD hh:mm}
SOURCE.     79519d1b-f2ac-4620-a9ab-fbce0bbece67       :DLIS File Name
#--------------------------------------------------
~WELL INFORMATION
#MNEM.UNIT      DATA             DESCRIPTION
#---- ------ --------------   -----------------------------
STRT .F      3722.5000       :START DEPTH     
STOP .F      4490.0000       :STOP DEPTH     
STEP .F       0.5000         :STEP       
NULL .          -999.25      :NULL VALUE
COMP .                 COMPANY:  SWEPI LP                           
WELL .                    WELL:  Harper Hill 2-29                   
FLD  .                   FIELD:  Swan                               
LOC  .                LOCATION:                                     
CNTY .                  COUNTY:  Moffat                             
STAT .                   STATE:  Colorado                           
CTRY .                 COUNTRY:                                     
SRVC .         SERVICE COMPANY:  Schlumberger                       
API  .              API NUMBER:  05-0081-07659                      
DATE .                LOG DATE:  26-Oct-2011
UWI  .          UNIQUE WELL ID:                                     
#-----------------------------------------------------------------------------
~PARAMETER INFORMATION
#MNEM.UNIT    VALUE                      DESCRIPTION
#---- -----   --------------------       ------------------------
CN   .        SWEPI LP                   :Company Name
WN   .        Harper Hill 2-29           :Well Name
FN   .        Swan                       :Field Name
FL   .                                   :Field Location
FL1  .                                   :Field Location Line 1
COUN .        Moffat                     :County or Rig Name
STAT .        Colorado                   :State or Province
NATI .                                   :Nation
DATE .        26-Oct-2011                :Date as Month-Day-Year
APIN .        05-0081-07659              :API Serial Number
SECT .        29                         :Section
TOWN .        5N                         :Township
RANG .        90W                        :Range
DMF  .        Kelly Bushing              :Drilling Measured From
LMF  .        Kelly Bushing              :Log Measured From
PDAT .        Ground Level               :Permanent Datum
ENGI .        Mark Kast                  :Engineer's Name
WITN .        Tony                       :Witness's Name
LATI .                                   :Latitude
LONG .                                   :Longitude
LUL  .        Rock Springs               :Logging Unit Location
LUN  .              2271                 :Logging Unit Number
RUN  .        Two                        :Run Number
SON  .                                   :Service Order Number
BHT  .DEGF     127.00000                 :Bottom Hole Temperature (used in calculations)
BS   .IN         6.75000                 :Bit Size
DFD  .LB/G       7.90000                 :Drilling Fluid Density
DFV  .S         44.00000                 :Drilling Fluid Viscosity
DFL  .C3        16.60000                 :Drilling Fluid Loss
RMFS .                                   :Resistivity of Mud Filtrate Sample
EKB  .F       6597.00000                 :Elevation of Kelly Bushing
EGL  .F       6585.00000                 :Elevation of Ground Level
BLI  .                                   :Bottom Log Interval
BSAL .PPM     44500.00000                :Borehole Salinity
FLEV .                                   :Fluid Level
MCST .                                   :Mud Cake Sample Temperature
MFST .                                   :Mud Filtrate Sample Temperature
MRT  .DEGF     127.00000                 :Maximum Recorded Temperature
MST  .                                   :Mud Sample Temperature
RMCS .                                   :Resistivity of Mud Cake Sample
RMS  .                                   :Resistivity of Mud Sample
RW   .OHMM       1.00000                 :Resistivity of Connate Water
TDD  .F       4480.00000                 :Total Depth - Driller
TDL  .F       4482.00000                 :Total Depth - Logger
TLI  .                                   :Top Log Interval
HIDE .                                   :Header Identifier
MATR .        SAND                       :Rock Matrix for Neutron Porosity Corrections
DFT  .        OBM                        :Drilling Fluid Type
DFPH .                                   :Drilling Fluid PH
MCSS .        N/A                        :Mud Cake Sample Source
MFSS .        N/A                        :Mud Filtrate Sample Source
MSS  .        N/A                        :Mud Sample Source
OS1  .                                   :Other Services Line 1
OS2  .                                   :Other Services Line 2
OS3  .                                   :Other Services Line 3
OS4  .                                   :Other Services Line 4
OS5  .                                   :Other Services Line 5
R1   .                                   :Remark Line 1
R2   .                                   :Remark Line 2
R3   .                                   :Remark Line 3
R4   .                                   :Remark Line 4
R5   .                                   :Remark Line 5
R6   .                                   :Remark Line 6
R7   .                                   :Remark Line 7
R8   .                                   :Remark Line 8
TCS  .        20 00                      :Time Circulation Stopped
TLAB .                                   :Time Logger At Bottom
EPD  .F         6585.000000              :Elevation of Permanent Datum above Mean Sea Level
APD  .F          12.000000               :Elevation of Depth Reference (LMF) above Permanent Datum
#-----------------------------------------------------------------------------
~CURVE INFORMATION
#MNEM.UNIT   API CODE                                  DESCRIPTION
#---- -----  --------                                  -----------------------
DEPT .F                                                :DEPTH (BOREHOLE) {F12.4}
C1_OBMT.IN                                             :OBMT Caliper 1 {F11.4}
C2_OBMT.IN                                             :OBMT Caliper 2 {F11.4}
CDF  .LBF                                              :Calibrated Downhole Force {F11.4}
CTEM .DEGF                                             :Cartridge Temperature {F11.4}
DCAL .IN                                               :Differential Caliper {F11.4}
DEVI .DEG                                              :Hole Deviation {F11.4}
DEVIM.DEG                                              :Memorized Deviation {F11.4}
DWAL_WALK2.                                            :Dry Weight Fraction Pseudo Aluminum (SpectroLith WALK2 Model) {F11.4}
DWCA_WALK2.                                            :Dry Weight Fraction Calcium (SpectroLith WALK2 Model) {F11.4}
DWFE_WALK2.                                            :Dry Weight Fraction Iron + 0.14 Aluminum (SpectroLith WALK2 Model) {F11.4}
DWGD_WALK2.PPM                                         :Dry Weight Fraction Gadolinium (SpectroLith WALK2 Model) {F11.4}
DWSI_WALK2.                                            :Dry Weight Fraction Silicon (SpectroLith WALK2 Model) {F11.4}
DWSU_WALK2.                                            :Dry Weight Fraction Sulfur (SpectroLith WALK2 Model) {F11.4}
DWTI_WALK2.                                            :Dry Weight Fraction Titanium (SpectroLith WALK2 Model) {F11.4}
ECST .DEGF                                             :ECS Temperature {F11.4}
ED   .F                                                :East Departure {F11.4}
ESUF_WALK2.                                            :Elemental Statistical Uncertainty Factor (SpectroLith WALK2 Model) {F11.4}
GR_EDTC.GAPI                                           :EDTC Gamma Ray {F11.4}
GTEM .DEGF                                             :Generalized Borehole Temperature {F11.4}
HAZI .DEG                                              :Hole Azimuth {F11.4}
HAZIM.DEG                                              :Hole Azimuth {F11.4}
ND   .F                                                :North Departure {F11.4}
P1AZ .DEG                                              :Pad 1 Azimuth {F11.4}
QCPMT.                                                 :Photomultiplier Tube Quality Control {F11.4}
RB   .DEG                                              :Relative Bearing {F11.4}
RHGE_WALK2.G/C3                                        :Matrix Density from Elemental Concentrations (SpectroLith WALK2 Model) {F11.4}
SDEV .DEG                                              :Sonde Deviation {F11.4}
SDEVM.DEG                                              :Sonde Deviation {F11.4}
STIT .F                                                :Stuck Tool Indicator, Total {F11.4}
TENS .LBF                                              :Cable Tension {F11.4}
WANH_WALK2.                                            :Dry Weight Fraction Anhydrite/Gypsum (SpectroLith WALK2 Model) {F11.4}
WCAR_WALK2.                                            :Dry Weight Fraction Carbonate (SpectroLith WALK2 Model) {F11.4}
WCLA_WALK2.                                            :Dry Weight Fraction Clay (SpectroLith WALK2 Model) {F11.4}
WCOA_WALK2.                                            :Dry Weight Fraction Coal (SpectroLith WALK2 Model) {F11.4}
WEVA_WALK2.                                            :Dry Weight Fraction Salt (SpectroLith WALK2 Model) {F11.4}
WPYR_WALK2.                                            :Dry Weight Fraction Pyrite (SpectroLith WALK2 Model) {F11.4}
WQFM_WALK2.                                            :Dry Weight Fraction Quartz+Feldspar+Mica (QFM) (SpectroLith WALK2 Model) {F11.4}
WSID_WALK2.                                            :Dry Weight Fraction Siderite (SpectroLith WALK2 Model) {F11.4}
#-----------------------------------------------------------------------------
# 
#      DEPT      C1_OBMT    C2_OBMT      CDF        CTEM       DCAL       DEVI      DEVIM    DWAL_WALK2 DWCA_WALK2 DWFE_WALK2 DWGD_WALK2 DWSI_WALK2 DWSU_WALK2 DWTI_WALK2    ECST        ED     ESUF_WALK2  GR_EDTC      GTEM       HAZI      HAZIM        ND        P1AZ      QCPMT        RB     RHGE_WALK2    SDEV      SDEVM       STIT       TENS    WANH_WALK2 WCAR_WALK2 WCLA_WALK2 WCOA_WALK2 WEVA_WALK2 WPYR_WALK2 WQFM_WALK2 WSID_WALK2
#
~A  
# ...
   3770.0000     7.1935     7.2544   966.9600   125.0354     0.4739     3.6678     4.6041     0.0473     0.1186     0.0279     8.0527     0.2450     0.0000     0.0026    45.9914   -71.1245     0.7372   130.7859   117.8276   112.6633    98.8704   -36.8748   355.5844     0.8368   242.8719     2.7145     3.7343     4.7066     0.0000  2354.0000     0.0000     0.2440     0.2305     0.0000     0.0000     0.0000     0.5255     0.0000
   3770.5000     7.1909     7.2578  1015.6635   125.1114     0.4743     3.6768     4.6250     0.0467     0.1207     0.0274     8.9972     0.2436     0.0000     0.0030    45.9914   -71.0848     0.7228   131.9024   117.8342   112.4224    98.5442   -36.8809   355.5714     0.8862   243.0994     2.7140     3.7437     4.7285     0.0000  2500.0000     0.0000     0.2497     0.2258     0.0000     0.0000     0.0000     0.5244     0.0000
   3771.0000     7.2178     7.2668  1064.0116   125.0354     0.4923     3.6859     4.6612     0.0439     0.1218     0.0257     9.6222     0.2473     0.0000     0.0028    45.9914   -71.0447     0.7239   140.7761   117.8408   112.1198    98.2374   -36.8868   355.7987     0.3447   243.6301     2.7111     3.7533     4.7666     0.0000  2628.0000     0.0000     0.2527     0.2011     0.0000     0.0000     0.0000     0.5462     0.0000
   3771.5000     7.1909     7.2681  1010.6865   125.0354     0.4794     3.7034     4.7002     0.0418     0.1252     0.0248     9.6889     0.2467     0.0000     0.0019    45.9914   -71.0043     0.7179   142.2651   117.8474   111.8255    97.9460   -36.8925   356.1296     0.6572   244.2554     2.7101     3.7714     4.8070     0.0000  2473.0000     0.0000     0.2619     0.1828     0.0000     0.0000     0.0000     0.5553     0.0000
   3772.0000     7.1936     7.2570   952.3845   124.8942     0.4752     3.7169     4.7265     0.0407     0.1263     0.0244    10.3926     0.2473     0.0000     0.0011    45.9914   -70.9636     0.7409   149.0016   117.8540   111.4855    97.6398   -36.8981   356.1039     0.5894   244.5699     2.7095     3.7852     4.8342     0.0000  2394.0000     0.0000     0.2647     0.1727     0.0000     0.0000     0.0000     0.5626     0.0000
   3772.5000     7.1970     7.2449  1073.9656   125.0354     0.4709     3.7283     4.7592     0.0420     0.1305     0.0251    12.7164     0.2401     0.0000     0.0014    45.9914   -70.9226     0.7726   143.5895   117.8606   111.1416    97.3234   -36.9035   356.2260     0.3574   245.0364     2.7115     3.7968     4.8681     0.0000  2645.0000     0.0000     0.2761     0.1842     0.0000     0.0000     0.0000     0.5397     0.0000
   3773.0000     7.1926     7.2561  1078.5870   124.8942     0.4743     3.7467     4.7945     0.0432     0.1221     0.0254    14.9992     0.2481     0.0000     0.0025    44.8209   -70.8813     0.8330   141.8835   117.8672   110.7774    97.0158   -36.9087   355.6917     1.0450   244.8653     2.7106     3.8161     4.9051     0.0000  2572.0000     0.0000     0.2536     0.1951     0.0000     0.0000     0.0000     0.5514     0.0000
   3773.5000     7.1901     7.2604  1010.6865   125.0354     0.4752     3.7750     4.8239     0.0485     0.1111     0.0281    16.1680     0.2520     0.0000     0.0041    44.8209   -70.8397     0.8544   140.7392   117.8738   110.3487    96.7238   -36.9137   355.6059     0.9399   245.2080     2.7135     3.8455     4.9359     0.0000  2456.0000     0.0000     0.2240     0.2416     0.0000     0.0000     0.0000     0.5344     0.0000
   3774.0000     7.1884     7.2681  1030.2390   124.7531     0.4781     3.7887     4.8566     0.0529     0.1017     0.0303    14.0023     0.2555     0.0000     0.0051    47.1620   -70.7978     0.8553   141.2714   117.8804   109.8664    96.4593   -36.9185   355.2906     1.1571   245.3751     2.7161     3.8597     4.9703     0.0000  2525.0000     0.0000     0.1985     0.2799     0.0000     0.0000     0.0000     0.5215     0.0000
   3774.5000     7.1883     7.2655  1059.3900   124.7531     0.4768     3.8111     4.8912     0.0586     0.1000     0.0333    11.9656     0.2477     0.0000     0.0063    47.1620   -70.7556     0.8571   139.4606   117.8870   109.3996    96.1937   -36.9232   354.5559     0.7396   245.1062     2.7213     3.8829     5.0063     0.0000  2598.0000     0.0000     0.1939     0.3300     0.0000     0.0000     0.0000     0.4761     0.0000
   3775.0000     7.1948     7.2630  1005.7095   124.4707     0.4788     3.8336     4.9312     0.0591     0.1078     0.0337     9.6114     0.2375     0.0004     0.0061    44.8209   -70.7130     0.8535   142.2828   117.8936   108.9131    95.8560   -36.9277   354.2121     0.5849   245.2484     2.7238     3.9062     5.0480     0.0000  2463.0000     0.0000     0.2150     0.3348     0.0000     0.0000     0.0007     0.4495     0.0000
   3775.5000     7.1936     7.2570   981.5355   124.3295     0.4752     3.8578     4.9547     0.0612     0.1065     0.0343     8.3303     0.2359     0.0063     0.0057    44.8209   -70.6701     0.8378   147.0505   117.9003   108.4664    95.6502   -36.9320   354.2258     0.3894   245.7090     2.7316     3.9312     5.0724     0.0000  2440.0000     0.0000     0.2116     0.3530     0.0000     0.0000     0.0118     0.4237     0.0000
   3776.0000     7.1883     7.2595  1044.8146   124.0472     0.4738     3.8800     4.9854     0.0609     0.1018     0.0345     8.6596     0.2416     0.0045     0.0054    45.9914   -70.6270     0.8318   156.3674   117.9069   108.0662    95.4142   -36.9362   355.3155     0.0667   247.2006     2.7291     3.9542     5.1046     0.0000  2612.0000     0.0000     0.1988     0.3504     0.0000     0.0000     0.0084     0.4424     0.0000
   3776.5000     7.1866     7.2630  1025.2621   124.1883     0.4747     3.9040     5.0223     0.0616     0.0972     0.0343     8.3627     0.2463     0.0089     0.0053    45.9914   -70.5836     0.8192   146.7789   117.9135   107.6021    95.1827   -36.9402   355.9341     0.2252   248.2844     2.7332     3.9792     5.1432     0.0000  2475.0000     0.0000     0.1864     0.3566     0.0000     0.0000     0.0166     0.4404     0.0000
   3777.0000     7.1901     7.2707   942.4305   124.4707     0.4803     3.9228     5.0527     0.0568     0.0950     0.0322     8.9024     0.2568     0.0039     0.0050    45.9914   -70.5399     0.8351   141.8248   117.9201   107.1658    94.8639   -36.9441   355.9684     0.1908   248.7554     2.7231     3.9989     5.1752     0.0000  2326.0000     0.0000     0.1807     0.3140     0.0000     0.0000     0.0074     0.4980     0.0000
   3777.5000     7.1935     7.2630  1034.8606   124.1883     0.4781     3.9511     5.0844     0.0519     0.1028     0.0296     8.4125     0.2562     0.0031     0.0042    45.9914   -70.4958     0.7959   135.4895   117.9267   106.8193    94.6559   -36.9477   356.4928     0.1350   249.6273     2.7187     4.0281     5.2080     0.0000  2556.0000     0.0000     0.2014     0.2709     0.0000     0.0000     0.0059     0.5218     0.0000
   3778.0000     7.1961     7.2578  1064.0116   124.0472     0.4769     3.9784     5.1181     0.0482     0.0973     0.0278     8.9928     0.2688     0.0001     0.0040    45.9914   -70.4515     0.8271   141.8624   117.9333   106.4213    94.3871   -36.9513   358.0732     0.3041   251.6088     2.7109     4.0563     5.2432     0.0000  2591.0000     0.0000     0.1867     0.2384     0.0000     0.0000     0.0003     0.5747     0.0000
   3778.5000     7.1936     7.2578  1001.0880   124.0472     0.4756     4.0110     5.1466     0.0512     0.0903     0.0293     8.8403     0.2718     0.0035     0.0038    45.9914   -70.4069     0.7890   148.2548   117.9399   105.9996    94.1642   -36.9546   358.4091     0.0000   252.3675     2.7164     4.0902     5.2729     0.0000  2430.0000     0.0000     0.1679     0.2652     0.0000     0.0000     0.0065     0.5604     0.0000
   3779.0000     7.1822     7.2595  1010.6865   124.1789     0.4708     4.0325     5.1814     0.0535     0.0680     0.0300     7.6743     0.2944     0.0092     0.0037    45.9914   -70.3620     0.7987   149.2260   117.9465   105.5903    93.8995   -36.9578   358.5486     0.0862   252.9167     2.7207     4.1125     5.3094     0.0000  2517.0000     0.0000     0.1078     0.2857     0.0000     0.0000     0.0172     0.5893     0.0000
