~VERSION INFORMATION
VERS.           1.2   :CWLS Log ASCII Standard - VERSION 1.2
WRAP.           NO    :One Line per depth step
PROD.  Schlumberger   :LAS Producer
PROG.  DLIS to ASCII 17C0-152                          :LAS Program name and version
CREA.        2011/10/27 17:24                          :LAS Creation date {YYYY/MM/DD hh:mm}
DLIS_CREA.  2011-Oct-27 07:22                          :DLIS Creation date and time {YYYY-MMM-DD hh:mm}
SOURCE.     7e486f41-920f-449c-9fc4-a1d2576f3c93       :DLIS File Name
#--------------------------------------------------
~WELL INFORMATION
#MNEM.UNIT      DATA             DESCRIPTION
#---- ------ --------------   -----------------------------
STRT .F      3201.5000       :START DEPTH     
STOP .F      4055.0000       :STOP DEPTH     
STEP .F       0.5000         :STEP       
NULL .          -999.25      :NULL VALUE
COMP .                 COMPANY:  SWEPI LP                           
WELL .                    WELL:  Harper Hill 2-29                   
FLD  .                   FIELD:  Swan                               
LOC  .                LOCATION:                                     
CNTY .                  COUNTY:  Moffat                             
STAT .                   STATE:  Colorado                           
CTRY .                 COUNTRY:                                     
SRVC .         SERVICE COMPANY:  Schlumberger                       
API  .              API NUMBER:  05-0081-07659                      
DATE .                LOG DATE:  26-Oct-2011
UWI  .          UNIQUE WELL ID:                                     
#-----------------------------------------------------------------------------
~PARAMETER INFORMATION
#MNEM.UNIT    VALUE                      DESCRIPTION
#---- -----   --------------------       ------------------------
CN   .        SWEPI LP                   :Company Name
WN   .        Harper Hill 2-29           :Well Name
FN   .        Swan                       :Field Name
FL   .                                   :Field Location
FL1  .                                   :Field Location Line 1
COUN .        Moffat                     :County or Rig Name
STAT .        Colorado                   :State or Province
NATI .                                   :Nation
DATE .        26-Oct-2011                :Date as Month-Day-Year
APIN .        05-0081-07659              :API Serial Number
SECT .        29                         :Section
TOWN .        5N                         :Township
RANG .        90W                        :Range
DMF  .        Kelly Bushing              :Drilling Measured From
LMF  .        Kelly Bushing              :Log Measured From
PDAT .        Ground Level               :Permanent Datum
ENGI .        Mark Kast                  :Engineer's Name
WITN .        Tony                       :Witness's Name
LATI .                                   :Latitude
LONG .                                   :Longitude
LUL  .        Rock Springs               :Logging Unit Location
LUN  .              2271                 :Logging Unit Number
RUN  .        Two                        :Run Number
SON  .                                   :Service Order Number
BHT  .DEGF     127.00000                 :Bottom Hole Temperature (used in calculations)
BS   .IN         6.75000                 :Bit Size
DFD  .LB/G       7.90000                 :Drilling Fluid Density
DFV  .S         44.00000                 :Drilling Fluid Viscosity
DFL  .C3        16.60000                 :Drilling Fluid Loss
RMFS .                                   :Resistivity of Mud Filtrate Sample
EKB  .F       6597.00000                 :Elevation of Kelly Bushing
EGL  .F       6585.00000                 :Elevation of Ground Level
BLI  .                                   :Bottom Log Interval
BSAL .PPM     44500.00000                :Borehole Salinity
FLEV .                                   :Fluid Level
MCST .                                   :Mud Cake Sample Temperature
MFST .                                   :Mud Filtrate Sample Temperature
MRT  .DEGF     127.00000                 :Maximum Recorded Temperature
MST  .                                   :Mud Sample Temperature
RMCS .                                   :Resistivity of Mud Cake Sample
RMS  .                                   :Resistivity of Mud Sample
RW   .OHMM       1.00000                 :Resistivity of Connate Water
TDD  .F       4480.00000                 :Total Depth - Driller
TDL  .F       4482.00000                 :Total Depth - Logger
TLI  .                                   :Top Log Interval
HIDE .                                   :Header Identifier
MATR .        SAND                       :Rock Matrix for Neutron Porosity Corrections
DFT  .        OBM                        :Drilling Fluid Type
DFPH .                                   :Drilling Fluid PH
MCSS .        N/A                        :Mud Cake Sample Source
MFSS .        N/A                        :Mud Filtrate Sample Source
MSS  .        N/A                        :Mud Sample Source
OS1  .                                   :Other Services Line 1
OS2  .                                   :Other Services Line 2
OS3  .                                   :Other Services Line 3
OS4  .                                   :Other Services Line 4
OS5  .                                   :Other Services Line 5
R1   .                                   :Remark Line 1
R2   .                                   :Remark Line 2
R3   .                                   :Remark Line 3
R4   .                                   :Remark Line 4
R5   .                                   :Remark Line 5
R6   .                                   :Remark Line 6
R7   .                                   :Remark Line 7
R8   .                                   :Remark Line 8
TCS  .        20 00                      :Time Circulation Stopped
TLAB .                                   :Time Logger At Bottom
EPD  .F         6585.000000              :Elevation of Permanent Datum above Mean Sea Level
APD  .F          12.000000               :Elevation of Depth Reference (LMF) above Permanent Datum
#-----------------------------------------------------------------------------
~CURVE INFORMATION
#MNEM.UNIT   API CODE                                  DESCRIPTION
#---- -----  --------                                  -----------------------
DEPT .F                                                :DEPTH (BOREHOLE) {F12.4}
C1_OBMT.IN                                             :OBMT Caliper 1 {F11.4}
C2_OBMT.IN                                             :OBMT Caliper 2 {F11.4}
CDF  .LBF                                              :Calibrated Downhole Force {F11.4}
CTEM .DEGF                                             :Cartridge Temperature {F11.4}
DCAL .IN                                               :Differential Caliper {F11.4}
DEVI .DEG                                              :Hole Deviation {F11.4}
DEVIM.DEG                                              :Memorized Deviation {F11.4}
DWAL_WALK2.                                            :Dry Weight Fraction Pseudo Aluminum (SpectroLith WALK2 Model) {F11.4}
DWCA_WALK2.                                            :Dry Weight Fraction Calcium (SpectroLith WALK2 Model) {F11.4}
DWFE_WALK2.                                            :Dry Weight Fraction Iron + 0.14 Aluminum (SpectroLith WALK2 Model) {F11.4}
DWGD_WALK2.PPM                                         :Dry Weight Fraction Gadolinium (SpectroLith WALK2 Model) {F11.4}
DWSI_WALK2.                                            :Dry Weight Fraction Silicon (SpectroLith WALK2 Model) {F11.4}
DWSU_WALK2.                                            :Dry Weight Fraction Sulfur (SpectroLith WALK2 Model) {F11.4}
DWTI_WALK2.                                            :Dry Weight Fraction Titanium (SpectroLith WALK2 Model) {F11.4}
ECST .DEGF                                             :ECS Temperature {F11.4}
ED   .F                                                :East Departure {F11.4}
ESUF_WALK2.                                            :Elemental Statistical Uncertainty Factor (SpectroLith WALK2 Model) {F11.4}
GR_EDTC.GAPI                                           :EDTC Gamma Ray {F11.4}
GTEM .DEGF                                             :Generalized Borehole Temperature {F11.4}
HAZI .DEG                                              :Hole Azimuth {F11.4}
HAZIM.DEG                                              :Hole Azimuth {F11.4}
ND   .F                                                :North Departure {F11.4}
P1AZ .DEG                                              :Pad 1 Azimuth {F11.4}
QCPMT.                                                 :Photomultiplier Tube Quality Control {F11.4}
RB   .DEG                                              :Relative Bearing {F11.4}
RHGE_WALK2.G/C3                                        :Matrix Density from Elemental Concentrations (SpectroLith WALK2 Model) {F11.4}
SDEV .DEG                                              :Sonde Deviation {F11.4}
SDEVM.DEG                                              :Sonde Deviation {F11.4}
STIT .F                                                :Stuck Tool Indicator, Total {F11.4}
TENS .LBF                                              :Cable Tension {F11.4}
WANH_WALK2.                                            :Dry Weight Fraction Anhydrite/Gypsum (SpectroLith WALK2 Model) {F11.4}
WCAR_WALK2.                                            :Dry Weight Fraction Carbonate (SpectroLith WALK2 Model) {F11.4}
WCLA_WALK2.                                            :Dry Weight Fraction Clay (SpectroLith WALK2 Model) {F11.4}
WCOA_WALK2.                                            :Dry Weight Fraction Coal (SpectroLith WALK2 Model) {F11.4}
WEVA_WALK2.                                            :Dry Weight Fraction Salt (SpectroLith WALK2 Model) {F11.4}
WPYR_WALK2.                                            :Dry Weight Fraction Pyrite (SpectroLith WALK2 Model) {F11.4}
WQFM_WALK2.                                            :Dry Weight Fraction Quartz+Feldspar+Mica (QFM) (SpectroLith WALK2 Model) {F11.4}
WSID_WALK2.                                            :Dry Weight Fraction Siderite (SpectroLith WALK2 Model) {F11.4}
#-----------------------------------------------------------------------------
# 
#      DEPT      C1_OBMT    C2_OBMT      CDF        CTEM       DCAL       DEVI      DEVIM    DWAL_WALK2 DWCA_WALK2 DWFE_WALK2 DWGD_WALK2 DWSI_WALK2 DWSU_WALK2 DWTI_WALK2    ECST        ED     ESUF_WALK2  GR_EDTC      GTEM       HAZI      HAZIM        ND        P1AZ      QCPMT        RB     RHGE_WALK2    SDEV      SDEVM       STIT       TENS    WANH_WALK2 WCAR_WALK2 WCLA_WALK2 WCOA_WALK2 WEVA_WALK2 WPYR_WALK2 WQFM_WALK2 WSID_WALK2
#
~A  
# ...
   3990.0000     7.2446     7.2561  1001.0880   126.0236     0.5004     6.4966     6.5334     0.0847     0.0723     0.0469     2.5835     0.2353     0.0247     0.0035    45.9914    -6.7334     0.9547   156.0923   120.7353    66.8273    66.2675    -3.1305   243.5777     0.0788   176.7725     2.7710     6.6869     6.7254     0.0000  2620.0000     0.0000     0.1196     0.5592     0.0000     0.0000     0.0463     0.2750     0.0000
   3990.5000     7.2377     7.2604  1068.9885   126.0236     0.4990     6.4898     6.5370     0.0855     0.0813     0.0472     1.4191     0.2235     0.0258     0.0037    45.9914    -6.6813     0.9086   151.9901   120.7419    66.8415    66.2447    -3.1076   243.3961     0.0100   176.5779     2.7743     6.6793     6.7288     0.0000  2813.0000     0.0000     0.1436     0.5669     0.0000     0.0000     0.0483     0.2412     0.0000
   3991.0000     7.2300     7.2690  1054.4131   126.0236     0.4995     6.4803     6.5219     0.0792     0.1039     0.0441     3.4571     0.2078     0.0210     0.0035    45.9914    -6.6292     0.8502   149.1612   120.7485    66.8766    66.2698    -3.0847   243.2765     0.0397   176.4241     2.7668     6.6690     6.7126     0.0000  2691.0000     0.0000     0.2045     0.5109     0.0000     0.0000     0.0393     0.2452     0.0000
   3991.5000     7.1753     7.2681   986.5125   126.0236     0.4716     6.4980     6.5264     0.0709     0.1226     0.0409     4.6336     0.1992     0.0091     0.0029    45.9914    -6.5772     0.7887   138.1248   120.7551    66.8390    66.2430    -3.0618   243.2799     0.1600   176.4650     2.7499     6.6847     6.7145     0.0000  2530.0000     0.0000     0.2547     0.4379     0.0000     0.0000     0.0170     0.2904     0.0000
   3992.0000     7.2360     7.2595  1044.8146   126.0236     0.4977     6.4999     6.5400     0.0668     0.1269     0.0389     4.6031     0.2010     0.0050     0.0032    45.9914    -6.5252     0.7420   138.4687   120.7617    66.8022    66.1957    -3.0389   243.2964     0.1906   176.5180     2.7421     6.6898     6.7319     0.0000  2748.0000     0.0000     0.2664     0.4020     0.0000     0.0000     0.0093     0.3224     0.0000
   3992.5000     7.2325     7.2578  1073.9656   126.0236     0.4951     6.4912     6.5349     0.0665     0.1250     0.0388     4.0448     0.2037     0.0042     0.0031    45.9914    -6.4731     0.7125   139.0445   120.7683    66.8276    66.1975    -3.0159   243.2193     0.0000   176.4161     2.7408     6.6805     6.7264     0.0000  2803.0000     0.0000     0.2612     0.3995     0.0000     0.0000     0.0079     0.3314     0.0000
   3993.0000     7.2326     7.2363  1039.8375   126.0236     0.4844     6.4772     6.5253     0.0668     0.1196     0.0385     3.1214     0.2099     0.0075     0.0033    45.9914    -6.4211     0.7122   134.6283   120.7749    66.8428    66.1979    -2.9929   243.3374     0.0000   176.5182     2.7432     6.6658     6.7163     0.0000  2646.0000     0.0000     0.2467     0.4024     0.0000     0.0000     0.0141     0.3368     0.0000
   3993.5000     7.1909     7.2251   961.9830   126.0236     0.4580     6.5056     6.5304     0.0636     0.1273     0.0370     3.6132     0.2062     0.0041     0.0032    45.9914    -6.3690     0.7351   131.5379   120.7815    66.8102    66.2335    -2.9700   243.2645     0.0000   176.4783     2.7378     6.6935     6.7195     0.0000  2547.0000     0.0000     0.2674     0.3743     0.0000     0.0000     0.0077     0.3505     0.0000
   3994.0000     7.2248     7.2346  1044.8146   126.0236     0.4797     6.5037     6.5361     0.0576     0.1454     0.0334     4.4743     0.1960     0.0043     0.0030    45.9914    -6.3170     0.7219   126.6895   120.7881    66.7906    66.2015    -2.9471   243.0791     0.1965   176.3138     2.7343     6.6933     6.7273     0.0000  2760.0000     0.0000     0.3160     0.3209     0.0000     0.0000     0.0080     0.3551     0.0000
   3994.5000     7.2273     7.2372  1088.5410   126.0236     0.4822     6.4899     6.5345     0.0564     0.1624     0.0322     6.2343     0.1785     0.0071     0.0033    44.8209    -6.2649     0.6909   133.1616   120.7947    66.8133    66.1881    -2.9241   243.3354     0.0000   176.5457     2.7383     6.6789     6.7257     0.0000  2774.0000     0.0000     0.3620     0.3109     0.0000     0.0000     0.0133     0.3138     0.0000
   3995.0000     7.2342     7.2630  1005.7095   126.0236     0.4986     6.5052     6.5279     0.0608     0.1665     0.0330     7.2397     0.1676     0.0204     0.0034    44.8209    -6.2129     0.6891   134.6109   120.8014    66.7860    66.1767    -2.9011   243.3182     0.0000   176.5558     2.7562     6.6953     6.7192     0.0000  2629.0000     0.0000     0.3729     0.3496     0.0000     0.0000     0.0382     0.2392     0.0000
   3995.5000     7.2325     7.2561   966.9600   126.0236     0.4943     6.5076     6.5408     0.0648     0.1643     0.0348     9.3185     0.1636     0.0236     0.0040    45.9914    -6.1608     0.7549   132.8831   120.8080    66.7468    66.1617    -2.8782   243.3372     0.2225   176.6135     2.7629     6.6977     6.7326     0.0000  2585.0000     0.0000     0.3671     0.3846     0.0000     0.0000     0.0442     0.2041     0.0000
   3996.0000     7.2308     7.2552  1093.1626   126.0236     0.4930     6.5038     6.5395     0.0654     0.1587     0.0353     9.6753     0.1689     0.0215     0.0044    45.9914    -6.1088     0.8252   131.0143   120.8146    66.7289    66.1372    -2.8551   243.1972     0.4863   176.4922     2.7603     6.6936     6.7311     0.0000  2810.0000     0.0000     0.3520     0.3897     0.0000     0.0000     0.0402     0.2181     0.0000
   3996.5000     7.2273     7.2595  1088.5410   126.0236     0.4934     6.4909     6.5307     0.0587     0.1582     0.0331     9.2821     0.1799     0.0069     0.0047    47.1620    -6.0567     0.8498   125.8715   120.8212    66.7457    66.1465    -2.8321   242.8677     0.1471   176.1483     2.7389     6.6800     6.7218     0.0000  2770.0000     0.0000     0.3506     0.3306     0.0000     0.0000     0.0129     0.3058     0.0000
   3997.0000     7.2256     7.2630  1025.2621   126.0236     0.4942     6.5225     6.5435     0.0593     0.1495     0.0338     8.5708     0.1887     0.0021     0.0055    47.1620    -6.0047     0.8344   126.9124   120.8278    66.6589    66.1128    -2.8091   242.8062     0.3450   176.1737     2.7330     6.7130     6.7350     0.0000  2572.0000     0.0000     0.3270     0.3360     0.0000     0.0000     0.0039     0.3331     0.0000
   3997.5000     7.2300     7.2681  1044.8146   126.0236     0.4990     6.5171     6.5435     0.0583     0.1496     0.0333     9.4171     0.1901     0.0000     0.0059    45.9914    -5.9526     0.8092   129.6117   120.8344    66.6373    66.0920    -2.7860   242.6361     0.2180   176.0262     2.7298     6.7076     6.7353     0.0000  2716.0000     0.0000     0.3275     0.3275     0.0000     0.0000     0.0000     0.3450     0.0000
   3998.0000     7.1701     7.2630  1073.9656   126.0236     0.4664     6.5070     6.5462     0.0591     0.1467     0.0336    10.0242     0.1923     0.0017     0.0059    45.9914    -5.9005     0.7641   133.7665   120.8410    66.6543    66.0687    -2.7629   242.3324     0.3570   175.7074     2.7318     6.6939     6.7350     0.0000  2795.0000     0.0000     0.3195     0.3347     0.0000     0.0000     0.0032     0.3426     0.0000
   3998.5000     7.2404     7.2578  1034.8606   126.0236     0.4991     6.4948     6.5391     0.0532     0.1426     0.0302     8.1352     0.2075     0.0022     0.0051    45.9914    -5.8484     0.7239   137.0649   120.8476    66.6655    66.0545    -2.7398   242.3221     0.5104   175.6860     2.7254     6.6847     6.7313     0.0000  2653.0000     0.0000     0.3087     0.2824     0.0000     0.0000     0.0042     0.4048     0.0000
   3999.0000     7.2273     7.2612  1025.2621   126.0236     0.4942     6.5234     6.5462     0.0477     0.1317     0.0273     5.4159     0.2296     0.0007     0.0044    45.9914    -5.7963     0.7127   141.8163   120.8542    66.5903    66.0362    -2.7166   242.3374     0.0456   175.7762     2.7165     6.7141     6.7380     0.0000  2695.0000     0.0000     0.2794     0.2345     0.0000     0.0000     0.0013     0.4848     0.0000
