~VERSION INFORMATION
VERS.           1.2   :CWLS Log ASCII Standard - VERSION 1.2
WRAP.           NO    :One Line per depth step
PROD.  Schlumberger   :LAS Producer
PROG.  DLIS to ASCII 17C0-152                          :LAS Program name and version
CREA.        2011/10/27 17:25                          :LAS Creation date {YYYY/MM/DD hh:mm}
DLIS_CREA.  2011-Oct-27 07:30                          :DLIS Creation date and time {YYYY-MMM-DD hh:mm}
SOURCE.     9895fb31-02c7-4189-bf8e-52df0b775dd1       :DLIS File Name
#--------------------------------------------------
~WELL INFORMATION
#MNEM.UNIT      DATA             DESCRIPTION
#---- ------ --------------   -----------------------------
STRT .F      3344.0000       :START DEPTH     
STOP .F      3862.5000       :STOP DEPTH     
STEP .F       0.5000         :STEP       
NULL .          -999.25      :NULL VALUE
COMP .                 COMPANY:  SWEPI LP                           
WELL .                    WELL:  Harper Hill 2-29                   
FLD  .                   FIELD:  Swan                               
LOC  .                LOCATION:                                     
CNTY .                  COUNTY:  Moffat                             
STAT .                   STATE:  Colorado                           
CTRY .                 COUNTRY:                                     
SRVC .         SERVICE COMPANY:  Schlumberger                       
API  .              API NUMBER:  05-0081-07659                      
DATE .                LOG DATE:  26-Oct-2011
UWI  .          UNIQUE WELL ID:                                     
#-----------------------------------------------------------------------------
~PARAMETER INFORMATION
#MNEM.UNIT    VALUE                      DESCRIPTION
#---- -----   --------------------       ------------------------
CN   .        SWEPI LP                   :Company Name
WN   .        Harper Hill 2-29           :Well Name
FN   .        Swan                       :Field Name
FL   .                                   :Field Location
FL1  .                                   :Field Location Line 1
COUN .        Moffat                     :County or Rig Name
STAT .        Colorado                   :State or Province
NATI .                                   :Nation
DATE .        26-Oct-2011                :Date as Month-Day-Year
APIN .        05-0081-07659              :API Serial Number
SECT .        29                         :Section
TOWN .        5N                         :Township
RANG .        90W                        :Range
DMF  .        Kelly Bushing              :Drilling Measured From
LMF  .        Kelly Bushing              :Log Measured From
PDAT .        Ground Level               :Permanent Datum
ENGI .        Mark Kast                  :Engineer's Name
WITN .        Tony                       :Witness's Name
LATI .                                   :Latitude
LONG .                                   :Longitude
LUL  .        Rock Springs               :Logging Unit Location
LUN  .              2271                 :Logging Unit Number
RUN  .        Two                        :Run Number
SON  .                                   :Service Order Number
BHT  .DEGF     127.00000                 :Bottom Hole Temperature (used in calculations)
BS   .IN         6.75000                 :Bit Size
DFD  .LB/G       7.90000                 :Drilling Fluid Density
DFV  .S         44.00000                 :Drilling Fluid Viscosity
DFL  .C3        16.60000                 :Drilling Fluid Loss
RMFS .                                   :Resistivity of Mud Filtrate Sample
EKB  .F       6597.00000                 :Elevation of Kelly Bushing
EGL  .F       6585.00000                 :Elevation of Ground Level
BLI  .                                   :Bottom Log Interval
BSAL .PPM     44500.00000                :Borehole Salinity
FLEV .                                   :Fluid Level
MCST .                                   :Mud Cake Sample Temperature
MFST .                                   :Mud Filtrate Sample Temperature
MRT  .DEGF     127.00000                 :Maximum Recorded Temperature
MST  .                                   :Mud Sample Temperature
RMCS .                                   :Resistivity of Mud Cake Sample
RMS  .                                   :Resistivity of Mud Sample
RW   .OHMM       1.00000                 :Resistivity of Connate Water
TDD  .F       4480.00000                 :Total Depth - Driller
TDL  .F       4482.00000                 :Total Depth - Logger
TLI  .                                   :Top Log Interval
HIDE .                                   :Header Identifier
MATR .        SAND                       :Rock Matrix for Neutron Porosity Corrections
DFT  .        OBM                        :Drilling Fluid Type
DFPH .                                   :Drilling Fluid PH
MCSS .        N/A                        :Mud Cake Sample Source
MFSS .        N/A                        :Mud Filtrate Sample Source
MSS  .        N/A                        :Mud Sample Source
OS1  .                                   :Other Services Line 1
OS2  .                                   :Other Services Line 2
OS3  .                                   :Other Services Line 3
OS4  .                                   :Other Services Line 4
OS5  .                                   :Other Services Line 5
R1   .                                   :Remark Line 1
R2   .                                   :Remark Line 2
R3   .                                   :Remark Line 3
R4   .                                   :Remark Line 4
R5   .                                   :Remark Line 5
R6   .                                   :Remark Line 6
R7   .                                   :Remark Line 7
R8   .                                   :Remark Line 8
TCS  .        20 00                      :Time Circulation Stopped
TLAB .                                   :Time Logger At Bottom
EPD  .F         6585.000000              :Elevation of Permanent Datum above Mean Sea Level
APD  .F          12.000000               :Elevation of Depth Reference (LMF) above Permanent Datum
#-----------------------------------------------------------------------------
~CURVE INFORMATION
#MNEM.UNIT   API CODE                                  DESCRIPTION
#---- -----  --------                                  -----------------------
DEPT .F                                                :DEPTH (BOREHOLE) {F12.4}
C1_OBMT.IN                                             :OBMT Caliper 1 {F11.4}
C2_OBMT.IN                                             :OBMT Caliper 2 {F11.4}
CDF  .LBF                                              :Calibrated Downhole Force {F11.4}
CTEM .DEGF                                             :Cartridge Temperature {F11.4}
DCAL .IN                                               :Differential Caliper {F11.4}
DEVI .DEG                                              :Hole Deviation {F11.4}
DEVIM.DEG                                              :Memorized Deviation {F11.4}
DWAL_WALK2.                                            :Dry Weight Fraction Pseudo Aluminum (SpectroLith WALK2 Model) {F11.4}
DWCA_WALK2.                                            :Dry Weight Fraction Calcium (SpectroLith WALK2 Model) {F11.4}
DWFE_WALK2.                                            :Dry Weight Fraction Iron + 0.14 Aluminum (SpectroLith WALK2 Model) {F11.4}
DWGD_WALK2.PPM                                         :Dry Weight Fraction Gadolinium (SpectroLith WALK2 Model) {F11.4}
DWSI_WALK2.                                            :Dry Weight Fraction Silicon (SpectroLith WALK2 Model) {F11.4}
DWSU_WALK2.                                            :Dry Weight Fraction Sulfur (SpectroLith WALK2 Model) {F11.4}
DWTI_WALK2.                                            :Dry Weight Fraction Titanium (SpectroLith WALK2 Model) {F11.4}
ECST .DEGF                                             :ECS Temperature {F11.4}
ED   .F                                                :East Departure {F11.4}
ESUF_WALK2.                                            :Elemental Statistical Uncertainty Factor (SpectroLith WALK2 Model) {F11.4}
GR_EDTC.GAPI                                           :EDTC Gamma Ray {F11.4}
GTEM .DEGF                                             :Generalized Borehole Temperature {F11.4}
HAZI .DEG                                              :Hole Azimuth {F11.4}
HAZIM.DEG                                              :Hole Azimuth {F11.4}
ND   .F                                                :North Departure {F11.4}
P1AZ .DEG                                              :Pad 1 Azimuth {F11.4}
QCPMT.                                                 :Photomultiplier Tube Quality Control {F11.4}
RB   .DEG                                              :Relative Bearing {F11.4}
RHGE_WALK2.G/C3                                        :Matrix Density from Elemental Concentrations (SpectroLith WALK2 Model) {F11.4}
SDEV .DEG                                              :Sonde Deviation {F11.4}
SDEVM.DEG                                              :Sonde Deviation {F11.4}
STIT .F                                                :Stuck Tool Indicator, Total {F11.4}
TENS .LBF                                              :Cable Tension {F11.4}
WANH_WALK2.                                            :Dry Weight Fraction Anhydrite/Gypsum (SpectroLith WALK2 Model) {F11.4}
WCAR_WALK2.                                            :Dry Weight Fraction Carbonate (SpectroLith WALK2 Model) {F11.4}
WCLA_WALK2.                                            :Dry Weight Fraction Clay (SpectroLith WALK2 Model) {F11.4}
WCOA_WALK2.                                            :Dry Weight Fraction Coal (SpectroLith WALK2 Model) {F11.4}
WEVA_WALK2.                                            :Dry Weight Fraction Salt (SpectroLith WALK2 Model) {F11.4}
WPYR_WALK2.                                            :Dry Weight Fraction Pyrite (SpectroLith WALK2 Model) {F11.4}
WQFM_WALK2.                                            :Dry Weight Fraction Quartz+Feldspar+Mica (QFM) (SpectroLith WALK2 Model) {F11.4}
WSID_WALK2.                                            :Dry Weight Fraction Siderite (SpectroLith WALK2 Model) {F11.4}
#-----------------------------------------------------------------------------
# 
#      DEPT      C1_OBMT    C2_OBMT      CDF        CTEM       DCAL       DEVI      DEVIM    DWAL_WALK2 DWCA_WALK2 DWFE_WALK2 DWGD_WALK2 DWSI_WALK2 DWSU_WALK2 DWTI_WALK2    ECST        ED     ESUF_WALK2  GR_EDTC      GTEM       HAZI      HAZIM        ND        P1AZ      QCPMT        RB     RHGE_WALK2    SDEV      SDEVM       STIT       TENS    WANH_WALK2 WCAR_WALK2 WCLA_WALK2 WCOA_WALK2 WEVA_WALK2 WPYR_WALK2 WQFM_WALK2 WSID_WALK2
#
~A  
# ...
   3553.0000     7.3132     7.2707   957.3615   124.0472     0.5419     4.7114     4.1105     0.0506     0.1554     0.0280     1.4436     0.1977     0.0162     0.0018    48.3325   -17.5671     0.6829   135.6421   114.9595   175.4993   166.1199    10.2008    13.2425     0.0000   197.6844     2.7401     4.8203     4.1947     0.0000  2172.0000     0.0000     0.3431     0.2601     0.0000     0.0000     0.0302     0.3665     0.0000
   3553.5000     7.3132     7.2759  1039.8375   124.0472     0.5445     4.6925     4.0911     0.0495     0.1743     0.0292     5.0304     0.1759     0.0000     0.0025    48.3325   -17.5584     0.7002   140.6243   114.9661   175.2680   165.8615    10.1661    13.1678     0.4975   197.8410     2.7266     4.8006     4.1745     0.0000  2444.0000     0.0000     0.3940     0.2500     0.0000     0.0000     0.0000     0.3561     0.0000
   3554.0000     7.3209     7.3025  1059.3900   124.0472     0.5617     4.6807     4.0695     0.0531     0.1882     0.0310     7.0501     0.1536     0.0000     0.0035    48.3325   -17.5496     0.7204   153.6508   114.9727   174.9828   165.5321    10.1317    12.9022     0.7487   197.8609     2.7322     4.7886     4.1523     0.0000  2475.0000     0.0000     0.4313     0.2813     0.0000     0.0000     0.0000     0.2873     0.0000
   3554.5000     7.3573     7.3008  1005.7095   124.0472     0.5790     4.6429     4.0512     0.0596     0.1853     0.0347     9.4329     0.1456     0.0000     0.0044    48.3325   -17.5407     0.7244   155.9348   114.9793   174.7460   165.1682    10.0974    12.9164     0.7757   198.1120     2.7384     4.7501     4.1341     0.0000  2297.0000     0.0000     0.4234     0.3389     0.0000     0.0000     0.0000     0.2377     0.0000
   3555.0000     7.3591     7.3017  1015.6635   124.0472     0.5804     4.6265     4.0396     0.0604     0.1714     0.0351     9.3438     0.1606     0.0000     0.0046    48.3325   -17.5315     0.7460   151.5357   114.9859   174.4665   164.8818    10.0633    12.7195     0.2016   198.1949     2.7367     4.7330     4.1220     0.0000  2392.0000     0.0000     0.3859     0.3455     0.0000     0.0000     0.0000     0.2686     0.0000
   3555.5000     7.3158     7.2982  1044.8146   124.0472     0.5570     4.6185     4.0178     0.0583     0.1536     0.0339     8.3973     0.1849     0.0000     0.0043    48.3325   -17.5223     0.7573   150.9513   114.9925   174.2175   164.5628    10.0294    12.2175     0.1876   197.9428     2.7316     4.7236     4.0986     0.0000  2494.0000     0.0000     0.3383     0.3270     0.0000     0.0000     0.0000     0.3347     0.0000
   3556.0000     7.3088     7.3059  1010.6865   124.0472     0.5574     4.5837     3.9933     0.0527     0.1461     0.0310     5.0770     0.2033     0.0000     0.0032    48.3325   -17.5129     0.7553   144.6683   114.9991   173.9525   164.1865     9.9958    12.1919     0.2498   198.1824     2.7249     4.6872     4.0730     0.0000  2302.0000     0.0000     0.3179     0.2786     0.0000     0.0000     0.0000     0.4035     0.0000
   3556.5000     7.3105     7.3094  1015.6635   124.0472     0.5599     4.5650     3.9901     0.0531     0.1441     0.0312     2.6112     0.2049     0.0000     0.0030    49.5030   -17.5033     0.7301   145.8377   115.0058   173.6887   163.8909     9.9623    12.1327     0.1601   198.3869     2.7251     4.6677     4.0697     0.0000  2404.0000     0.0000     0.3125     0.2817     0.0000     0.0000     0.0000     0.4057     0.0000
   3557.0000     7.3158     7.3068  1034.8606   124.0472     0.5613     4.5542     3.9747     0.0501     0.1508     0.0296     2.0525     0.2023     0.0000     0.0024    49.5030   -17.4936     0.7475   135.7131   115.0124   173.4046   163.5810     9.9290    11.8055     0.0047   198.3441     2.7233     4.6566     4.0538     0.0000  2473.0000     0.0000     0.3308     0.2550     0.0000     0.0000     0.0000     0.4143     0.0000
   3557.5000     7.2846     7.2621  1015.6635   124.0472     0.5234     4.5432     3.9522     0.0499     0.1622     0.0293     5.0696     0.1894     0.0000     0.0030    49.5030   -17.4837     0.7489   135.5184   115.0190   173.1949   163.1905     9.8959    11.6008     0.0708   198.3495     2.7246     4.6443     4.0298     0.0000  2342.0000     0.0000     0.3614     0.2539     0.0000     0.0000     0.0000     0.3847     0.0000
   3558.0000     7.2776     7.2591  1020.2850   124.0472     0.5184     4.5080     3.9349     0.0442     0.1781     0.0260     5.9633     0.1811     0.0000     0.0027    49.5030   -17.4737     0.7504   136.6866   115.0256   172.8366   162.8676     9.8630    11.4875     0.4555   198.5948     2.7211     4.6074     4.0117     0.0000  2403.0000     0.0000     0.4040     0.2039     0.0000     0.0000     0.0000     0.3922     0.0000
   3558.5000     7.2846     7.2656  1049.4360   124.0472     0.5251     4.4988     3.9369     0.0434     0.1792     0.0250     5.6409     0.1816     0.0035     0.0027    48.3325   -17.4635     0.7555   143.3068   115.0322   172.6307   162.5872     9.8302    11.0081     0.3150   198.3223     2.7237     4.5980     4.0140     0.0000  2473.0000     0.0000     0.4072     0.1967     0.0000     0.0000     0.0066     0.3895     0.0000
   3559.0000     7.3939     7.3877   996.1110   124.0472     0.6408     4.4922     3.9140     0.0438     0.1728     0.0239     4.1179     0.1896     0.0140     0.0025    48.3325   -17.4531     0.7074   144.8011   115.0388   172.3608   162.2410     9.7976    10.7086     0.1225   198.2928     2.7329     4.5941     3.9924     0.0000  2321.0000     0.0000     0.3899     0.2004     0.0000     0.0000     0.0261     0.3836     0.0000
   3559.5000     7.3947     7.3894  1001.0880   124.0472     0.6421     4.4643     3.8902     0.0489     0.1531     0.0263     5.2343     0.2041     0.0184     0.0027    48.3325   -17.4427     0.7096   144.4117   115.0454   172.1053   161.8865     9.7652    10.6050     0.0454   198.4450     2.7391     4.5650     3.9677     0.0000  2320.0000     0.0000     0.3368     0.2451     0.0000     0.0000     0.0344     0.3837     0.0000
   3560.0000     7.4017     7.3980  1034.8606   124.0472     0.6499     4.4528     3.8843     0.0559     0.1426     0.0302     6.4611     0.2042     0.0201     0.0031    49.5030   -17.4320     0.7042   131.3661   115.0520   171.8455   161.5521     9.7330     9.9258     0.0870   198.0270     2.7465     4.5532     3.9618     0.0000  2491.0000     0.0000     0.3087     0.3063     0.0000     0.0000     0.0375     0.3475     0.0000
   3560.5000     7.3599     7.3128  1010.6865   124.0472     0.5863     4.4497     3.8827     0.0638     0.1277     0.0342     6.5764     0.2082     0.0248     0.0035    50.6736   -17.4212     0.7205   135.3237   115.0586   171.5878   161.2122     9.7009     9.5691     0.0057   197.9284     2.7569     4.5487     3.9591     0.0000  2336.0000     0.0000     0.2685     0.3754     0.0000     0.0000     0.0464     0.3097     0.0000
   3561.0000     7.3566     7.3430   966.9600   124.0472     0.5998     4.4203     3.8632     0.0643     0.1328     0.0343     5.8359     0.2014     0.0267     0.0034    49.5030   -17.4103     0.7515   130.0665   115.0652   171.3373   160.8868     9.6690     9.5504     0.0000   198.1601     2.7603     4.5181     3.9389     0.0000  2226.0000     0.0000     0.2823     0.3806     0.0000     0.0000     0.0500     0.2871     0.0000
   3561.5000     7.3523     7.3447  1049.4360   124.0472     0.5985     4.4085     3.8429     0.0541     0.1459     0.0298     6.1962     0.2030     0.0167     0.0024    48.3325   -17.3992     0.8120   143.3441   115.0718   171.0864   160.5753     9.6373     9.6270     0.1183   198.4873     2.7424     4.5057     3.9178     0.0000  2523.0000     0.0000     0.3174     0.2904     0.0000     0.0000     0.0312     0.3610     0.0000
   3562.0000     7.3566     7.3507  1030.2390   124.0472     0.6037     4.4014     3.8498     0.0429     0.1730     0.0253     7.1411     0.1891     0.0024     0.0014    48.3325   -17.3879     0.7682   146.0701   115.0785   170.8386   160.2457     9.6057     9.6727     0.2495   198.7801     2.7220     4.4984     3.9250     0.0000  2378.0000     0.0000     0.3905     0.1922     0.0000     0.0000     0.0045     0.4129     0.0000
