~VERSION INFORMATION
VERS.           1.2   :CWLS Log ASCII Standard - VERSION 1.2
WRAP.           NO    :One Line per depth step
PROD.  Schlumberger   :LAS Producer
PROG.  DLIS to ASCII 17C0-152                          :LAS Program name and version
CREA.        2011/10/27 17:25                          :LAS Creation date {YYYY/MM/DD hh:mm}
DLIS_CREA.  2011-Oct-27 07:17                          :DLIS Creation date and time {YYYY-MMM-DD hh:mm}
SOURCE.     79519d1b-f2ac-4620-a9ab-fbce0bbece67       :DLIS File Name
#--------------------------------------------------
~WELL INFORMATION
#MNEM.UNIT      DATA             DESCRIPTION
#---- ------ --------------   -----------------------------
STRT .F      3722.5000       :START DEPTH     
STOP .F      4490.0000       :STOP DEPTH     
STEP .F       0.5000         :STEP       
NULL .          -999.25      :NULL VALUE
COMP .                 COMPANY:  SWEPI LP                           
WELL .                    WELL:  Harper Hill 2-29                   
FLD  .                   FIELD:  Swan                               
LOC  .                LOCATION:                                     
CNTY .                  COUNTY:  Moffat                             
STAT .                   STATE:  Colorado                           
CTRY .                 COUNTRY:                                     
SRVC .         SERVICE COMPANY:  Schlumberger                       
API  .              API NUMBER:  05-0081-07659                      
DATE .                LOG DATE:  26-Oct-2011
UWI  .          UNIQUE WELL ID:                                     
#-----------------------------------------------------------------------------
~PARAMETER INFORMATION
#MNEM.UNIT    VALUE                      DESCRIPTION
#---- -----   --------------------       ------------------------
CN   .        SWEPI LP                   :Company Name
WN   .        Harper Hill 2-29           :Well Name
FN   .        Swan                       :Field Name
FL   .                                   :Field Location
FL1  .                                   :Field Location Line 1
COUN .        Moffat                     :County or Rig Name
STAT .        Colorado                   :State or Province
NATI .                                   :Nation
DATE .        26-Oct-2011                :Date as Month-Day-Year
APIN .        05-0081-07659              :API Serial Number
SECT .        29                         :Section
TOWN .        5N                         :Township
RANG .        90W                        :Range
DMF  .        Kelly Bushing              :Drilling Measured From
LMF  .        Kelly Bushing              :Log Measured From
PDAT .        Ground Level               :Permanent Datum
ENGI .        Mark Kast                  :Engineer's Name
WITN .        Tony                       :Witness's Name
LATI .                                   :Latitude
LONG .                                   :Longitude
LUL  .        Rock Springs               :Logging Unit Location
LUN  .              2271                 :Logging Unit Number
RUN  .        Two                        :Run Number
SON  .                                   :Service Order Number
BHT  .DEGF     127.00000                 :Bottom Hole Temperature (used in calculations)
BS   .IN         6.75000                 :Bit Size
DFD  .LB/G       7.90000                 :Drilling Fluid Density
DFV  .S         44.00000                 :Drilling Fluid Viscosity
DFL  .C3        16.60000                 :Drilling Fluid Loss
RMFS .                                   :Resistivity of Mud Filtrate Sample
EKB  .F       6597.00000                 :Elevation of Kelly Bushing
EGL  .F       6585.00000                 :Elevation of Ground Level
BLI  .                                   :Bottom Log Interval
BSAL .PPM     44500.00000                :Borehole Salinity
FLEV .                                   :Fluid Level
MCST .                                   :Mud Cake Sample Temperature
MFST .                                   :Mud Filtrate Sample Temperature
MRT  .DEGF     127.00000                 :Maximum Recorded Temperature
MST  .                                   :Mud Sample Temperature
RMCS .                                   :Resistivity of Mud Cake Sample
RMS  .                                   :Resistivity of Mud Sample
RW   .OHMM       1.00000                 :Resistivity of Connate Water
TDD  .F       4480.00000                 :Total Depth - Driller
TDL  .F       4482.00000                 :Total Depth - Logger
TLI  .                                   :Top Log Interval
HIDE .                                   :Header Identifier
MATR .        SAND                       :Rock Matrix for Neutron Porosity Corrections
DFT  .        OBM                        :Drilling Fluid Type
DFPH .                                   :Drilling Fluid PH
MCSS .        N/A                        :Mud Cake Sample Source
MFSS .        N/A                        :Mud Filtrate Sample Source
MSS  .        N/A                        :Mud Sample Source
OS1  .                                   :Other Services Line 1
OS2  .                                   :Other Services Line 2
OS3  .                                   :Other Services Line 3
OS4  .                                   :Other Services Line 4
OS5  .                                   :Other Services Line 5
R1   .                                   :Remark Line 1
R2   .                                   :Remark Line 2
R3   .                                   :Remark Line 3
R4   .                                   :Remark Line 4
R5   .                                   :Remark Line 5
R6   .                                   :Remark Line 6
R7   .                                   :Remark Line 7
R8   .                                   :Remark Line 8
TCS  .        20 00                      :Time Circulation Stopped
TLAB .                                   :Time Logger At Bottom
EPD  .F         6585.000000              :Elevation of Permanent Datum above Mean Sea Level
APD  .F          12.000000               :Elevation of Depth Reference (LMF) above Permanent Datum
#-----------------------------------------------------------------------------
~CURVE INFORMATION
#MNEM.UNIT   API CODE                                  DESCRIPTION
#---- -----  --------                                  -----------------------
DEPT .F                                                :DEPTH (BOREHOLE) {F12.4}
C1_OBMT.IN                                             :OBMT Caliper 1 {F11.4}
C2_OBMT.IN                                             :OBMT Caliper 2 {F11.4}
CDF  .LBF                                              :Calibrated Downhole Force {F11.4}
CTEM .DEGF                                             :Cartridge Temperature {F11.4}
DCAL .IN                                               :Differential Caliper {F11.4}
DEVI .DEG                                              :Hole Deviation {F11.4}
DEVIM.DEG                                              :Memorized Deviation {F11.4}
DWAL_WALK2.                                            :Dry Weight Fraction Pseudo Aluminum (SpectroLith WALK2 Model) {F11.4}
DWCA_WALK2.                                            :Dry Weight Fraction Calcium (SpectroLith WALK2 Model) {F11.4}
DWFE_WALK2.                                            :Dry Weight Fraction Iron + 0.14 Aluminum (SpectroLith WALK2 Model) {F11.4}
DWGD_WALK2.PPM                                         :Dry Weight Fraction Gadolinium (SpectroLith WALK2 Model) {F11.4}
DWSI_WALK2.                                            :Dry Weight Fraction Silicon (SpectroLith WALK2 Model) {F11.4}
DWSU_WALK2.                                            :Dry Weight Fraction Sulfur (SpectroLith WALK2 Model) {F11.4}
DWTI_WALK2.                                            :Dry Weight Fraction Titanium (SpectroLith WALK2 Model) {F11.4}
ECST .DEGF                                             :ECS Temperature {F11.4}
ED   .F                                                :East Departure {F11.4}
ESUF_WALK2.                                            :Elemental Statistical Uncertainty Factor (SpectroLith WALK2 Model) {F11.4}
GR_EDTC.GAPI                                           :EDTC Gamma Ray {F11.4}
GTEM .DEGF                                             :Generalized Borehole Temperature {F11.4}
HAZI .DEG                                              :Hole Azimuth {F11.4}
HAZIM.DEG                                              :Hole Azimuth {F11.4}
ND   .F                                                :North Departure {F11.4}
P1AZ .DEG                                              :Pad 1 Azimuth {F11.4}
QCPMT.                                                 :Photomultiplier Tube Quality Control {F11.4}
RB   .DEG                                              :Relative Bearing {F11.4}
RHGE_WALK2.G/C3                                        :Matrix Density from Elemental Concentrations (SpectroLith WALK2 Model) {F11.4}
SDEV .DEG                                              :Sonde Deviation {F11.4}
SDEVM.DEG                                              :Sonde Deviation {F11.4}
STIT .F                                                :Stuck Tool Indicator, Total {F11.4}
TENS .LBF                                              :Cable Tension {F11.4}
WANH_WALK2.                                            :Dry Weight Fraction Anhydrite/Gypsum (SpectroLith WALK2 Model) {F11.4}
WCAR_WALK2.                                            :Dry Weight Fraction Carbonate (SpectroLith WALK2 Model) {F11.4}
WCLA_WALK2.                                            :Dry Weight Fraction Clay (SpectroLith WALK2 Model) {F11.4}
WCOA_WALK2.                                            :Dry Weight Fraction Coal (SpectroLith WALK2 Model) {F11.4}
WEVA_WALK2.                                            :Dry Weight Fraction Salt (SpectroLith WALK2 Model) {F11.4}
WPYR_WALK2.                                            :Dry Weight Fraction Pyrite (SpectroLith WALK2 Model) {F11.4}
WQFM_WALK2.                                            :Dry Weight Fraction Quartz+Feldspar+Mica (QFM) (SpectroLith WALK2 Model) {F11.4}
WSID_WALK2.                                            :Dry Weight Fraction Siderite (SpectroLith WALK2 Model) {F11.4}
#-----------------------------------------------------------------------------
# 
#      DEPT      C1_OBMT    C2_OBMT      CDF        CTEM       DCAL       DEVI      DEVIM    DWAL_WALK2 DWCA_WALK2 DWFE_WALK2 DWGD_WALK2 DWSI_WALK2 DWSU_WALK2 DWTI_WALK2    ECST        ED     ESUF_WALK2  GR_EDTC      GTEM       HAZI      HAZIM        ND        P1AZ      QCPMT        RB     RHGE_WALK2    SDEV      SDEVM       STIT       TENS    WANH_WALK2 WCAR_WALK2 WCLA_WALK2 WCOA_WALK2 WEVA_WALK2 WPYR_WALK2 WQFM_WALK2 WSID_WALK2
#
~A  
# ...
   3922.0000     7.2273     7.2578  1083.5641   122.0707     0.4925     6.3860     6.4158     0.0726     0.0655     0.0412     6.9963     0.2634     0.0067     0.0057    45.9914   -54.2652     0.7670   131.9045   119.8365    69.6294    68.1378   -33.3877   265.0664     0.0000   195.3404     2.7380     6.5700     6.6012     0.0000  2774.0000     0.0000     0.1011     0.4532     0.0000     0.0000     0.0126     0.4332     0.0000
   3922.5000     7.2290     7.2612  1034.8606   122.0707     0.4951     6.3779     6.3996     0.0769     0.0802     0.0440     3.8092     0.2383     0.0066     0.0054    44.8209   -54.2134     0.6805   128.8798   119.8431    69.5964    68.1501   -33.3670   265.0357     0.0000   195.3429     2.7455     6.5616     6.5843     0.0000  2605.0000     0.0000     0.1408     0.4913     0.0000     0.0000     0.0124     0.3555     0.0000
   3923.0000     7.2300     7.2638  1015.6635   122.0707     0.4969     6.3687     6.4063     0.0756     0.1034     0.0437     4.7691     0.2132     0.0041     0.0049    44.8209   -54.1617     0.6744   124.5321   119.8497    69.5518    68.0983   -33.3462   265.0918     0.0646   195.4433     2.7459     6.5520     6.5914     0.0000  2621.0000     0.0000     0.2032     0.4790     0.0000     0.0000     0.0077     0.3100     0.0000
   3923.5000     7.2585     7.2810  1059.3900   122.0707     0.5197     6.3855     6.4143     0.0663     0.1226     0.0390     6.3523     0.2066     0.0000     0.0040    44.8209   -54.1099     0.7161   128.5025   119.8563    69.4687    68.0538   -33.3253   265.0393     0.1107   195.4733     2.7356     6.5709     6.6012     0.0000  2800.0000     0.0000     0.2547     0.3978     0.0000     0.0000     0.0000     0.3475     0.0000
   3924.0000     7.3053     7.3042  1064.0116   122.0707     0.5548     6.3796     6.3929     0.0562     0.1383     0.0332     8.7104     0.2060     0.0000     0.0029    44.8209   -54.0582     0.6984   133.4310   119.8630    69.4592    68.0643   -33.3045   264.9163     0.2170   195.3605     2.7277     6.5671     6.5810     0.0000  2656.0000     0.0000     0.2970     0.3092     0.0000     0.0000     0.0000     0.3938     0.0000
   3924.5000     7.3053     7.3042  1025.2621   122.0707     0.5548     6.3675     6.3999     0.0483     0.1457     0.0287     9.4662     0.2113     0.0000     0.0021    44.8209   -54.0065     0.6900   144.3969   119.8696    69.4430    68.0291   -33.2837   264.8882     1.0161   195.3490     2.7207     6.5544     6.5883     0.0000  2632.0000     0.0000     0.3170     0.2395     0.0000     0.0000     0.0000     0.4435     0.0000
   3925.0000     7.2689     7.3059  1078.5870   122.0707     0.5374     6.3867     6.4135     0.0474     0.1525     0.0282    12.1782     0.2050     0.0000     0.0019    45.9914   -53.9548     0.7102   144.5803   119.8762    69.3075    67.9693   -33.2628   264.9070     0.7395   195.5020     2.7209     6.5728     6.6009     0.0000  2756.0000     0.0000     0.3352     0.2312     0.0000     0.0000     0.0000     0.4335     0.0000
   3925.5000     7.2681     7.2914  1030.2390   122.0707     0.5297     6.3822     6.3922     0.0509     0.1363     0.0301    12.6520     0.2177     0.0000     0.0027    45.9914   -53.9031     0.6771   144.7966   119.8828    69.2738    68.0085   -33.2419   265.0997     1.5309   195.7272     2.7216     6.5680     6.5786     0.0000  2620.0000     0.0000     0.2917     0.2627     0.0000     0.0000     0.0000     0.4456     0.0000
   3926.0000     7.2663     7.2750  1068.9885   122.0707     0.5206     6.3655     6.4046     0.0549     0.1274     0.0324    11.3111     0.2211     0.0000     0.0029    45.9914   -53.8514     0.6832   137.4647   119.8894    69.2219    67.9468   -33.2210   265.0300     0.9163   195.7100     2.7243     6.5504     6.5914     0.0000  2721.0000     0.0000     0.2678     0.2972     0.0000     0.0000     0.0000     0.4350     0.0000
   3926.5000     7.2846     7.3077  1078.5870   122.0707     0.5461     6.3827     6.4092     0.0581     0.1166     0.0344     8.7973     0.2279     0.0000     0.0028    46.5767   -53.7997     0.7249   134.1667   119.8960    69.1656    67.9257   -33.2000   264.8342     0.0000   195.5707     2.7262     6.5694     6.5972     0.0000  2744.0000     0.0000     0.2387     0.3256     0.0000     0.0000     0.0000     0.4357     0.0000
   3927.0000     7.2664     7.3086  1015.6635   122.0707     0.5375     6.3820     6.4001     0.0605     0.1242     0.0361     8.2929     0.2145     0.0000     0.0022    47.1620   -53.7480     0.7156   129.3698   119.9026    69.1024    67.9400   -33.1791   264.8209     0.3846   195.6203     2.7307     6.5678     6.5868     0.0000  2583.0000     0.0000     0.2592     0.3468     0.0000     0.0000     0.0000     0.3940     0.0000
   3927.5000     7.2672     7.3042  1025.2621   122.0707     0.5357     6.3730     6.4060     0.0644     0.1202     0.0383     9.8704     0.2123     0.0000     0.0025    47.1620   -53.6963     0.7249   126.9688   119.9092    69.0698    67.9004   -33.1581   264.8838     0.2409   195.7157     2.7342     6.5583     6.5930     0.0000  2683.0000     0.0000     0.2484     0.3811     0.0000     0.0000     0.0000     0.3705     0.0000
   3928.0000     7.2677     7.3051  1068.9885   122.0707     0.5364     6.3775     6.4080     0.0688     0.1125     0.0408     9.7832     0.2136     0.0000     0.0030    47.1620   -53.6446     0.7598   127.7017   119.9158    69.0323    67.8704   -33.1371   265.5862     0.8399   196.4514     2.7374     6.5631     6.5951     0.0000  2748.0000     0.0000     0.2276     0.4194     0.0000     0.0000     0.0000     0.3530     0.0000
   3928.5000     7.2716     7.3103  1030.2390   122.0707     0.5409     6.3795     6.4009     0.0701     0.1074     0.0416     9.3495     0.2171     0.0000     0.0033    44.8209   -53.5930     0.7069   131.7415   119.9224    68.9842    67.8768   -33.1161   265.9308     0.0111   196.8418     2.7379     6.5655     6.5878     0.0000  2612.0000     0.0000     0.2140     0.4316     0.0000     0.0000     0.0000     0.3544     0.0000
   3929.0000     7.2689     7.3094  1025.2621   122.0707     0.5391     6.3716     6.4025     0.0676     0.1079     0.0401     7.8995     0.2212     0.0000     0.0031    44.8209   -53.5413     0.7053   134.8562   119.9290    68.9498    67.8625   -33.0951   266.0774     0.1969   197.0220     2.7352     6.5571     6.5895     0.0000  2641.0000     0.0000     0.2152     0.4089     0.0000     0.0000     0.0000     0.3758     0.0000
   3929.5000     7.2706     7.3077  1103.1166   122.0707     0.5391     6.3872     6.4116     0.0596     0.1185     0.0354     8.3116     0.2228     0.0000     0.0025    44.8209   -53.4897     0.7474   138.3584   119.9356    68.8909    67.8055   -33.0740   266.1050     0.0000   197.1075     2.7285     6.5735     6.5990     0.0000  2814.0000     0.0000     0.2439     0.3390     0.0000     0.0000     0.0000     0.4171     0.0000
   3930.0000     7.3122     7.3507  1049.4360   122.0707     0.5814     6.3795     6.4025     0.0527     0.1180     0.0312     6.3907     0.2359     0.0000     0.0024    45.6012   -53.4380     0.7150   135.6395   119.9423    68.8578    67.8085   -33.0530   265.2471     0.2813   196.2876     2.7206     6.5675     6.5916     0.0000  2667.0000     0.0000     0.2425     0.2779     0.0000     0.0000     0.0000     0.4796     0.0000
   3930.5000     7.3132     7.3481  1039.8375   122.0707     0.5807     6.3748     6.3945     0.0486     0.1192     0.0287     7.6633     0.2419     0.0000     0.0025    45.9914   -53.3864     0.7061   133.0928   119.9489    68.8195    67.8349   -33.0319   265.0127     0.0682   196.0926     2.7162     6.5625     6.5832     0.0000  2704.0000     0.0000     0.2456     0.2421     0.0000     0.0000     0.0000     0.5122     0.0000
   3931.0000     7.3157     7.3472  1083.5641   122.0707     0.5814     6.3850     6.4100     0.0503     0.1124     0.0295     9.1312     0.2470     0.0000     0.0033    45.9914   -53.3348     0.7085   122.6284   119.9555    68.7417    67.7546   -33.0109   263.5855     0.5475   194.7505     2.7164     6.5733     6.5996     0.0000  2790.0000     0.0000     0.2273     0.2573     0.0000     0.0000     0.0000     0.5154     0.0000
