~VERSION INFORMATION
VERS.           1.2   :CWLS Log ASCII Standard - VERSION 1.2
WRAP.           NO    :One Line per depth step
PROD.  Schlumberger   :LAS Producer
PROG.  DLIS to ASCII 17C0-152                          :LAS Program name and version
CREA.        2011/10/27 17:25                          :LAS Creation date {YYYY/MM/DD hh:mm}
DLIS_CREA.  2011-Oct-27 07:17                          :DLIS Creation date and time {YYYY-MMM-DD hh:mm}
SOURCE.     79519d1b-f2ac-4620-a9ab-fbce0bbece67       :DLIS File Name
#--------------------------------------------------
~WELL INFORMATION
#MNEM.UNIT      DATA             DESCRIPTION
#---- ------ --------------   -----------------------------
STRT .F      3722.5000       :START DEPTH     
STOP .F      4490.0000       :STOP DEPTH     
STEP .F       0.5000         :STEP       
NULL .          -999.25      :NULL VALUE
COMP .                 COMPANY:  SWEPI LP                           
WELL .                    WELL:  Harper Hill 2-29                   
FLD  .                   FIELD:  Swan                               
LOC  .                LOCATION:                                     
CNTY .                  COUNTY:  Moffat                             
STAT .                   STATE:  Colorado                           
CTRY .                 COUNTRY:                                     
SRVC .         SERVICE COMPANY:  Schlumberger                       
API  .              API NUMBER:  05-0081-07659                      
DATE .                LOG DATE:  26-Oct-2011
UWI  .          UNIQUE WELL ID:                                     
#-----------------------------------------------------------------------------
~PARAMETER INFORMATION
#MNEM.UNIT    VALUE                      DESCRIPTION
#---- -----   --------------------       ------------------------
CN   .        SWEPI LP                   :Company Name
WN   .        Harper Hill 2-29           :Well Name
FN   .        Swan                       :Field Name
FL   .                                   :Field Location
FL1  .                                   :Field Location Line 1
COUN .        Moffat                     :County or Rig Name
STAT .        Colorado                   :State or Province
NATI .                                   :Nation
DATE .        26-Oct-2011                :Date as Month-Day-Year
APIN .        05-0081-07659              :API Serial Number
SECT .        29                         :Section
TOWN .        5N                         :Township
RANG .        90W                        :Range
DMF  .        Kelly Bushing              :Drilling Measured From
LMF  .        Kelly Bushing              :Log Measured From
PDAT .        Ground Level               :Permanent Datum
ENGI .        Mark Kast                  :Engineer's Name
WITN .        Tony                       :Witness's Name
LATI .                                   :Latitude
LONG .                                   :Longitude
LUL  .        Rock Springs               :Logging Unit Location
LUN  .              2271                 :Logging Unit Number
RUN  .        Two                        :Run Number
SON  .                                   :Service Order Number
BHT  .DEGF     127.00000                 :Bottom Hole Temperature (used in calculations)
BS   .IN         6.75000                 :Bit Size
DFD  .LB/G       7.90000                 :Drilling Fluid Density
DFV  .S         44.00000                 :Drilling Fluid Viscosity
DFL  .C3        16.60000                 :Drilling Fluid Loss
RMFS .                                   :Resistivity of Mud Filtrate Sample
EKB  .F       6597.00000                 :Elevation of Kelly Bushing
EGL  .F       6585.00000                 :Elevation of Ground Level
BLI  .                                   :Bottom Log Interval
BSAL .PPM     44500.00000                :Borehole Salinity
FLEV .                                   :Fluid Level
MCST .                                   :Mud Cake Sample Temperature
MFST .                                   :Mud Filtrate Sample Temperature
MRT  .DEGF     127.00000                 :Maximum Recorded Temperature
MST  .                                   :Mud Sample Temperature
RMCS .                                   :Resistivity of Mud Cake Sample
RMS  .                                   :Resistivity of Mud Sample
RW   .OHMM       1.00000                 :Resistivity of Connate Water
TDD  .F       4480.00000                 :Total Depth - Driller
TDL  .F       4482.00000                 :Total Depth - Logger
TLI  .                                   :Top Log Interval
HIDE .                                   :Header Identifier
MATR .        SAND                       :Rock Matrix for Neutron Porosity Corrections
DFT  .        OBM                        :Drilling Fluid Type
DFPH .                                   :Drilling Fluid PH
MCSS .        N/A                        :Mud Cake Sample Source
MFSS .        N/A                        :Mud Filtrate Sample Source
MSS  .        N/A                        :Mud Sample Source
OS1  .                                   :Other Services Line 1
OS2  .                                   :Other Services Line 2
OS3  .                                   :Other Services Line 3
OS4  .                                   :Other Services Line 4
OS5  .                                   :Other Services Line 5
R1   .                                   :Remark Line 1
R2   .                                   :Remark Line 2
R3   .                                   :Remark Line 3
R4   .                                   :Remark Line 4
R5   .                                   :Remark Line 5
R6   .                                   :Remark Line 6
R7   .                                   :Remark Line 7
R8   .                                   :Remark Line 8
TCS  .        20 00                      :Time Circulation Stopped
TLAB .                                   :Time Logger At Bottom
EPD  .F         6585.000000              :Elevation of Permanent Datum above Mean Sea Level
APD  .F          12.000000               :Elevation of Depth Reference (LMF) above Permanent Datum
#-----------------------------------------------------------------------------
~CURVE INFORMATION
#MNEM.UNIT   API CODE                                  DESCRIPTION
#---- -----  --------                                  -----------------------
DEPT .F                                                :DEPTH (BOREHOLE) {F12.4}
C1_OBMT.IN                                             :OBMT Caliper 1 {F11.4}
C2_OBMT.IN                                             :OBMT Caliper 2 {F11.4}
CDF  .LBF                                              :Calibrated Downhole Force {F11.4}
CTEM .DEGF                                             :Cartridge Temperature {F11.4}
DCAL .IN                                               :Differential Caliper {F11.4}
DEVI .DEG                                              :Hole Deviation {F11.4}
DEVIM.DEG                                              :Memorized Deviation {F11.4}
DWAL_WALK2.                                            :Dry Weight Fraction Pseudo Aluminum (SpectroLith WALK2 Model) {F11.4}
DWCA_WALK2.                                            :Dry Weight Fraction Calcium (SpectroLith WALK2 Model) {F11.4}
DWFE_WALK2.                                            :Dry Weight Fraction Iron + 0.14 Aluminum (SpectroLith WALK2 Model) {F11.4}
DWGD_WALK2.PPM                                         :Dry Weight Fraction Gadolinium (SpectroLith WALK2 Model) {F11.4}
DWSI_WALK2.                                            :Dry Weight Fraction Silicon (SpectroLith WALK2 Model) {F11.4}
DWSU_WALK2.                                            :Dry Weight Fraction Sulfur (SpectroLith WALK2 Model) {F11.4}
DWTI_WALK2.                                            :Dry Weight Fraction Titanium (SpectroLith WALK2 Model) {F11.4}
ECST .DEGF                                             :ECS Temperature {F11.4}
ED   .F                                                :East Departure {F11.4}
ESUF_WALK2.                                            :Elemental Statistical Uncertainty Factor (SpectroLith WALK2 Model) {F11.4}
GR_EDTC.GAPI                                           :EDTC Gamma Ray {F11.4}
GTEM .DEGF                                             :Generalized Borehole Temperature {F11.4}
HAZI .DEG                                              :Hole Azimuth {F11.4}
HAZIM.DEG                                              :Hole Azimuth {F11.4}
ND   .F                                                :North Departure {F11.4}
P1AZ .DEG                                              :Pad 1 Azimuth {F11.4}
QCPMT.                                                 :Photomultiplier Tube Quality Control {F11.4}
RB   .DEG                                              :Relative Bearing {F11.4}
RHGE_WALK2.G/C3                                        :Matrix Density from Elemental Concentrations (SpectroLith WALK2 Model) {F11.4}
SDEV .DEG                                              :Sonde Deviation {F11.4}
SDEVM.DEG                                              :Sonde Deviation {F11.4}
STIT .F                                                :Stuck Tool Indicator, Total {F11.4}
TENS .LBF                                              :Cable Tension {F11.4}
WANH_WALK2.                                            :Dry Weight Fraction Anhydrite/Gypsum (SpectroLith WALK2 Model) {F11.4}
WCAR_WALK2.                                            :Dry Weight Fraction Carbonate (SpectroLith WALK2 Model) {F11.4}
WCLA_WALK2.                                            :Dry Weight Fraction Clay (SpectroLith WALK2 Model) {F11.4}
WCOA_WALK2.                                            :Dry Weight Fraction Coal (SpectroLith WALK2 Model) {F11.4}
WEVA_WALK2.                                            :Dry Weight Fraction Salt (SpectroLith WALK2 Model) {F11.4}
WPYR_WALK2.                                            :Dry Weight Fraction Pyrite (SpectroLith WALK2 Model) {F11.4}
WQFM_WALK2.                                            :Dry Weight Fraction Quartz+Feldspar+Mica (QFM) (SpectroLith WALK2 Model) {F11.4}
WSID_WALK2.                                            :Dry Weight Fraction Siderite (SpectroLith WALK2 Model) {F11.4}
#-----------------------------------------------------------------------------
# 
#      DEPT      C1_OBMT    C2_OBMT      CDF        CTEM       DCAL       DEVI      DEVIM    DWAL_WALK2 DWCA_WALK2 DWFE_WALK2 DWGD_WALK2 DWSI_WALK2 DWSU_WALK2 DWTI_WALK2    ECST        ED     ESUF_WALK2  GR_EDTC      GTEM       HAZI      HAZIM        ND        P1AZ      QCPMT        RB     RHGE_WALK2    SDEV      SDEVM       STIT       TENS    WANH_WALK2 WCAR_WALK2 WCLA_WALK2 WCOA_WALK2 WEVA_WALK2 WPYR_WALK2 WQFM_WALK2 WSID_WALK2
#
~A  
# ...
   4283.0000     7.1961     7.2217  1068.9885   108.2354     0.4589     6.2743     6.3052     0.0311     0.2409     0.0171     3.2649     0.1320     0.0067     0.0024    44.8209   -18.5385     0.5399   110.6965   124.6078    55.8211    54.7794   -14.7246   223.1435     0.0987   167.4001     2.7234     6.4513     6.4837     0.0000  2967.0000     0.0000     0.5732     0.0882     0.0000     0.0000     0.0125     0.3261     0.0000
   4283.5000     7.2300     7.2707  1132.2676   108.2354     0.5003     6.2727     6.2990     0.0324     0.2181     0.0187     7.0113     0.1556     0.0005     0.0028    44.8209   -18.4936     0.5880   131.7550   124.6144    55.7679    54.7599   -14.6929   222.3223     0.1349   166.6365     2.7150     6.4513     6.4788     0.0000  3028.0000     0.0000     0.5118     0.1000     0.0000     0.0000     0.0009     0.3873     0.0000
   4284.0000     7.2338     7.2655  1093.1626   108.2354     0.4997     6.2690     6.3055     0.0389     0.1907     0.0225    10.7762     0.1761     0.0000     0.0032    44.8209   -18.4488     0.6573   139.1615   124.6210    55.7561    54.7301   -14.6612   221.8541     0.0460   166.1827     2.7169     6.4476     6.4858     0.0000  2902.0000     0.0000     0.4379     0.1571     0.0000     0.0000     0.0000     0.4051     0.0000
   4284.5000     7.2430     7.2638  1034.8606   108.2354     0.5034     6.2699     6.3039     0.0471     0.1455     0.0274    12.4027     0.2142     0.0000     0.0034    44.8209   -18.4040     0.7231   134.3958   124.6276    55.7084    54.6976   -14.6295   221.7628     0.1872   166.1392     2.7182     6.4489     6.4846     0.0000  2860.0000     0.0000     0.3165     0.2287     0.0000     0.0000     0.0000     0.4548     0.0000
   4285.0000     7.2751     7.2681  1088.5410   108.2354     0.5216     6.2730     6.2967     0.0542     0.0941     0.0315    12.5525     0.2616     0.0000     0.0041    44.8209   -18.3592     0.7923   131.3004   124.6342    55.6921    54.6731   -14.5978   220.7423     0.0851   165.1407     2.7170     6.4536     6.4785     0.0000  2995.0000     0.0000     0.1783     0.2914     0.0000     0.0000     0.0000     0.5303     0.0000
   4285.5000     7.2681     7.2656  1117.6920   108.2354     0.5168     6.2700     6.3060     0.0586     0.0559     0.0337    11.5172     0.2988     0.0032     0.0044    44.4307   -18.3145     0.8002   131.7722   124.6408    55.6628    54.6318   -14.5660   219.8875     0.1838   164.3197     2.7183     6.4501     6.4879     0.0000  2980.0000     0.0000     0.0754     0.3303     0.0000     0.0000     0.0059     0.5884     0.0000
   4286.0000     7.2672     7.2767  1073.9656   108.2354     0.5219     6.2654     6.3058     0.0626     0.0224     0.0349    10.9649     0.3319     0.0084     0.0055    43.6503   -18.2697     0.8625   128.1062   124.6475    55.6538    54.5934   -14.5342   219.7629     0.0000   164.2045     2.7210     6.4453     6.4878     0.0000  2914.0000     0.0000     0.0000     0.3650     0.0000     0.0000     0.0157     0.6193     0.0000
   4286.5000     7.2663     7.2707  1054.4131   108.2354     0.5185     6.2745     6.3055     0.0671     0.0234     0.0372    11.0237     0.3230     0.0109     0.0057    44.2356   -18.2249     0.8477   128.2895   124.6541    55.6083    54.5833   -14.5024   219.5527     0.0592   164.0409     2.7284     6.4548     6.4873     0.0000  2923.0000     0.0000     0.0000     0.4045     0.0000     0.0000     0.0204     0.5751     0.0000
   4287.0000     7.2741     7.2716  1054.4131   108.2354     0.5228     6.2727     6.3099     0.0696     0.0267     0.0387    12.0949     0.3147     0.0091     0.0066    44.8209   -18.1802     0.8492   131.2210   124.6607    55.5874    54.5369   -14.4706   219.4900     0.2550   163.9994     2.7294     6.4533     6.4924     0.0000  2879.0000     0.0000     0.0000     0.4266     0.0000     0.0000     0.0170     0.5564     0.0000
   4287.5000     7.2767     7.2716  1054.4131   108.2354     0.5241     6.2670     6.3106     0.0728     0.0496     0.0411    12.4495     0.2818     0.0086     0.0056    44.8209   -18.1354     0.7376   133.9704   124.6673    55.5459    54.5168   -14.4387   219.5741     0.3841   164.1242     2.7373     6.4475     6.4932     0.0000  2909.0000     0.0000     0.0584     0.4549     0.0000     0.0000     0.0161     0.4706     0.0000
   4288.0000     7.2715     7.2784  1059.3900   108.2354     0.5250     6.2739     6.3104     0.0764     0.0507     0.0427    10.0364     0.2747     0.0143     0.0051    44.8209   -18.0907     0.7622   124.7902   124.6739    55.5361    54.4888   -14.4067   219.7176     0.0605   164.2767     2.7471     6.4544     6.4927     0.0000  2904.0000     0.0000     0.0613     0.4863     0.0000     0.0000     0.0268     0.4256     0.0000
   4288.5000     7.2664     7.2759  1054.4131   108.2354     0.5211     6.2802     6.3155     0.0831     0.0349     0.0457     6.9350     0.2820     0.0232     0.0047    44.8209   -18.0459     0.7775   117.4782   124.6805    55.4987    54.4626   -14.3748   219.7405     0.0000   164.3370     2.7605     6.4609     6.4979     0.0000  2898.0000     0.0000     0.0189     0.5455     0.0000     0.0000     0.0434     0.3922     0.0000
   4289.0000     7.2690     7.2845  1049.4360   107.9060     0.5267     6.2757     6.3157     0.0827     0.0244     0.0456     4.9994     0.2948     0.0205     0.0053    44.8209   -18.0012     0.8015   113.4277   124.6871    55.4874    54.4328   -14.3428   219.6410     0.0495   164.2491     2.7554     6.4563     6.4983     0.0000  2885.0000     0.0000     0.0000     0.5416     0.0000     0.0000     0.0383     0.4201     0.0000
   4289.5000     7.2794     7.2948  1049.4360   107.3570     0.5371     6.2723     6.3135     0.0771     0.0365     0.0435     6.1996     0.2895     0.0106     0.0053    44.8209   -17.9565     0.7173   122.5885   124.6937    55.4925    54.4244   -14.3108   219.5052     0.0000   164.1089     2.7419     6.4532     6.4964     0.0000  2865.0000     0.0000     0.0232     0.4926     0.0000     0.0000     0.0198     0.4644     0.0000
   4290.0000     7.2794     7.2862  1049.4360   107.4216     0.5328     6.2852     6.3172     0.0683     0.0697     0.0401     7.0790     0.2649     0.0000     0.0042    45.4062   -17.9117     0.6602   125.5033   124.7003    55.4618    54.3779   -14.2788   219.5185     0.2022   164.1531     2.7287     6.4667     6.5003     0.0000  2914.0000     0.0000     0.1124     0.4154     0.0000     0.0000     0.0000     0.4722     0.0000
   4290.5000     7.2733     7.2939  1054.4131   107.1374     0.5336     6.2796     6.3174     0.0653     0.0835     0.0386     5.9038     0.2537     0.0000     0.0034    45.9914   -17.8670     0.6224   124.4535   124.7069    55.4666    54.3648   -14.2468   219.6285     0.5160   164.2575     2.7283     6.4606     6.5002     0.0000  2890.0000     0.0000     0.1497     0.3893     0.0000     0.0000     0.0000     0.4610     0.0000
   4291.0000     7.2664     7.3068  1059.3900   106.8079     0.5366     6.2832     6.3157     0.0644     0.0860     0.0380     3.6281     0.2526     0.0012     0.0030    45.2111   -17.8223     0.6235   122.8419   124.7135    55.4254    54.3583   -14.2147   219.6294     0.1309   164.2995     2.7291     6.4641     6.4982     0.0000  2901.0000     0.0000     0.1562     0.3810     0.0000     0.0000     0.0023     0.4604     0.0000
   4291.5000     7.2742     7.2914  1064.0116   106.5883     0.5328     6.2897     6.3167     0.0674     0.0796     0.0381     3.1526     0.2562     0.0113     0.0038    44.8209   -17.7776     0.6784   126.5257   124.7201    55.3984    54.3106   -14.1826   219.7467     0.0000   164.4432     2.7401     6.4712     6.4995     0.0000  2925.0000     0.0000     0.1391     0.4072     0.0000     0.0000     0.0212     0.4325     0.0000
   4292.0000     7.2647     7.2965  1054.4131   106.2589     0.5306     6.2856     6.3161     0.0675     0.0786     0.0375     5.6711     0.2579     0.0156     0.0041    44.8209   -17.7329     0.7570   128.8581   124.7268    55.3975    54.2869   -14.1505   219.7917     0.0729   164.4887     2.7438     6.4664     6.4985     0.0000  2898.0000     0.0000     0.1364     0.4081     0.0000     0.0000     0.0291     0.4263     0.0000
