~VERSION INFORMATION
VERS.           1.2   :CWLS Log ASCII Standard - VERSION 1.2
WRAP.           NO    :One Line per depth step
PROD.  Schlumberger   :LAS Producer
PROG.  DLIS to ASCII 17C0-152                          :LAS Program name and version
CREA.        2011/10/27 17:25                          :LAS Creation date {YYYY/MM/DD hh:mm}
DLIS_CREA.  2011-Oct-27 07:30                          :DLIS Creation date and time {YYYY-MMM-DD hh:mm}
SOURCE.     9895fb31-02c7-4189-bf8e-52df0b775dd1       :DLIS File Name
#--------------------------------------------------
~WELL INFORMATION
#MNEM.UNIT      DATA             DESCRIPTION
#---- ------ --------------   -----------------------------
STRT .F      3344.0000       :START DEPTH     
STOP .F      3862.5000       :STOP DEPTH     
STEP .F       0.5000         :STEP       
NULL .          -999.25      :NULL VALUE
COMP .                 COMPANY:  SWEPI LP                           
WELL .                    WELL:  Harper Hill 2-29                   
FLD  .                   FIELD:  Swan                               
LOC  .                LOCATION:                                     
CNTY .                  COUNTY:  Moffat                             
STAT .                   STATE:  Colorado                           
CTRY .                 COUNTRY:                                     
SRVC .         SERVICE COMPANY:  Schlumberger                       
API  .              API NUMBER:  05-0081-07659                      
DATE .                LOG DATE:  26-Oct-2011
UWI  .          UNIQUE WELL ID:                                     
#-----------------------------------------------------------------------------
~PARAMETER INFORMATION
#MNEM.UNIT    VALUE                      DESCRIPTION
#---- -----   --------------------       ------------------------
CN   .        SWEPI LP                   :Company Name
WN   .        Harper Hill 2-29           :Well Name
FN   .        Swan                       :Field Name
FL   .                                   :Field Location
FL1  .                                   :Field Location Line 1
COUN .        Moffat                     :County or Rig Name
STAT .        Colorado                   :State or Province
NATI .                                   :Nation
DATE .        26-Oct-2011                :Date as Month-Day-Year
APIN .        05-0081-07659              :API Serial Number
SECT .        29                         :Section
TOWN .        5N                         :Township
RANG .        90W                        :Range
DMF  .        Kelly Bushing              :Drilling Measured From
LMF  .        Kelly Bushing              :Log Measured From
PDAT .        Ground Level               :Permanent Datum
ENGI .        Mark Kast                  :Engineer's Name
WITN .        Tony                       :Witness's Name
LATI .                                   :Latitude
LONG .                                   :Longitude
LUL  .        Rock Springs               :Logging Unit Location
LUN  .              2271                 :Logging Unit Number
RUN  .        Two                        :Run Number
SON  .                                   :Service Order Number
BHT  .DEGF     127.00000                 :Bottom Hole Temperature (used in calculations)
BS   .IN         6.75000                 :Bit Size
DFD  .LB/G       7.90000                 :Drilling Fluid Density
DFV  .S         44.00000                 :Drilling Fluid Viscosity
DFL  .C3        16.60000                 :Drilling Fluid Loss
RMFS .                                   :Resistivity of Mud Filtrate Sample
EKB  .F       6597.00000                 :Elevation of Kelly Bushing
EGL  .F       6585.00000                 :Elevation of Ground Level
BLI  .                                   :Bottom Log Interval
BSAL .PPM     44500.00000                :Borehole Salinity
FLEV .                                   :Fluid Level
MCST .                                   :Mud Cake Sample Temperature
MFST .                                   :Mud Filtrate Sample Temperature
MRT  .DEGF     127.00000                 :Maximum Recorded Temperature
MST  .                                   :Mud Sample Temperature
RMCS .                                   :Resistivity of Mud Cake Sample
RMS  .                                   :Resistivity of Mud Sample
RW   .OHMM       1.00000                 :Resistivity of Connate Water
TDD  .F       4480.00000                 :Total Depth - Driller
TDL  .F       4482.00000                 :Total Depth - Logger
TLI  .                                   :Top Log Interval
HIDE .                                   :Header Identifier
MATR .        SAND                       :Rock Matrix for Neutron Porosity Corrections
DFT  .        OBM                        :Drilling Fluid Type
DFPH .                                   :Drilling Fluid PH
MCSS .        N/A                        :Mud Cake Sample Source
MFSS .        N/A                        :Mud Filtrate Sample Source
MSS  .        N/A                        :Mud Sample Source
OS1  .                                   :Other Services Line 1
OS2  .                                   :Other Services Line 2
OS3  .                                   :Other Services Line 3
OS4  .                                   :Other Services Line 4
OS5  .                                   :Other Services Line 5
R1   .                                   :Remark Line 1
R2   .                                   :Remark Line 2
R3   .                                   :Remark Line 3
R4   .                                   :Remark Line 4
R5   .                                   :Remark Line 5
R6   .                                   :Remark Line 6
R7   .                                   :Remark Line 7
R8   .                                   :Remark Line 8
TCS  .        20 00                      :Time Circulation Stopped
TLAB .                                   :Time Logger At Bottom
EPD  .F         6585.000000              :Elevation of Permanent Datum above Mean Sea Level
APD  .F          12.000000               :Elevation of Depth Reference (LMF) above Permanent Datum
#-----------------------------------------------------------------------------
~CURVE INFORMATION
#MNEM.UNIT   API CODE                                  DESCRIPTION
#---- -----  --------                                  -----------------------
DEPT .F                                                :DEPTH (BOREHOLE) {F12.4}
C1_OBMT.IN                                             :OBMT Caliper 1 {F11.4}
C2_OBMT.IN                                             :OBMT Caliper 2 {F11.4}
CDF  .LBF                                              :Calibrated Downhole Force {F11.4}
CTEM .DEGF                                             :Cartridge Temperature {F11.4}
DCAL .IN                                               :Differential Caliper {F11.4}
DEVI .DEG                                              :Hole Deviation {F11.4}
DEVIM.DEG                                              :Memorized Deviation {F11.4}
DWAL_WALK2.                                            :Dry Weight Fraction Pseudo Aluminum (SpectroLith WALK2 Model) {F11.4}
DWCA_WALK2.                                            :Dry Weight Fraction Calcium (SpectroLith WALK2 Model) {F11.4}
DWFE_WALK2.                                            :Dry Weight Fraction Iron + 0.14 Aluminum (SpectroLith WALK2 Model) {F11.4}
DWGD_WALK2.PPM                                         :Dry Weight Fraction Gadolinium (SpectroLith WALK2 Model) {F11.4}
DWSI_WALK2.                                            :Dry Weight Fraction Silicon (SpectroLith WALK2 Model) {F11.4}
DWSU_WALK2.                                            :Dry Weight Fraction Sulfur (SpectroLith WALK2 Model) {F11.4}
DWTI_WALK2.                                            :Dry Weight Fraction Titanium (SpectroLith WALK2 Model) {F11.4}
ECST .DEGF                                             :ECS Temperature {F11.4}
ED   .F                                                :East Departure {F11.4}
ESUF_WALK2.                                            :Elemental Statistical Uncertainty Factor (SpectroLith WALK2 Model) {F11.4}
GR_EDTC.GAPI                                           :EDTC Gamma Ray {F11.4}
GTEM .DEGF                                             :Generalized Borehole Temperature {F11.4}
HAZI .DEG                                              :Hole Azimuth {F11.4}
HAZIM.DEG                                              :Hole Azimuth {F11.4}
ND   .F                                                :North Departure {F11.4}
P1AZ .DEG                                              :Pad 1 Azimuth {F11.4}
QCPMT.                                                 :Photomultiplier Tube Quality Control {F11.4}
RB   .DEG                                              :Relative Bearing {F11.4}
RHGE_WALK2.G/C3                                        :Matrix Density from Elemental Concentrations (SpectroLith WALK2 Model) {F11.4}
SDEV .DEG                                              :Sonde Deviation {F11.4}
SDEVM.DEG                                              :Sonde Deviation {F11.4}
STIT .F                                                :Stuck Tool Indicator, Total {F11.4}
TENS .LBF                                              :Cable Tension {F11.4}
WANH_WALK2.                                            :Dry Weight Fraction Anhydrite/Gypsum (SpectroLith WALK2 Model) {F11.4}
WCAR_WALK2.                                            :Dry Weight Fraction Carbonate (SpectroLith WALK2 Model) {F11.4}
WCLA_WALK2.                                            :Dry Weight Fraction Clay (SpectroLith WALK2 Model) {F11.4}
WCOA_WALK2.                                            :Dry Weight Fraction Coal (SpectroLith WALK2 Model) {F11.4}
WEVA_WALK2.                                            :Dry Weight Fraction Salt (SpectroLith WALK2 Model) {F11.4}
WPYR_WALK2.                                            :Dry Weight Fraction Pyrite (SpectroLith WALK2 Model) {F11.4}
WQFM_WALK2.                                            :Dry Weight Fraction Quartz+Feldspar+Mica (QFM) (SpectroLith WALK2 Model) {F11.4}
WSID_WALK2.                                            :Dry Weight Fraction Siderite (SpectroLith WALK2 Model) {F11.4}
#-----------------------------------------------------------------------------
# 
#      DEPT      C1_OBMT    C2_OBMT      CDF        CTEM       DCAL       DEVI      DEVIM    DWAL_WALK2 DWCA_WALK2 DWFE_WALK2 DWGD_WALK2 DWSI_WALK2 DWSU_WALK2 DWTI_WALK2    ECST        ED     ESUF_WALK2  GR_EDTC      GTEM       HAZI      HAZIM        ND        P1AZ      QCPMT        RB     RHGE_WALK2    SDEV      SDEVM       STIT       TENS    WANH_WALK2 WCAR_WALK2 WCLA_WALK2 WCOA_WALK2 WEVA_WALK2 WPYR_WALK2 WQFM_WALK2 WSID_WALK2
#
~A  
# ...
   3515.0000     7.2412     7.2509   937.8090   124.0472     0.4960     6.6491     5.6742     0.0702     0.1118     0.0383     2.6395     0.2151     0.0269     0.0022    48.3325   -17.7796     0.6427   151.4184   114.4573   189.5995   184.0167    13.3668    16.0672     0.0715   186.4219     2.7643     6.8467     5.8243     0.0000  2207.0000     0.0000     0.2256     0.4318     0.0000     0.0000     0.0503     0.2922     0.0000
   3515.5000     7.2491     7.2475  1049.4360   124.0472     0.4983     6.6211     5.6491     0.0704     0.0987     0.0373     4.0504     0.2309     0.0366     0.0018    48.3325   -17.7830     0.6618   154.5103   114.4639   189.4672   183.8881    13.3176    15.1958     0.0000   185.6884     2.7717     6.8177     5.7984     0.0000  2440.0000     0.0000     0.1905     0.4342     0.0000     0.0000     0.0684     0.3069     0.0000
   3516.0000     7.2404     7.2604  1049.4360   124.0472     0.5004     6.5915     5.6202     0.0714     0.0767     0.0375     3.8853     0.2552     0.0390     0.0018    48.3325   -17.7863     0.6995   158.8962   114.4705   189.3372   183.7054    13.2686    15.8114     0.0000   186.4293     2.7713     6.7862     5.7678     0.0000  2363.0000     0.0000     0.1313     0.4428     0.0000     0.0000     0.0730     0.3529     0.0000
   3516.5000     7.2404     7.2518   932.8320   124.0472     0.4961     6.5733     5.5917     0.0712     0.0608     0.0388     2.8476     0.2729     0.0292     0.0017    48.3325   -17.7893     0.7519   151.3025   114.4771   189.2011   183.5239    13.2198    15.9090     0.1867   186.6616     2.7594     6.7671     5.7379     0.0000  2141.0000     0.0000     0.0885     0.4408     0.0000     0.0000     0.0546     0.4161     0.0000
   3517.0000     7.2568     7.2591   966.9600   124.0472     0.5080     6.5435     5.5700     0.0697     0.0507     0.0393     4.5075     0.2860     0.0169     0.0024    50.6736   -17.7922     0.8050   156.6377   114.4837   189.0628   183.3545    13.1713    15.7746     0.0000   186.6658     2.7441     6.7366     5.7159     0.0000  2321.0000     0.0000     0.0613     0.4278     0.0000     0.0000     0.0316     0.4793     0.0000
   3517.5000     7.2273     7.2578  1054.4131   124.0472     0.4925     6.5155     5.5437     0.0644     0.0701     0.0374     7.5553     0.2717     0.0065     0.0025    50.6736   -17.7950     0.7970   159.5191   114.4903   188.9225   183.1249    13.1230    15.7335     0.1947   186.7649     2.7316     6.7057     5.6872     0.0000  2435.0000     0.0000     0.1134     0.3806     0.0000     0.0000     0.0122     0.4937     0.0000
   3518.0000     7.2308     7.2268   966.9600   124.0472     0.4788     6.4948     5.5177     0.0588     0.0892     0.0341     8.7995     0.2594     0.0071     0.0021    48.3325   -17.7975     0.7290   162.8292   114.4969   188.7625   182.9342    13.0748    15.6885     0.1604   186.8793     2.7294     6.6842     5.6601     0.0000  2259.0000     0.0000     0.1649     0.3314     0.0000     0.0000     0.0133     0.4904     0.0000
   3518.5000     7.2387     7.2243   961.9830   124.0472     0.4815     6.4681     5.4922     0.0554     0.1071     0.0321     8.2163     0.2446     0.0093     0.0012    48.3325   -17.7999     0.6934   154.7934   114.5035   188.6746   182.6905    13.0269    15.6646     0.2149   186.9434     2.7314     6.6566     5.6337     0.0000  2263.0000     0.0000     0.2130     0.3017     0.0000     0.0000     0.0175     0.4678     0.0000
   3519.0000     7.2404     7.2320  1039.8375   124.0472     0.4862     6.4439     5.4632     0.0541     0.1089     0.0315     6.6968     0.2445     0.0080     0.0009    48.3325   -17.8021     0.6727   152.7948   114.5101   188.5525   182.5363    12.9792    15.3464     0.0923   186.7488     2.7292     6.6313     5.6035     0.0000  2429.0000     0.0000     0.2181     0.2902     0.0000     0.0000     0.0150     0.4768     0.0000
   3519.5000     7.2326     7.2466   986.5125   124.0472     0.4896     6.4255     5.4392     0.0535     0.1084     0.0312     6.5978     0.2462     0.0069     0.0013    48.9178   -17.8041     0.6690   149.2901   114.5167   188.3911   182.3355    12.9318    15.2074     0.0000   186.7713     2.7271     6.6116     5.5780     0.0000  2288.0000     0.0000     0.2165     0.2849     0.0000     0.0000     0.0129     0.4856     0.0000
   3520.0000     7.2256     7.2526   932.8320   124.0472     0.4891     6.3842     5.4158     0.0561     0.1037     0.0325     7.0968     0.2472     0.0051     0.0026    49.5030   -17.8059     0.6778   146.1511   114.5233   188.2745   182.1276    12.8845    15.1608     0.2939   186.8415     2.7266     6.5679     5.5533     0.0000  2212.0000     0.0000     0.2040     0.3077     0.0000     0.0000     0.0095     0.4788     0.0000
   3520.5000     7.2286     7.2552  1049.4360   124.0472     0.4919     6.3674     5.3896     0.0599     0.1008     0.0341     8.3764     0.2444     0.0076     0.0038    48.9178   -17.8076     0.7511   139.1626   114.5300   188.1666   181.9205    12.8375    14.7137     0.1328   186.5047     2.7318     6.5504     5.5260     0.0000  2445.0000     0.0000     0.1963     0.3419     0.0000     0.0000     0.0141     0.4477     0.0000
   3521.0000     7.2768     7.2828  1020.2850   124.0472     0.5298     6.3559     5.3624     0.0644     0.0963     0.0359     7.2243     0.2424     0.0112     0.0049    48.3325   -17.8091     0.7864   132.4152   114.5366   188.0721   181.7228    12.7907    14.6525     0.1258   186.5380     2.7387     6.5408     5.4994     0.0000  2328.0000     0.0000     0.1842     0.3813     0.0000     0.0000     0.0210     0.4135     0.0000
   3521.5000     7.2803     7.2656   932.8320   124.0472     0.5229     6.3037     5.3362     0.0624     0.1059     0.0340     7.3319     0.2355     0.0169     0.0047    48.3325   -17.8104     0.7931   136.9698   114.5432   187.8657   181.5443    12.7441    14.6674     0.1161   186.7585     2.7435     6.4861     5.4721     0.0000  2165.0000     0.0000     0.2099     0.3635     0.0000     0.0000     0.0317     0.3950     0.0000
   3522.0000     7.2751     7.2630  1001.0880   124.0472     0.5190     6.2780     5.3033     0.0582     0.1210     0.0312     5.3112     0.2257     0.0218     0.0035    48.3325   -17.8116     0.7582   135.3890   114.5498   187.7530   181.3422    12.6977    14.4185     0.2585   186.6236     2.7467     6.4589     5.4375     0.0000  2368.0000     0.0000     0.2505     0.3262     0.0000     0.0000     0.0408     0.3825     0.0000
   3522.5000     7.2352     7.2630  1044.8146   124.0472     0.4991     6.2559     5.3016     0.0571     0.1357     0.0308     6.1771     0.2102     0.0219     0.0026    48.3325   -17.8126     0.7272   141.1628   114.5564   187.6200   181.1551    12.6515    13.9285     0.1837   186.2691     2.7488     6.4338     5.4343     0.0000  2411.0000     0.0000     0.2899     0.3171     0.0000     0.0000     0.0410     0.3519     0.0000
   3523.0000     7.2949     7.3274   952.3845   124.0472     0.5612     6.2293     5.2614     0.0627     0.1279     0.0338     3.7199     0.2097     0.0246     0.0027    48.3325   -17.8134     0.7180   138.4368   114.5630   187.5464   180.9339    12.6055    14.0269     0.1988   186.4404     2.7561     6.4087     5.3944     0.0000  2214.0000     0.0000     0.2689     0.3657     0.0000     0.0000     0.0460     0.3194     0.0000
   3523.5000     7.3158     7.3516   991.1340   124.0472     0.5837     6.1921     5.2209     0.0680     0.1236     0.0369     4.8463     0.2053     0.0248     0.0031    48.3325   -17.8141     0.7162   138.8094   114.5696   187.3269   180.7482    12.5598    13.9617     0.0000   186.5942     2.7612     6.3708     5.3527     0.0000  2362.0000     0.0000     0.2576     0.4123     0.0000     0.0000     0.0464     0.2837     0.0000
   3524.0000     7.3210     7.3318  1020.2850   124.0472     0.5764     6.1675     5.2128     0.0699     0.1190     0.0376     3.3388     0.2077     0.0280     0.0032    48.3325   -17.8146     0.7257   134.6966   114.5762   187.1772   180.5348    12.5144    13.5474     0.0000   186.3315     2.7656     6.3451     5.3444     0.0000  2373.0000     0.0000     0.2450     0.4294     0.0000     0.0000     0.0524     0.2732     0.0000
