~VERSION INFORMATION
VERS.           1.2   :CWLS Log ASCII Standard - VERSION 1.2
WRAP.           NO    :One Line per depth step
PROD.  Schlumberger   :LAS Producer
PROG.  DLIS to ASCII 17C0-152                          :LAS Program name and version
CREA.        2011/10/27 17:25                          :LAS Creation date {YYYY/MM/DD hh:mm}
DLIS_CREA.  2011-Oct-27 07:30                          :DLIS Creation date and time {YYYY-MMM-DD hh:mm}
SOURCE.     9895fb31-02c7-4189-bf8e-52df0b775dd1       :DLIS File Name
#--------------------------------------------------
~WELL INFORMATION
#MNEM.UNIT      DATA             DESCRIPTION
#---- ------ --------------   -----------------------------
STRT .F      3344.0000       :START DEPTH     
STOP .F      3862.5000       :STOP DEPTH     
STEP .F       0.5000         :STEP       
NULL .          -999.25      :NULL VALUE
COMP .                 COMPANY:  SWEPI LP                           
WELL .                    WELL:  Harper Hill 2-29                   
FLD  .                   FIELD:  Swan                               
LOC  .                LOCATION:                                     
CNTY .                  COUNTY:  Moffat                             
STAT .                   STATE:  Colorado                           
CTRY .                 COUNTRY:                                     
SRVC .         SERVICE COMPANY:  Schlumberger                       
API  .              API NUMBER:  05-0081-07659                      
DATE .                LOG DATE:  26-Oct-2011
UWI  .          UNIQUE WELL ID:                                     
#-----------------------------------------------------------------------------
~PARAMETER INFORMATION
#MNEM.UNIT    VALUE                      DESCRIPTION
#---- -----   --------------------       ------------------------
CN   .        SWEPI LP                   :Company Name
WN   .        Harper Hill 2-29           :Well Name
FN   .        Swan                       :Field Name
FL   .                                   :Field Location
FL1  .                                   :Field Location Line 1
COUN .        Moffat                     :County or Rig Name
STAT .        Colorado                   :State or Province
NATI .                                   :Nation
DATE .        26-Oct-2011                :Date as Month-Day-Year
APIN .        05-0081-07659              :API Serial Number
SECT .        29                         :Section
TOWN .        5N                         :Township
RANG .        90W                        :Range
DMF  .        Kelly Bushing              :Drilling Measured From
LMF  .        Kelly Bushing              :Log Measured From
PDAT .        Ground Level               :Permanent Datum
ENGI .        Mark Kast                  :Engineer's Name
WITN .        Tony                       :Witness's Name
LATI .                                   :Latitude
LONG .                                   :Longitude
LUL  .        Rock Springs               :Logging Unit Location
LUN  .              2271                 :Logging Unit Number
RUN  .        Two                        :Run Number
SON  .                                   :Service Order Number
BHT  .DEGF     127.00000                 :Bottom Hole Temperature (used in calculations)
BS   .IN         6.75000                 :Bit Size
DFD  .LB/G       7.90000                 :Drilling Fluid Density
DFV  .S         44.00000                 :Drilling Fluid Viscosity
DFL  .C3        16.60000                 :Drilling Fluid Loss
RMFS .                                   :Resistivity of Mud Filtrate Sample
EKB  .F       6597.00000                 :Elevation of Kelly Bushing
EGL  .F       6585.00000                 :Elevation of Ground Level
BLI  .                                   :Bottom Log Interval
BSAL .PPM     44500.00000                :Borehole Salinity
FLEV .                                   :Fluid Level
MCST .                                   :Mud Cake Sample Temperature
MFST .                                   :Mud Filtrate Sample Temperature
MRT  .DEGF     127.00000                 :Maximum Recorded Temperature
MST  .                                   :Mud Sample Temperature
RMCS .                                   :Resistivity of Mud Cake Sample
RMS  .                                   :Resistivity of Mud Sample
RW   .OHMM       1.00000                 :Resistivity of Connate Water
TDD  .F       4480.00000                 :Total Depth - Driller
TDL  .F       4482.00000                 :Total Depth - Logger
TLI  .                                   :Top Log Interval
HIDE .                                   :Header Identifier
MATR .        SAND                       :Rock Matrix for Neutron Porosity Corrections
DFT  .        OBM                        :Drilling Fluid Type
DFPH .                                   :Drilling Fluid PH
MCSS .        N/A                        :Mud Cake Sample Source
MFSS .        N/A                        :Mud Filtrate Sample Source
MSS  .        N/A                        :Mud Sample Source
OS1  .                                   :Other Services Line 1
OS2  .                                   :Other Services Line 2
OS3  .                                   :Other Services Line 3
OS4  .                                   :Other Services Line 4
OS5  .                                   :Other Services Line 5
R1   .                                   :Remark Line 1
R2   .                                   :Remark Line 2
R3   .                                   :Remark Line 3
R4   .                                   :Remark Line 4
R5   .                                   :Remark Line 5
R6   .                                   :Remark Line 6
R7   .                                   :Remark Line 7
R8   .                                   :Remark Line 8
TCS  .        20 00                      :Time Circulation Stopped
TLAB .                                   :Time Logger At Bottom
EPD  .F         6585.000000              :Elevation of Permanent Datum above Mean Sea Level
APD  .F          12.000000               :Elevation of Depth Reference (LMF) above Permanent Datum
#-----------------------------------------------------------------------------
~CURVE INFORMATION
#MNEM.UNIT   API CODE                                  DESCRIPTION
#---- -----  --------                                  -----------------------
DEPT .F                                                :DEPTH (BOREHOLE) {F12.4}
C1_OBMT.IN                                             :OBMT Caliper 1 {F11.4}
C2_OBMT.IN                                             :OBMT Caliper 2 {F11.4}
CDF  .LBF                                              :Calibrated Downhole Force {F11.4}
CTEM .DEGF                                             :Cartridge Temperature {F11.4}
DCAL .IN                                               :Differential Caliper {F11.4}
DEVI .DEG                                              :Hole Deviation {F11.4}
DEVIM.DEG                                              :Memorized Deviation {F11.4}
DWAL_WALK2.                                            :Dry Weight Fraction Pseudo Aluminum (SpectroLith WALK2 Model) {F11.4}
DWCA_WALK2.                                            :Dry Weight Fraction Calcium (SpectroLith WALK2 Model) {F11.4}
DWFE_WALK2.                                            :Dry Weight Fraction Iron + 0.14 Aluminum (SpectroLith WALK2 Model) {F11.4}
DWGD_WALK2.PPM                                         :Dry Weight Fraction Gadolinium (SpectroLith WALK2 Model) {F11.4}
DWSI_WALK2.                                            :Dry Weight Fraction Silicon (SpectroLith WALK2 Model) {F11.4}
DWSU_WALK2.                                            :Dry Weight Fraction Sulfur (SpectroLith WALK2 Model) {F11.4}
DWTI_WALK2.                                            :Dry Weight Fraction Titanium (SpectroLith WALK2 Model) {F11.4}
ECST .DEGF                                             :ECS Temperature {F11.4}
ED   .F                                                :East Departure {F11.4}
ESUF_WALK2.                                            :Elemental Statistical Uncertainty Factor (SpectroLith WALK2 Model) {F11.4}
GR_EDTC.GAPI                                           :EDTC Gamma Ray {F11.4}
GTEM .DEGF                                             :Generalized Borehole Temperature {F11.4}
HAZI .DEG                                              :Hole Azimuth {F11.4}
HAZIM.DEG                                              :Hole Azimuth {F11.4}
ND   .F                                                :North Departure {F11.4}
P1AZ .DEG                                              :Pad 1 Azimuth {F11.4}
QCPMT.                                                 :Photomultiplier Tube Quality Control {F11.4}
RB   .DEG                                              :Relative Bearing {F11.4}
RHGE_WALK2.G/C3                                        :Matrix Density from Elemental Concentrations (SpectroLith WALK2 Model) {F11.4}
SDEV .DEG                                              :Sonde Deviation {F11.4}
SDEVM.DEG                                              :Sonde Deviation {F11.4}
STIT .F                                                :Stuck Tool Indicator, Total {F11.4}
TENS .LBF                                              :Cable Tension {F11.4}
WANH_WALK2.                                            :Dry Weight Fraction Anhydrite/Gypsum (SpectroLith WALK2 Model) {F11.4}
WCAR_WALK2.                                            :Dry Weight Fraction Carbonate (SpectroLith WALK2 Model) {F11.4}
WCLA_WALK2.                                            :Dry Weight Fraction Clay (SpectroLith WALK2 Model) {F11.4}
WCOA_WALK2.                                            :Dry Weight Fraction Coal (SpectroLith WALK2 Model) {F11.4}
WEVA_WALK2.                                            :Dry Weight Fraction Salt (SpectroLith WALK2 Model) {F11.4}
WPYR_WALK2.                                            :Dry Weight Fraction Pyrite (SpectroLith WALK2 Model) {F11.4}
WQFM_WALK2.                                            :Dry Weight Fraction Quartz+Feldspar+Mica (QFM) (SpectroLith WALK2 Model) {F11.4}
WSID_WALK2.                                            :Dry Weight Fraction Siderite (SpectroLith WALK2 Model) {F11.4}
#-----------------------------------------------------------------------------
# 
#      DEPT      C1_OBMT    C2_OBMT      CDF        CTEM       DCAL       DEVI      DEVIM    DWAL_WALK2 DWCA_WALK2 DWFE_WALK2 DWGD_WALK2 DWSI_WALK2 DWSU_WALK2 DWTI_WALK2    ECST        ED     ESUF_WALK2  GR_EDTC      GTEM       HAZI      HAZIM        ND        P1AZ      QCPMT        RB     RHGE_WALK2    SDEV      SDEVM       STIT       TENS    WANH_WALK2 WCAR_WALK2 WCLA_WALK2 WCOA_WALK2 WEVA_WALK2 WPYR_WALK2 WQFM_WALK2 WSID_WALK2
#
~A  
# ...
   3648.0000     7.1571     7.1830  1088.5410   122.0707     0.4200     3.7442     3.7526     0.0318     0.1928     0.0189     5.0702     0.1857     0.0000     0.0014    48.3325   -15.2337     0.5607   124.4420   116.2151   157.7675   157.5449     4.4269   352.4734     0.6181   194.6747     2.7106     3.8119     3.8206     0.0000  2549.0000     0.0000     0.4436     0.0948     0.0000     0.0000     0.0000     0.4616     0.0000
   3648.5000     7.1571     7.1830   996.1110   122.0707     0.4200     3.7450     3.7538     0.0315     0.2045     0.0187     3.8522     0.1726     0.0000     0.0014    48.3325   -15.2212     0.5608   128.2174   116.2217   157.8517   157.5130     4.3967   352.6863     0.2507   194.8031     2.7122     3.8127     3.8218     0.0000  2389.0000     0.0000     0.4751     0.0919     0.0000     0.0000     0.0000     0.4330     0.0000
   3649.0000     7.1571     7.1813  1015.6635   122.0707     0.4192     3.7455     3.7571     0.0314     0.2101     0.0186     0.2835     0.1663     0.0000     0.0014    48.3325   -15.2087     0.5815   132.5972   116.2283   157.9312   157.4840     4.3664   352.7892     0.7710   194.8264     2.7130     3.8132     3.8252     0.0000  2489.0000     0.0000     0.4902     0.0907     0.0000     0.0000     0.0000     0.4191     0.0000
   3649.5000     7.1571     7.1830  1088.5410   122.0707     0.4200     3.7446     3.7515     0.0327     0.2232     0.0192     0.8955     0.1490     0.0015     0.0014    48.3325   -15.1961     0.5629   127.8129   116.2349   157.9218   157.4660     4.3362   353.3245     1.0078   195.3702     2.7181     3.8123     3.8194     0.0000  2566.0000     0.0000     0.5253     0.1021     0.0000     0.0000     0.0028     0.3698     0.0000
   3650.0000     7.1554     7.1813  1005.7095   122.0707     0.4183     3.7462     3.7533     0.0361     0.2182     0.0206     2.5138     0.1492     0.0065     0.0015    48.3325   -15.1836     0.5590   134.5426   116.2415   157.9104   157.4426     4.3059   353.3929     0.1237   195.4497     2.7257     3.8139     3.8212     0.0000  2402.0000     0.0000     0.5120     0.1327     0.0000     0.0000     0.0122     0.3431     0.0000
   3650.5000     7.1571     7.1778  1039.8375   122.0707     0.4175     3.7451     3.7564     0.0424     0.2128     0.0232     4.8715     0.1454     0.0146     0.0018    48.3325   -15.1710     0.5743   136.4150   116.2481   157.9323   157.3909     4.2757   353.3873     0.0000   195.4225     2.7391     3.8128     3.8245     0.0000  2555.0000     0.0000     0.4973     0.1878     0.0000     0.0000     0.0273     0.2876     0.0000
   3651.0000     7.1571     7.1795  1088.5410   122.0707     0.4183     3.7453     3.7523     0.0468     0.1908     0.0257     6.5762     0.1633     0.0145     0.0022    48.3325   -15.1584     0.5819   143.0323   116.2548   157.9333   157.3862     4.2455   353.3595     0.0000   195.3936     2.7399     3.8129     3.8202     0.0000  2538.0000     0.0000     0.4383     0.2261     0.0000     0.0000     0.0271     0.3086     0.0000
   3651.5000     7.1571     7.1761  1030.2390   122.0707     0.4166     3.7462     3.7552     0.0475     0.1845     0.0264     8.2899     0.1692     0.0111     0.0026    48.3325   -15.1458     0.6058   137.8405   116.2614   157.9224   157.3638     4.2153   353.5134     0.0983   195.5582     2.7362     3.8139     3.8233     0.0000  2473.0000     0.0000     0.4212     0.2321     0.0000     0.0000     0.0207     0.3259     0.0000
   3652.0000     7.1571     7.1778  1078.5870   122.0707     0.4175     3.7453     3.7509     0.0464     0.1784     0.0266    10.7620     0.1774     0.0045     0.0028    48.3325   -15.1332     0.6509   139.1035   116.2680   157.9192   157.3578     4.1851   353.7510     0.6617   195.7985     2.7277     3.8130     3.8187     0.0000  2599.0000     0.0000     0.4049     0.2227     0.0000     0.0000     0.0085     0.3639     0.0000
   3652.5000     7.1571     7.1795  1059.3900   122.0707     0.4183     3.7458     3.7532     0.0461     0.1797     0.0260    10.8845     0.1768     0.0072     0.0030    48.3325   -15.1206     0.6372   134.1346   116.2746   157.9305   157.3266     4.1549   354.6267     0.7639   196.6614     2.7299     3.8135     3.8212     0.0000  2458.0000     0.0000     0.4085     0.2198     0.0000     0.0000     0.0135     0.3582     0.0000
   3653.0000     7.1545     7.1753   991.1340   122.0707     0.4149     3.7476     3.7572     0.0468     0.1698     0.0264     8.1074     0.1871     0.0069     0.0030    48.3325   -15.1080     0.6057   131.3864   116.2812   157.9173   157.3174     4.1247   354.6150     0.2202   196.6628     2.7287     3.8154     3.8252     0.0000  2449.0000     0.0000     0.3819     0.2260     0.0000     0.0000     0.0130     0.3791     0.0000
   3653.5000     7.1545     7.1753  1068.9885   122.1870     0.4149     3.7430     3.7547     0.0461     0.1592     0.0262     6.2669     0.2005     0.0057     0.0029    47.1620   -15.0954     0.6419   129.7367   116.2878   157.9422   157.2807     4.0944   353.7615     0.0000   195.7860     2.7251     3.8106     3.8226     0.0000  2554.0000     0.0000     0.3532     0.2203     0.0000     0.0000     0.0107     0.4158     0.0000
   3654.0000     7.1537     7.1761  1010.6865   122.0707     0.4149     3.7465     3.7545     0.0446     0.1599     0.0263     6.3798     0.2015     0.0014     0.0020    47.1620   -15.0827     0.6622   134.8888   116.2944   157.9258   157.2558     4.0642   353.7666     0.0966   195.8074     2.7203     3.8141     3.8224     0.0000  2381.0000     0.0000     0.3550     0.2074     0.0000     0.0000     0.0026     0.4350     0.0000
   3654.5000     7.1571     7.1761  1025.2621   122.0707     0.4166     3.7515     3.7519     0.0469     0.1667     0.0275     9.8983     0.1896     0.0054     0.0010    48.3325   -15.0701     0.6457   139.8357   116.3010   157.9356   157.2787     4.0341   353.7564     0.1509   195.7874     2.7285     3.8194     3.8198     0.0000  2512.0000     0.0000     0.3735     0.2273     0.0000     0.0000     0.0102     0.3890     0.0000
   3655.0000     7.1571     7.1778  1073.9656   122.0707     0.4175     3.7465     3.7574     0.0523     0.1729     0.0302    11.6249     0.1732     0.0096     0.0010    48.3325   -15.0574     0.6469   137.9817   116.3076   157.9085   157.2057     4.0039   353.3948     0.2658   195.4536     2.7395     3.8143     3.8255     0.0000  2536.0000     0.0000     0.3901     0.2748     0.0000     0.0000     0.0179     0.3173     0.0000
   3655.5000     7.1554     7.1778  1001.0880   122.0707     0.4166     3.7486     3.7567     0.0561     0.1713     0.0315    11.9766     0.1692     0.0144     0.0019    48.3325   -15.0447     0.6676   130.4665   116.3142   157.9095   157.2003     3.9737   353.1621     0.0788   195.2203     2.7473     3.8164     3.8248     0.0000  2360.0000     0.0000     0.3858     0.3083     0.0000     0.0000     0.0269     0.2790     0.0000
   3656.0000     7.1528     7.1735  1039.8375   122.0707     0.4131     3.7502     3.7552     0.0566     0.1649     0.0317    10.1560     0.1760     0.0120     0.0031    48.3325   -15.0320     0.6346   133.2147   116.3208   157.9281   157.1828     3.9435   352.9219     0.4632   194.9621     2.7436     3.8180     3.8232     0.0000  2527.0000     0.0000     0.3684     0.3121     0.0000     0.0000     0.0225     0.2970     0.0000
   3656.5000     7.1554     7.1778  1054.4131   122.0707     0.4166     3.7486     3.7597     0.0545     0.1598     0.0306     8.1808     0.1855     0.0095     0.0035    48.3325   -15.0193     0.6414   137.6349   116.3274   157.9138   157.1770     3.9133   352.6870     0.2863   194.7419     2.7377     3.8163     3.8278     0.0000  2483.0000     0.0000     0.3549     0.2938     0.0000     0.0000     0.0178     0.3335     0.0000
   3657.0000     7.1510     7.1761   976.5585   122.0707     0.4136     3.7501     3.7574     0.0572     0.1427     0.0322     3.7062     0.2007     0.0074     0.0045    48.3325   -15.0066     0.7206   147.8995   116.3341   157.8297   157.1980     3.8831   352.6924     0.2162   194.8313     2.7352     3.8178     3.8254     0.0000  2365.0000     0.0000     0.3088     0.3177     0.0000     0.0000     0.0139     0.3597     0.0000
