~VERSION INFORMATION
VERS.           1.2   :CWLS Log ASCII Standard - VERSION 1.2
WRAP.           NO    :One Line per depth step
PROD.  Schlumberger   :LAS Producer
PROG.  DLIS to ASCII 17C0-152                          :LAS Program name and version
CREA.        2011/10/27 17:25                          :LAS Creation date {YYYY/MM/DD hh:mm}
DLIS_CREA.  2011-Oct-27 07:30                          :DLIS Creation date and time {YYYY-MMM-DD hh:mm}
SOURCE.     9895fb31-02c7-4189-bf8e-52df0b775dd1       :DLIS File Name
#--------------------------------------------------
~WELL INFORMATION
#MNEM.UNIT      DATA             DESCRIPTION
#---- ------ --------------   -----------------------------
STRT .F      3344.0000       :START DEPTH     
STOP .F      3862.5000       :STOP DEPTH     
STEP .F       0.5000         :STEP       
NULL .          -999.25      :NULL VALUE
COMP .                 COMPANY:  SWEPI LP                           
WELL .                    WELL:  Harper Hill 2-29                   
FLD  .                   FIELD:  Swan                               
LOC  .                LOCATION:                                     
CNTY .                  COUNTY:  Moffat                             
STAT .                   STATE:  Colorado                           
CTRY .                 COUNTRY:                                     
SRVC .         SERVICE COMPANY:  Schlumberger                       
API  .              API NUMBER:  05-0081-07659                      
DATE .                LOG DATE:  26-Oct-2011
UWI  .          UNIQUE WELL ID:                                     
#-----------------------------------------------------------------------------
~PARAMETER INFORMATION
#MNEM.UNIT    VALUE                      DESCRIPTION
#---- -----   --------------------       ------------------------
CN   .        SWEPI LP                   :Company Name
WN   .        Harper Hill 2-29           :Well Name
FN   .        Swan                       :Field Name
FL   .                                   :Field Location
FL1  .                                   :Field Location Line 1
COUN .        Moffat                     :County or Rig Name
STAT .        Colorado                   :State or Province
NATI .                                   :Nation
DATE .        26-Oct-2011                :Date as Month-Day-Year
APIN .        05-0081-07659              :API Serial Number
SECT .        29                         :Section
TOWN .        5N                         :Township
RANG .        90W                        :Range
DMF  .        Kelly Bushing              :Drilling Measured From
LMF  .        Kelly Bushing              :Log Measured From
PDAT .        Ground Level               :Permanent Datum
ENGI .        Mark Kast                  :Engineer's Name
WITN .        Tony                       :Witness's Name
LATI .                                   :Latitude
LONG .                                   :Longitude
LUL  .        Rock Springs               :Logging Unit Location
LUN  .              2271                 :Logging Unit Number
RUN  .        Two                        :Run Number
SON  .                                   :Service Order Number
BHT  .DEGF     127.00000                 :Bottom Hole Temperature (used in calculations)
BS   .IN         6.75000                 :Bit Size
DFD  .LB/G       7.90000                 :Drilling Fluid Density
DFV  .S         44.00000                 :Drilling Fluid Viscosity
DFL  .C3        16.60000                 :Drilling Fluid Loss
RMFS .                                   :Resistivity of Mud Filtrate Sample
EKB  .F       6597.00000                 :Elevation of Kelly Bushing
EGL  .F       6585.00000                 :Elevation of Ground Level
BLI  .                                   :Bottom Log Interval
BSAL .PPM     44500.00000                :Borehole Salinity
FLEV .                                   :Fluid Level
MCST .                                   :Mud Cake Sample Temperature
MFST .                                   :Mud Filtrate Sample Temperature
MRT  .DEGF     127.00000                 :Maximum Recorded Temperature
MST  .                                   :Mud Sample Temperature
RMCS .                                   :Resistivity of Mud Cake Sample
RMS  .                                   :Resistivity of Mud Sample
RW   .OHMM       1.00000                 :Resistivity of Connate Water
TDD  .F       4480.00000                 :Total Depth - Driller
TDL  .F       4482.00000                 :Total Depth - Logger
TLI  .                                   :Top Log Interval
HIDE .                                   :Header Identifier
MATR .        SAND                       :Rock Matrix for Neutron Porosity Corrections
DFT  .        OBM                        :Drilling Fluid Type
DFPH .                                   :Drilling Fluid PH
MCSS .        N/A                        :Mud Cake Sample Source
MFSS .        N/A                        :Mud Filtrate Sample Source
MSS  .        N/A                        :Mud Sample Source
OS1  .                                   :Other Services Line 1
OS2  .                                   :Other Services Line 2
OS3  .                                   :Other Services Line 3
OS4  .                                   :Other Services Line 4
OS5  .                                   :Other Services Line 5
R1   .                                   :Remark Line 1
R2   .                                   :Remark Line 2
R3   .                                   :Remark Line 3
R4   .                                   :Remark Line 4
R5   .                                   :Remark Line 5
R6   .                                   :Remark Line 6
R7   .                                   :Remark Line 7
R8   .                                   :Remark Line 8
TCS  .        20 00                      :Time Circulation Stopped
TLAB .                                   :Time Logger At Bottom
EPD  .F         6585.000000              :Elevation of Permanent Datum above Mean Sea Level
APD  .F          12.000000               :Elevation of Depth Reference (LMF) above Permanent Datum
#-----------------------------------------------------------------------------
~CURVE INFORMATION
#MNEM.UNIT   API CODE                                  DESCRIPTION
#---- -----  --------                                  -----------------------
DEPT .F                                                :DEPTH (BOREHOLE) {F12.4}
C1_OBMT.IN                                             :OBMT Caliper 1 {F11.4}
C2_OBMT.IN                                             :OBMT Caliper 2 {F11.4}
CDF  .LBF                                              :Calibrated Downhole Force {F11.4}
CTEM .DEGF                                             :Cartridge Temperature {F11.4}
DCAL .IN                                               :Differential Caliper {F11.4}
DEVI .DEG                                              :Hole Deviation {F11.4}
DEVIM.DEG                                              :Memorized Deviation {F11.4}
DWAL_WALK2.                                            :Dry Weight Fraction Pseudo Aluminum (SpectroLith WALK2 Model) {F11.4}
DWCA_WALK2.                                            :Dry Weight Fraction Calcium (SpectroLith WALK2 Model) {F11.4}
DWFE_WALK2.                                            :Dry Weight Fraction Iron + 0.14 Aluminum (SpectroLith WALK2 Model) {F11.4}
DWGD_WALK2.PPM                                         :Dry Weight Fraction Gadolinium (SpectroLith WALK2 Model) {F11.4}
DWSI_WALK2.                                            :Dry Weight Fraction Silicon (SpectroLith WALK2 Model) {F11.4}
DWSU_WALK2.                                            :Dry Weight Fraction Sulfur (SpectroLith WALK2 Model) {F11.4}
DWTI_WALK2.                                            :Dry Weight Fraction Titanium (SpectroLith WALK2 Model) {F11.4}
ECST .DEGF                                             :ECS Temperature {F11.4}
ED   .F                                                :East Departure {F11.4}
ESUF_WALK2.                                            :Elemental Statistical Uncertainty Factor (SpectroLith WALK2 Model) {F11.4}
GR_EDTC.GAPI                                           :EDTC Gamma Ray {F11.4}
GTEM .DEGF                                             :Generalized Borehole Temperature {F11.4}
HAZI .DEG                                              :Hole Azimuth {F11.4}
HAZIM.DEG                                              :Hole Azimuth {F11.4}
ND   .F                                                :North Departure {F11.4}
P1AZ .DEG                                              :Pad 1 Azimuth {F11.4}
QCPMT.                                                 :Photomultiplier Tube Quality Control {F11.4}
RB   .DEG                                              :Relative Bearing {F11.4}
RHGE_WALK2.G/C3                                        :Matrix Density from Elemental Concentrations (SpectroLith WALK2 Model) {F11.4}
SDEV .DEG                                              :Sonde Deviation {F11.4}
SDEVM.DEG                                              :Sonde Deviation {F11.4}
STIT .F                                                :Stuck Tool Indicator, Total {F11.4}
TENS .LBF                                              :Cable Tension {F11.4}
WANH_WALK2.                                            :Dry Weight Fraction Anhydrite/Gypsum (SpectroLith WALK2 Model) {F11.4}
WCAR_WALK2.                                            :Dry Weight Fraction Carbonate (SpectroLith WALK2 Model) {F11.4}
WCLA_WALK2.                                            :Dry Weight Fraction Clay (SpectroLith WALK2 Model) {F11.4}
WCOA_WALK2.                                            :Dry Weight Fraction Coal (SpectroLith WALK2 Model) {F11.4}
WEVA_WALK2.                                            :Dry Weight Fraction Salt (SpectroLith WALK2 Model) {F11.4}
WPYR_WALK2.                                            :Dry Weight Fraction Pyrite (SpectroLith WALK2 Model) {F11.4}
WQFM_WALK2.                                            :Dry Weight Fraction Quartz+Feldspar+Mica (QFM) (SpectroLith WALK2 Model) {F11.4}
WSID_WALK2.                                            :Dry Weight Fraction Siderite (SpectroLith WALK2 Model) {F11.4}
#-----------------------------------------------------------------------------
# 
#      DEPT      C1_OBMT    C2_OBMT      CDF        CTEM       DCAL       DEVI      DEVIM    DWAL_WALK2 DWCA_WALK2 DWFE_WALK2 DWGD_WALK2 DWSI_WALK2 DWSU_WALK2 DWTI_WALK2    ECST        ED     ESUF_WALK2  GR_EDTC      GTEM       HAZI      HAZIM        ND        P1AZ      QCPMT        RB     RHGE_WALK2    SDEV      SDEVM       STIT       TENS    WANH_WALK2 WCAR_WALK2 WCLA_WALK2 WCOA_WALK2 WEVA_WALK2 WPYR_WALK2 WQFM_WALK2 WSID_WALK2
#
~A  
# ...
   3819.0000     7.1840     7.2217   981.5355   122.0707     0.4528     6.8480     7.4641     0.0600     0.1019     0.0334     3.4606     0.2437     0.0145     0.0031    47.1620    -5.2714     0.6454   159.4809   118.4752    85.3556    82.1688    -0.9664   348.9502     0.0895   263.5461     2.7390     7.0544     7.7014     0.0000  2536.0000     0.0000     0.1991     0.3420     0.0000     0.0000     0.0271     0.4318     0.0000
   3819.5000     7.1961     7.2578   986.5125   122.0707     0.4769     6.8996     7.4649     0.0613     0.1006     0.0331     3.0262     0.2439     0.0234     0.0029    47.1620    -5.2070     0.6262   159.4809   118.4818    85.2004    82.0752    -0.9575   348.7176     0.0000   263.4674     2.7486     7.1107     7.7045     0.0000  2528.0000     0.0000     0.1956     0.3539     0.0000     0.0000     0.0437     0.4068     0.0000
   3820.0000     7.2221     7.2681   957.3615   122.0707     0.4951     6.9229     7.4629     0.0589     0.0971     0.0316     4.9315     0.2523     0.0233     0.0030    47.9423    -5.1427     0.6284   159.4809   118.4884    85.0860    81.9614    -0.9485   348.3308     0.0000   263.1924     2.7452     7.1357     7.7030     0.0000  2419.0000     0.0000     0.1863     0.3327     0.0000     0.0000     0.0436     0.4374     0.0000
   3820.5000     7.2404     7.2656   981.5355   122.0707     0.5030     6.9638     7.4333     0.0626     0.0859     0.0344     5.4920     0.2582     0.0175     0.0038    48.7227    -5.0785     0.6837   159.4809   118.4950    84.9525    81.9083    -0.9394   347.7448     0.1575   262.7358     2.7416     7.1786     7.6718     0.0000  2515.0000     0.0000     0.1561     0.3654     0.0000     0.0000     0.0328     0.4457     0.0000
   3821.0000     7.2300     7.2604   986.5125   122.0707     0.4952     7.0156     7.4210     0.0604     0.0800     0.0344     5.9860     0.2678     0.0051     0.0045    49.0348    -5.0146     0.6402   159.4809   118.5016    84.8033    81.8255    -0.9303   346.7688     0.0000   261.9019     2.7260     7.2326     7.6585     0.0000  2547.0000     0.0000     0.1402     0.3456     0.0000     0.0000     0.0096     0.5046     0.0000
   3821.5000     7.1953     7.2587   942.4305   122.0707     0.4769     7.0413     7.4234     0.0642     0.0763     0.0366     5.2127     0.2655     0.0049     0.0050    48.3325    -4.9506     0.6086   159.4809   118.5082    84.7242    81.7280    -0.9210   346.0424     0.0000   261.2492     2.7291     7.2595     7.6608     0.0000  2417.0000     0.0000     0.1302     0.3789     0.0000     0.0000     0.0093     0.4816     0.0000
   3822.0000     7.1884     7.2656   961.9830   122.0707     0.4769     7.0697     7.3933     0.0622     0.0810     0.0357     8.2102     0.2632     0.0029     0.0049    48.3325    -4.8868     0.5807   159.4809   118.5148    84.6349    81.6611    -0.9117   345.5604     0.0000   260.8528     2.7260     7.2897     7.6296     0.0000  2502.0000     0.0000     0.1429     0.3620     0.0000     0.0000     0.0055     0.4896     0.0000
   3822.5000     7.1884     7.3103   966.9600   122.0707     0.4991     7.1237     7.3721     0.0624     0.0899     0.0363    10.3276     0.2521     0.0000     0.0047    48.3325    -4.8233     0.5578   159.4809   118.5214    84.5289    81.5826    -0.9024   344.4050     0.3395   259.7940     2.7251     7.3491     7.6100     0.0000  2560.0000     0.0000     0.1667     0.3633     0.0000     0.0000     0.0000     0.4700     0.0000
   3823.0000     7.1936     7.3034   937.8090   122.0707     0.4983     7.1509     7.3627     0.0607     0.0939     0.0353    11.2888     0.2504     0.0000     0.0045    48.3325    -4.7599     0.5867   159.4809   118.5281    84.4554    81.4878    -0.8929   343.4098     0.3496   258.8646     2.7240     7.3772     7.5996     0.0000  2404.0000     0.0000     0.1776     0.3485     0.0000     0.0000     0.0000     0.4739     0.0000
   3823.5000     7.1953     7.3043   957.3615   122.0707     0.4996     7.1711     7.3406     0.0592     0.0824     0.0341     8.6295     0.2668     0.0000     0.0053    48.3325    -4.6966     0.6864   159.4809   118.5347    84.4071    81.4204    -0.8834   342.8453     0.3281   258.3438     2.7198     7.3985     7.5763     0.0000  2491.0000     0.0000     0.1466     0.3354     0.0000     0.0000     0.0000     0.5180     0.0000
   3824.0000     7.1988     7.2432   961.9830   122.0707     0.4709     7.2214     7.3180     0.0617     0.0397     0.0345     5.8571     0.3132     0.0000     0.0081    48.3325    -4.6335     0.8580   159.4809   118.5413    84.2797    81.3597    -0.8739   341.9618     0.8997   257.5806     2.7131     7.4478     7.5490     0.0000  2525.0000     0.0000     0.0317     0.3570     0.0000     0.0000     0.0000     0.6113     0.0000
   3824.5000     7.1892     7.2561   932.8320   122.0707     0.4725     7.2404     7.3060     0.0648     0.0000     0.0352     3.2725     0.3550     0.0000     0.0112    48.3325    -4.5706     1.0867   159.4809   118.5479    84.2197    81.2848    -0.8643   341.7036     2.4695   257.3802     2.7076     7.4684     7.5370     0.0000  2364.0000     0.0000     0.0000     0.3845     0.0000     0.0000     0.0000     0.6155     0.0000
   3825.0000     7.1884     7.2673   952.3845   122.0707     0.4777     7.2546     7.2821     0.0655     0.0000     0.0351     2.4400     0.3543     0.0000     0.0127    48.3325    -4.5079     1.3528   159.4809   118.5545    84.1837    81.2329    -0.8546   341.2220     1.9522   256.9308     2.7072     7.4839     7.5125     0.0000  2437.0000     0.0000     0.0000     0.3905     0.0000     0.0000     0.0000     0.6095     0.0000
   3825.5000     7.2282     7.2724   971.9370   122.0707     0.5003     7.2925     7.2592     0.0675     0.0000     0.0363     2.4150     0.3507     0.0000     0.0126    48.3325    -4.4453     1.3389   159.4809   118.5611    84.0721    81.1632    -0.8449   339.1480     1.9522   254.9521     2.7096     7.5242     7.4890     0.0000  2551.0000     0.0000     0.0000     0.4080     0.0000     0.0000     0.0000     0.5920     0.0000
   3826.0000     7.1883     7.2698   947.4075   122.0707     0.4789     7.3118     7.2357     0.0686     0.0000     0.0370     2.4014     0.3487     0.0000     0.0125    48.3325    -4.3830     1.3314   159.4809   118.5677    84.0237    81.1092    -0.8352   337.4294     1.9522   253.2690     2.7109     7.5440     7.4637     0.0000  2391.0000     0.0000     0.0000     0.4176     0.0000     0.0000     0.0000     0.5824     0.0000
   3826.5000     7.1970     7.2681   952.3845   122.0707     0.4825     7.3182     7.2125     0.0690     0.0000     0.0373     2.3962     0.3480     0.0000     0.0125    48.3325    -4.3209     1.3285   159.4809   118.5743    83.9961    81.0244    -0.8254   336.6445     1.9522   252.5058     2.7113     7.5507     7.4392     0.0000  2470.0000     0.0000     0.0000     0.4212     0.0000     0.0000     0.0000     0.5788     0.0000
   3827.0000     7.2161     7.2604   966.9600   122.0707     0.4882     7.3548     7.2019     0.0690     0.0000     0.0373     2.3962     0.3480     0.0000     0.0125    48.3325    -4.2589     1.3285   159.4809   118.5809    83.8822    80.9492    -0.8156   333.7519     1.9522   249.7061     2.7113     7.5887     7.4279     0.0000  2544.0000     0.0000     0.0000     0.4212     0.0000     0.0000     0.0000     0.5788     0.0000
   3827.5000     7.2378     7.2604   947.4075   122.0707     0.4991     7.3671     7.1855     0.0690     0.0000     0.0373     2.3962     0.3480     0.0000     0.0125    48.3325    -4.1971     1.3285   159.4809   118.5875    83.8193    80.8822    -0.8057   332.6555     1.9522   248.6655     2.7113     7.6018     7.4109     0.0000  2391.0000     0.0000     0.0000     0.4212     0.0000     0.0000     0.0000     0.5788     0.0000
   3828.0000     7.2300     7.2656   952.3845   122.0707     0.4977     7.3692     7.1711     0.0690     0.0000     0.0373     2.3962     0.3480     0.0000     0.0125    48.3325    -4.1354     1.3285   159.4809   118.5941    83.7648    80.7984    -0.7958   331.9345     1.9522   247.9944     2.7113     7.6042     7.3957     0.0000  2483.0000     0.0000     0.0000     0.4212     0.0000     0.0000     0.0000     0.5788     0.0000
