~VERSION INFORMATION
VERS.           1.2   :CWLS Log ASCII Standard - VERSION 1.2
WRAP.           NO    :One Line per depth step
PROD.  Schlumberger   :LAS Producer
PROG.  DLIS to ASCII 17C0-152                          :LAS Program name and version
CREA.        2011/10/27 17:25                          :LAS Creation date {YYYY/MM/DD hh:mm}
DLIS_CREA.  2011-Oct-27 07:30                          :DLIS Creation date and time {YYYY-MMM-DD hh:mm}
SOURCE.     9895fb31-02c7-4189-bf8e-52df0b775dd1       :DLIS File Name
#--------------------------------------------------
~WELL INFORMATION
#MNEM.UNIT      DATA             DESCRIPTION
#---- ------ --------------   -----------------------------
STRT .F      3344.0000       :START DEPTH     
STOP .F      3862.5000       :STOP DEPTH     
STEP .F       0.5000         :STEP       
NULL .          -999.25      :NULL VALUE
COMP .                 COMPANY:  SWEPI LP                           
WELL .                    WELL:  Harper Hill 2-29                   
FLD  .                   FIELD:  Swan                               
LOC  .                LOCATION:                                     
CNTY .                  COUNTY:  Moffat                             
STAT .                   STATE:  Colorado                           
CTRY .                 COUNTRY:                                     
SRVC .         SERVICE COMPANY:  Schlumberger                       
API  .              API NUMBER:  05-0081-07659                      
DATE .                LOG DATE:  26-Oct-2011
UWI  .          UNIQUE WELL ID:                                     
#-----------------------------------------------------------------------------
~PARAMETER INFORMATION
#MNEM.UNIT    VALUE                      DESCRIPTION
#---- -----   --------------------       ------------------------
CN   .        SWEPI LP                   :Company Name
WN   .        Harper Hill 2-29           :Well Name
FN   .        Swan                       :Field Name
FL   .                                   :Field Location
FL1  .                                   :Field Location Line 1
COUN .        Moffat                     :County or Rig Name
STAT .        Colorado                   :State or Province
NATI .                                   :Nation
DATE .        26-Oct-2011                :Date as Month-Day-Year
APIN .        05-0081-07659              :API Serial Number
SECT .        29                         :Section
TOWN .        5N                         :Township
RANG .        90W                        :Range
DMF  .        Kelly Bushing              :Drilling Measured From
LMF  .        Kelly Bushing              :Log Measured From
PDAT .        Ground Level               :Permanent Datum
ENGI .        Mark Kast                  :Engineer's Name
WITN .        Tony                       :Witness's Name
LATI .                                   :Latitude
LONG .                                   :Longitude
LUL  .        Rock Springs               :Logging Unit Location
LUN  .              2271                 :Logging Unit Number
RUN  .        Two                        :Run Number
SON  .                                   :Service Order Number
BHT  .DEGF     127.00000                 :Bottom Hole Temperature (used in calculations)
BS   .IN         6.75000                 :Bit Size
DFD  .LB/G       7.90000                 :Drilling Fluid Density
DFV  .S         44.00000                 :Drilling Fluid Viscosity
DFL  .C3        16.60000                 :Drilling Fluid Loss
RMFS .                                   :Resistivity of Mud Filtrate Sample
EKB  .F       6597.00000                 :Elevation of Kelly Bushing
EGL  .F       6585.00000                 :Elevation of Ground Level
BLI  .                                   :Bottom Log Interval
BSAL .PPM     44500.00000                :Borehole Salinity
FLEV .                                   :Fluid Level
MCST .                                   :Mud Cake Sample Temperature
MFST .                                   :Mud Filtrate Sample Temperature
MRT  .DEGF     127.00000                 :Maximum Recorded Temperature
MST  .                                   :Mud Sample Temperature
RMCS .                                   :Resistivity of Mud Cake Sample
RMS  .                                   :Resistivity of Mud Sample
RW   .OHMM       1.00000                 :Resistivity of Connate Water
TDD  .F       4480.00000                 :Total Depth - Driller
TDL  .F       4482.00000                 :Total Depth - Logger
TLI  .                                   :Top Log Interval
HIDE .                                   :Header Identifier
MATR .        SAND                       :Rock Matrix for Neutron Porosity Corrections
DFT  .        OBM                        :Drilling Fluid Type
DFPH .                                   :Drilling Fluid PH
MCSS .        N/A                        :Mud Cake Sample Source
MFSS .        N/A                        :Mud Filtrate Sample Source
MSS  .        N/A                        :Mud Sample Source
OS1  .                                   :Other Services Line 1
OS2  .                                   :Other Services Line 2
OS3  .                                   :Other Services Line 3
OS4  .                                   :Other Services Line 4
OS5  .                                   :Other Services Line 5
R1   .                                   :Remark Line 1
R2   .                                   :Remark Line 2
R3   .                                   :Remark Line 3
R4   .                                   :Remark Line 4
R5   .                                   :Remark Line 5
R6   .                                   :Remark Line 6
R7   .                                   :Remark Line 7
R8   .                                   :Remark Line 8
TCS  .        20 00                      :Time Circulation Stopped
TLAB .                                   :Time Logger At Bottom
EPD  .F         6585.000000              :Elevation of Permanent Datum above Mean Sea Level
APD  .F          12.000000               :Elevation of Depth Reference (LMF) above Permanent Datum
#-----------------------------------------------------------------------------
~CURVE INFORMATION
#MNEM.UNIT   API CODE                                  DESCRIPTION
#---- -----  --------                                  -----------------------
DEPT .F                                                :DEPTH (BOREHOLE) {F12.4}
C1_OBMT.IN                                             :OBMT Caliper 1 {F11.4}
C2_OBMT.IN                                             :OBMT Caliper 2 {F11.4}
CDF  .LBF                                              :Calibrated Downhole Force {F11.4}
CTEM .DEGF                                             :Cartridge Temperature {F11.4}
DCAL .IN                                               :Differential Caliper {F11.4}
DEVI .DEG                                              :Hole Deviation {F11.4}
DEVIM.DEG                                              :Memorized Deviation {F11.4}
DWAL_WALK2.                                            :Dry Weight Fraction Pseudo Aluminum (SpectroLith WALK2 Model) {F11.4}
DWCA_WALK2.                                            :Dry Weight Fraction Calcium (SpectroLith WALK2 Model) {F11.4}
DWFE_WALK2.                                            :Dry Weight Fraction Iron + 0.14 Aluminum (SpectroLith WALK2 Model) {F11.4}
DWGD_WALK2.PPM                                         :Dry Weight Fraction Gadolinium (SpectroLith WALK2 Model) {F11.4}
DWSI_WALK2.                                            :Dry Weight Fraction Silicon (SpectroLith WALK2 Model) {F11.4}
DWSU_WALK2.                                            :Dry Weight Fraction Sulfur (SpectroLith WALK2 Model) {F11.4}
DWTI_WALK2.                                            :Dry Weight Fraction Titanium (SpectroLith WALK2 Model) {F11.4}
ECST .DEGF                                             :ECS Temperature {F11.4}
ED   .F                                                :East Departure {F11.4}
ESUF_WALK2.                                            :Elemental Statistical Uncertainty Factor (SpectroLith WALK2 Model) {F11.4}
GR_EDTC.GAPI                                           :EDTC Gamma Ray {F11.4}
GTEM .DEGF                                             :Generalized Borehole Temperature {F11.4}
HAZI .DEG                                              :Hole Azimuth {F11.4}
HAZIM.DEG                                              :Hole Azimuth {F11.4}
ND   .F                                                :North Departure {F11.4}
P1AZ .DEG                                              :Pad 1 Azimuth {F11.4}
QCPMT.                                                 :Photomultiplier Tube Quality Control {F11.4}
RB   .DEG                                              :Relative Bearing {F11.4}
RHGE_WALK2.G/C3                                        :Matrix Density from Elemental Concentrations (SpectroLith WALK2 Model) {F11.4}
SDEV .DEG                                              :Sonde Deviation {F11.4}
SDEVM.DEG                                              :Sonde Deviation {F11.4}
STIT .F                                                :Stuck Tool Indicator, Total {F11.4}
TENS .LBF                                              :Cable Tension {F11.4}
WANH_WALK2.                                            :Dry Weight Fraction Anhydrite/Gypsum (SpectroLith WALK2 Model) {F11.4}
WCAR_WALK2.                                            :Dry Weight Fraction Carbonate (SpectroLith WALK2 Model) {F11.4}
WCLA_WALK2.                                            :Dry Weight Fraction Clay (SpectroLith WALK2 Model) {F11.4}
WCOA_WALK2.                                            :Dry Weight Fraction Coal (SpectroLith WALK2 Model) {F11.4}
WEVA_WALK2.                                            :Dry Weight Fraction Salt (SpectroLith WALK2 Model) {F11.4}
WPYR_WALK2.                                            :Dry Weight Fraction Pyrite (SpectroLith WALK2 Model) {F11.4}
WQFM_WALK2.                                            :Dry Weight Fraction Quartz+Feldspar+Mica (QFM) (SpectroLith WALK2 Model) {F11.4}
WSID_WALK2.                                            :Dry Weight Fraction Siderite (SpectroLith WALK2 Model) {F11.4}
#-----------------------------------------------------------------------------
# 
#      DEPT      C1_OBMT    C2_OBMT      CDF        CTEM       DCAL       DEVI      DEVIM    DWAL_WALK2 DWCA_WALK2 DWFE_WALK2 DWGD_WALK2 DWSI_WALK2 DWSU_WALK2 DWTI_WALK2    ECST        ED     ESUF_WALK2  GR_EDTC      GTEM       HAZI      HAZIM        ND        P1AZ      QCPMT        RB     RHGE_WALK2    SDEV      SDEVM       STIT       TENS    WANH_WALK2 WCAR_WALK2 WCLA_WALK2 WCOA_WALK2 WEVA_WALK2 WPYR_WALK2 WQFM_WALK2 WSID_WALK2
#
~A  
# ...
   3581.5000     7.1528     7.1753   991.1340   124.0472     0.4140     3.8239     3.7120     0.0422     0.1704     0.0251     5.8559     0.1933     0.0020     0.0010    48.3325   -16.8978     0.6153   137.2679   115.3362   159.5070   155.7540     8.4290     3.0627     0.0000   203.5072     2.7207     3.8943     3.7785     0.0000  2323.0000     0.0000     0.3833     0.1859     0.0000     0.0000     0.0038     0.4270     0.0000
   3582.0000     7.1528     7.1727   952.3845   124.0472     0.4127     3.8167     3.7138     0.0393     0.1830     0.0238     6.5414     0.1834     0.0005     0.0004    48.3325   -16.8845     0.5997   144.6471   115.3428   159.2628   155.7510     8.3995     2.9783     0.2668   203.6670     2.7186     3.8869     3.7803     0.0000  2295.0000     0.0000     0.4172     0.1607     0.0000     0.0000     0.0009     0.4212     0.0000
   3582.5000     7.1506     7.1770  1068.9885   124.0472     0.4138     3.8059     3.7159     0.0444     0.1856     0.0265     7.0961     0.1716     0.0019     0.0008    48.3325   -16.8712     0.5626   146.6169   115.3494   159.0720   155.8106     8.3700     2.2872     0.2587   203.1678     2.7257     3.8756     3.7825     0.0000  2539.0000     0.0000     0.4242     0.2050     0.0000     0.0000     0.0036     0.3671     0.0000
   3583.0000     7.1467     7.1813  1054.4131   124.0472     0.4140     3.7934     3.7153     0.0511     0.1761     0.0298     8.3666     0.1713     0.0031     0.0026    48.3325   -16.8579     0.5604   147.6131   115.3560   158.8722   155.7855     8.3404     2.0486     0.2184   203.1292     2.7315     3.8626     3.7819     0.0000  2460.0000     0.0000     0.3987     0.2645     0.0000     0.0000     0.0057     0.3310     0.0000
   3583.5000     7.1458     7.1856   961.9830   124.0472     0.4157     3.7995     3.7147     0.0568     0.1589     0.0325     7.7765     0.1819     0.0057     0.0036    48.3325   -16.8447     0.5776   140.6036   115.3626   158.6914   155.8242     8.3109     1.9866     0.0000   203.2479     2.7366     3.8690     3.7813     0.0000  2258.0000     0.0000     0.3525     0.3139     0.0000     0.0000     0.0107     0.3229     0.0000
   3584.0000     7.1554     7.1881  1025.2621   124.0472     0.4218     3.7866     3.7121     0.0580     0.1344     0.0328     5.8144     0.2086     0.0082     0.0038    48.3325   -16.8314     0.6500   145.0592   115.3692   158.5128   155.8540     8.2813     2.2361     0.0627   203.6756     2.7359     3.8558     3.7787     0.0000  2436.0000     0.0000     0.2866     0.3251     0.0000     0.0000     0.0153     0.3730     0.0000
   3584.5000     7.1545     7.1787  1073.9656   124.0472     0.4166     3.7783     3.7175     0.0550     0.1226     0.0312     2.9161     0.2277     0.0080     0.0033    48.9178   -16.8182     0.6785   138.2443   115.3758   158.3439   155.8994     8.2517     2.9364     0.0000   204.5437     2.7307     3.8471     3.7842     0.0000  2533.0000     0.0000     0.2548     0.2984     0.0000     0.0000     0.0149     0.4319     0.0000
   3585.0000     7.1519     7.1753  1010.6865   124.0472     0.4136     3.7716     3.7177     0.0518     0.1243     0.0288     2.9680     0.2320     0.0109     0.0033    49.5030   -16.8049     0.6779   143.3068   115.3824   158.1810   155.9492     8.2222     3.0515     0.0000   204.8213     2.7300     3.8402     3.7844     0.0000  2378.0000     0.0000     0.2593     0.2700     0.0000     0.0000     0.0204     0.4503     0.0000
   3585.5000     7.1485     7.1813   986.5125   124.0472     0.4148     3.7736     3.7190     0.0468     0.1406     0.0262     4.2958     0.2214     0.0071     0.0035    49.5030   -16.7917     0.6359   134.1554   115.3890   158.0462   156.0098     8.1925     3.0444     0.0000   204.9489     2.7236     3.8422     3.7857     0.0000  2348.0000     0.0000     0.3032     0.2260     0.0000     0.0000     0.0133     0.4575     0.0000
   3586.0000     7.1467     7.1856  1049.4360   124.0472     0.4161     3.7638     3.7181     0.0425     0.1583     0.0241     6.4084     0.2079     0.0048     0.0031    49.5030   -16.7786     0.6334   136.6867   115.3957   157.9138   156.0845     8.1629     3.3323     0.0099   205.3689     2.7200     3.8320     3.7848     0.0000  2542.0000     0.0000     0.3509     0.1888     0.0000     0.0000     0.0090     0.4513     0.0000
   3586.5000     7.1493     7.1881  1025.2621   124.0472     0.4187     3.7542     3.7203     0.0389     0.1698     0.0228     5.8021     0.2002     0.0000     0.0026    49.5030   -16.7654     0.6403   132.4009   115.4023   157.8163   156.1812     8.1332     3.5068     0.0384   205.6408     2.7138     3.8222     3.7871     0.0000  2388.0000     0.0000     0.3818     0.1572     0.0000     0.0000     0.0000     0.4611     0.0000
   3587.0000     7.1554     7.1856   961.9830   124.0472     0.4205     3.7563     3.7217     0.0399     0.1740     0.0230     4.8227     0.1938     0.0032     0.0024    49.5030   -16.7524     0.6349   129.9113   115.4089   157.7272   156.2776     8.1035     3.4764     0.2494   205.6993     2.7187     3.8244     3.7886     0.0000  2231.0000     0.0000     0.3932     0.1659     0.0000     0.0000     0.0060     0.4350     0.0000
   3587.5000     7.1528     7.1770  1044.8146   124.0472     0.4149     3.7548     3.7221     0.0414     0.1709     0.0234     3.7744     0.1953     0.0061     0.0027    48.3325   -16.7393     0.6288   128.9656   115.4155   157.6407   156.3580     8.0738     3.4125     0.2582   205.7218     2.7223     3.8228     3.7890     0.0000  2494.0000     0.0000     0.3846     0.1792     0.0000     0.0000     0.0114     0.4247     0.0000
   3588.0000     7.1554     7.1752  1068.9885   124.0472     0.4153     3.7489     3.7240     0.0452     0.1723     0.0249     4.7064     0.1876     0.0105     0.0033    48.3325   -16.7263     0.6615   134.2477   115.4221   157.5823   156.4312     8.0441     3.2150     0.1561   205.5832     2.7305     3.8167     3.7909     0.0000  2511.0000     0.0000     0.3886     0.2123     0.0000     0.0000     0.0197     0.3794     0.0000
   3588.5000     7.1389     7.1761  1010.6865   124.0472     0.4075     3.7427     3.7252     0.0451     0.1743     0.0258     5.8661     0.1845     0.0033     0.0033    48.3325   -16.7134     0.6735   135.2075   115.4287   157.5200   156.5469     8.0143     3.2034     0.0000   205.6340     2.7241     3.8101     3.7919     0.0000  2373.0000     0.0000     0.3938     0.2116     0.0000     0.0000     0.0061     0.3884     0.0000
   3589.0000     7.1233     7.1839   986.5125   124.0472     0.4035     3.7434     3.7216     0.0469     0.1745     0.0276     5.0893     0.1806     0.0002     0.0027    48.3325   -16.7005     0.6672   132.5082   115.4353   157.3883   156.6297     7.9845     3.1905     0.3006   205.7524     2.7236     3.8106     3.7881     0.0000  2352.0000     0.0000     0.3943     0.2268     0.0000     0.0000     0.0003     0.3785     0.0000
   3589.5000     7.1285     7.1881  1073.9656   124.0472     0.4083     3.7381     3.7279     0.0446     0.1776     0.0264     4.4407     0.1808     0.0000     0.0021    48.3325   -16.6876     0.6138   115.7403   115.4419   157.2971   156.7341     7.9547     3.3824     0.1330   206.0354     2.7218     3.8053     3.7946     0.0000  2557.0000     0.0000     0.4027     0.2067     0.0000     0.0000     0.0000     0.3906     0.0000
   3590.0000     7.1268     7.1787  1059.3900   124.0472     0.4027     3.7270     3.7284     0.0414     0.1891     0.0246     4.6627     0.1729     0.0000     0.0018    48.3325   -16.6748     0.5786   112.9315   115.4485   157.1848   156.7879     7.9248     3.4194     0.2795   206.1849     2.7205     3.7937     3.7951     0.0000  2467.0000     0.0000     0.4336     0.1790     0.0000     0.0000     0.0000     0.3873     0.0000
   3590.5000     7.1337     7.1813   961.9830   124.0472     0.4075     3.7346     3.7285     0.0358     0.2051     0.0211     7.3641     0.1645     0.0000     0.0021    48.3325   -16.6620     0.5726   110.5405   115.4551   157.1285   156.8602     7.8949     3.4210     0.4031   206.2424     2.7167     3.8017     3.7953     0.0000  2254.0000     0.0000     0.4766     0.1297     0.0000     0.0000     0.0000     0.3936     0.0000
