~VERSION INFORMATION
VERS.           1.2   :CWLS Log ASCII Standard - VERSION 1.2
WRAP.           NO    :One Line per depth step
PROD.  Schlumberger   :LAS Producer
PROG.  DLIS to ASCII 17C0-152                          :LAS Program name and version
CREA.        2011/10/27 17:25                          :LAS Creation date {YYYY/MM/DD hh:mm}
DLIS_CREA.  2011-Oct-27 07:17                          :DLIS Creation date and time {YYYY-MMM-DD hh:mm}
SOURCE.     79519d1b-f2ac-4620-a9ab-fbce0bbece67       :DLIS File Name
#--------------------------------------------------
~WELL INFORMATION
#MNEM.UNIT      DATA             DESCRIPTION
#---- ------ --------------   -----------------------------
STRT .F      3722.5000       :START DEPTH     
STOP .F      4490.0000       :STOP DEPTH     
STEP .F       0.5000         :STEP       
NULL .          -999.25      :NULL VALUE
COMP .                 COMPANY:  SWEPI LP                           
WELL .                    WELL:  Harper Hill 2-29                   
FLD  .                   FIELD:  Swan                               
LOC  .                LOCATION:                                     
CNTY .                  COUNTY:  Moffat                             
STAT .                   STATE:  Colorado                           
CTRY .                 COUNTRY:                                     
SRVC .         SERVICE COMPANY:  Schlumberger                       
API  .              API NUMBER:  05-0081-07659                      
DATE .                LOG DATE:  26-Oct-2011
UWI  .          UNIQUE WELL ID:                                     
#-----------------------------------------------------------------------------
~PARAMETER INFORMATION
#MNEM.UNIT    VALUE                      DESCRIPTION
#---- -----   --------------------       ------------------------
CN   .        SWEPI LP                   :Company Name
WN   .        Harper Hill 2-29           :Well Name
FN   .        Swan                       :Field Name
FL   .                                   :Field Location
FL1  .                                   :Field Location Line 1
COUN .        Moffat                     :County or Rig Name
STAT .        Colorado                   :State or Province
NATI .                                   :Nation
DATE .        26-Oct-2011                :Date as Month-Day-Year
APIN .        05-0081-07659              :API Serial Number
SECT .        29                         :Section
TOWN .        5N                         :Township
RANG .        90W                        :Range
DMF  .        Kelly Bushing              :Drilling Measured From
LMF  .        Kelly Bushing              :Log Measured From
PDAT .        Ground Level               :Permanent Datum
ENGI .        Mark Kast                  :Engineer's Name
WITN .        Tony                       :Witness's Name
LATI .                                   :Latitude
LONG .                                   :Longitude
LUL  .        Rock Springs               :Logging Unit Location
LUN  .              2271                 :Logging Unit Number
RUN  .        Two                        :Run Number
SON  .                                   :Service Order Number
BHT  .DEGF     127.00000                 :Bottom Hole Temperature (used in calculations)
BS   .IN         6.75000                 :Bit Size
DFD  .LB/G       7.90000                 :Drilling Fluid Density
DFV  .S         44.00000                 :Drilling Fluid Viscosity
DFL  .C3        16.60000                 :Drilling Fluid Loss
RMFS .                                   :Resistivity of Mud Filtrate Sample
EKB  .F       6597.00000                 :Elevation of Kelly Bushing
EGL  .F       6585.00000                 :Elevation of Ground Level
BLI  .                                   :Bottom Log Interval
BSAL .PPM     44500.00000                :Borehole Salinity
FLEV .                                   :Fluid Level
MCST .                                   :Mud Cake Sample Temperature
MFST .                                   :Mud Filtrate Sample Temperature
MRT  .DEGF     127.00000                 :Maximum Recorded Temperature
MST  .                                   :Mud Sample Temperature
RMCS .                                   :Resistivity of Mud Cake Sample
RMS  .                                   :Resistivity of Mud Sample
RW   .OHMM       1.00000                 :Resistivity of Connate Water
TDD  .F       4480.00000                 :Total Depth - Driller
TDL  .F       4482.00000                 :Total Depth - Logger
TLI  .                                   :Top Log Interval
HIDE .                                   :Header Identifier
MATR .        SAND                       :Rock Matrix for Neutron Porosity Corrections
DFT  .        OBM                        :Drilling Fluid Type
DFPH .                                   :Drilling Fluid PH
MCSS .        N/A                        :Mud Cake Sample Source
MFSS .        N/A                        :Mud Filtrate Sample Source
MSS  .        N/A                        :Mud Sample Source
OS1  .                                   :Other Services Line 1
OS2  .                                   :Other Services Line 2
OS3  .                                   :Other Services Line 3
OS4  .                                   :Other Services Line 4
OS5  .                                   :Other Services Line 5
R1   .                                   :Remark Line 1
R2   .                                   :Remark Line 2
R3   .                                   :Remark Line 3
R4   .                                   :Remark Line 4
R5   .                                   :Remark Line 5
R6   .                                   :Remark Line 6
R7   .                                   :Remark Line 7
R8   .                                   :Remark Line 8
TCS  .        20 00                      :Time Circulation Stopped
TLAB .                                   :Time Logger At Bottom
EPD  .F         6585.000000              :Elevation of Permanent Datum above Mean Sea Level
APD  .F          12.000000               :Elevation of Depth Reference (LMF) above Permanent Datum
#-----------------------------------------------------------------------------
~CURVE INFORMATION
#MNEM.UNIT   API CODE                                  DESCRIPTION
#---- -----  --------                                  -----------------------
DEPT .F                                                :DEPTH (BOREHOLE) {F12.4}
C1_OBMT.IN                                             :OBMT Caliper 1 {F11.4}
C2_OBMT.IN                                             :OBMT Caliper 2 {F11.4}
CDF  .LBF                                              :Calibrated Downhole Force {F11.4}
CTEM .DEGF                                             :Cartridge Temperature {F11.4}
DCAL .IN                                               :Differential Caliper {F11.4}
DEVI .DEG                                              :Hole Deviation {F11.4}
DEVIM.DEG                                              :Memorized Deviation {F11.4}
DWAL_WALK2.                                            :Dry Weight Fraction Pseudo Aluminum (SpectroLith WALK2 Model) {F11.4}
DWCA_WALK2.                                            :Dry Weight Fraction Calcium (SpectroLith WALK2 Model) {F11.4}
DWFE_WALK2.                                            :Dry Weight Fraction Iron + 0.14 Aluminum (SpectroLith WALK2 Model) {F11.4}
DWGD_WALK2.PPM                                         :Dry Weight Fraction Gadolinium (SpectroLith WALK2 Model) {F11.4}
DWSI_WALK2.                                            :Dry Weight Fraction Silicon (SpectroLith WALK2 Model) {F11.4}
DWSU_WALK2.                                            :Dry Weight Fraction Sulfur (SpectroLith WALK2 Model) {F11.4}
DWTI_WALK2.                                            :Dry Weight Fraction Titanium (SpectroLith WALK2 Model) {F11.4}
ECST .DEGF                                             :ECS Temperature {F11.4}
ED   .F                                                :East Departure {F11.4}
ESUF_WALK2.                                            :Elemental Statistical Uncertainty Factor (SpectroLith WALK2 Model) {F11.4}
GR_EDTC.GAPI                                           :EDTC Gamma Ray {F11.4}
GTEM .DEGF                                             :Generalized Borehole Temperature {F11.4}
HAZI .DEG                                              :Hole Azimuth {F11.4}
HAZIM.DEG                                              :Hole Azimuth {F11.4}
ND   .F                                                :North Departure {F11.4}
P1AZ .DEG                                              :Pad 1 Azimuth {F11.4}
QCPMT.                                                 :Photomultiplier Tube Quality Control {F11.4}
RB   .DEG                                              :Relative Bearing {F11.4}
RHGE_WALK2.G/C3                                        :Matrix Density from Elemental Concentrations (SpectroLith WALK2 Model) {F11.4}
SDEV .DEG                                              :Sonde Deviation {F11.4}
SDEVM.DEG                                              :Sonde Deviation {F11.4}
STIT .F                                                :Stuck Tool Indicator, Total {F11.4}
TENS .LBF                                              :Cable Tension {F11.4}
WANH_WALK2.                                            :Dry Weight Fraction Anhydrite/Gypsum (SpectroLith WALK2 Model) {F11.4}
WCAR_WALK2.                                            :Dry Weight Fraction Carbonate (SpectroLith WALK2 Model) {F11.4}
WCLA_WALK2.                                            :Dry Weight Fraction Clay (SpectroLith WALK2 Model) {F11.4}
WCOA_WALK2.                                            :Dry Weight Fraction Coal (SpectroLith WALK2 Model) {F11.4}
WEVA_WALK2.                                            :Dry Weight Fraction Salt (SpectroLith WALK2 Model) {F11.4}
WPYR_WALK2.                                            :Dry Weight Fraction Pyrite (SpectroLith WALK2 Model) {F11.4}
WQFM_WALK2.                                            :Dry Weight Fraction Quartz+Feldspar+Mica (QFM) (SpectroLith WALK2 Model) {F11.4}
WSID_WALK2.                                            :Dry Weight Fraction Siderite (SpectroLith WALK2 Model) {F11.4}
#-----------------------------------------------------------------------------
# 
#      DEPT      C1_OBMT    C2_OBMT      CDF        CTEM       DCAL       DEVI      DEVIM    DWAL_WALK2 DWCA_WALK2 DWFE_WALK2 DWGD_WALK2 DWSI_WALK2 DWSU_WALK2 DWTI_WALK2    ECST        ED     ESUF_WALK2  GR_EDTC      GTEM       HAZI      HAZIM        ND        P1AZ      QCPMT        RB     RHGE_WALK2    SDEV      SDEVM       STIT       TENS    WANH_WALK2 WCAR_WALK2 WCLA_WALK2 WCOA_WALK2 WEVA_WALK2 WPYR_WALK2 WQFM_WALK2 WSID_WALK2
#
~A  
# ...
   4026.5000     7.2082     7.2423  1001.0880   120.0942     0.4753     6.5729     6.5992     0.0570     0.0913     0.0344     6.0897     0.2588     0.0000     0.0012    44.8209   -43.4229     0.7068   155.7713   121.2177    65.6858    65.5270   -28.6742   250.5133     0.2897   184.7940     2.7219     6.7650     6.7926     0.0000  2580.0000     0.0000     0.1705     0.3163     0.0000     0.0000     0.0000     0.5131     0.0000
   4027.0000     7.2300     7.2630  1010.6865   120.0942     0.4965     6.5792     6.6057     0.0548     0.0776     0.0325     6.3116     0.2792     0.0036     0.0012    44.8209   -43.3705     0.7780   152.8888   121.2243    65.6761    65.5249   -28.6504   250.5156     0.0000   184.8058     2.7204     6.7727     6.8005     0.0000  2655.0000     0.0000     0.1337     0.2969     0.0000     0.0000     0.0067     0.5628     0.0000
   4027.5000     7.2247     7.2655  1064.0116   120.0942     0.4951     6.5782     6.5830     0.0541     0.0684     0.0322     7.4967     0.2911     0.0013     0.0016    47.1620   -43.3183     0.7993   151.3931   121.2309    65.6759    65.5872   -28.6266   250.4315     0.0000   184.7226     2.7156     6.7715     6.7765     0.0000  2805.0000     0.0000     0.1089     0.2906     0.0000     0.0000     0.0024     0.5981     0.0000
   4028.0000     7.2299     7.2681  1039.8375   120.0942     0.4990     6.5724     6.5869     0.0568     0.0723     0.0339     7.8336     0.2817     0.0000     0.0021    47.1620   -43.2660     0.8084   146.4602   121.2375    65.6582    65.5636   -28.6029   250.6394     0.3834   184.9468     2.7178     6.7656     6.7809     0.0000  2667.0000     0.0000     0.1195     0.3145     0.0000     0.0000     0.0000     0.5660     0.0000
   4028.5000     7.2377     7.2707   971.9370   120.0942     0.5042     6.5844     6.6035     0.0638     0.0721     0.0377     8.9835     0.2697     0.0000     0.0032    44.8209   -43.2138     0.8200   148.2782   121.2441    65.6112    65.5233   -28.5791   250.5561     1.3950   184.9105     2.7248     6.7786     6.7987     0.0000  2545.0000     0.0000     0.1191     0.3759     0.0000     0.0000     0.0000     0.5050     0.0000
   4029.0000     7.2325     7.2595  1030.2390   120.0942     0.4960     6.5811     6.5990     0.0686     0.0688     0.0404     8.5583     0.2652     0.0000     0.0038    44.8209   -43.1615     0.8205   152.2499   121.2507    65.6104    65.5495   -28.5553   250.3981     1.0925   184.7545     2.7292     6.7749     6.7937     0.0000  2764.0000     0.0000     0.1100     0.4178     0.0000     0.0000     0.0000     0.4721     0.0000
   4029.5000     7.2300     7.2656  1078.5870   120.0942     0.4977     6.5811     6.5877     0.0731     0.0622     0.0430     8.5691     0.2650     0.0000     0.0043    44.8209   -43.1092     0.8095   152.6412   121.2573    65.6016    65.5894   -28.5316   250.3059     0.8823   184.6717     2.7328     6.7748     6.7817     0.0000  2777.0000     0.0000     0.0922     0.4574     0.0000     0.0000     0.0000     0.4504     0.0000
   4030.0000     7.2247     7.2647  1020.2850   120.0942     0.4947     6.5845     6.5883     0.0739     0.0694     0.0436     7.4796     0.2550     0.0000     0.0040    44.8209   -43.0570     0.7824   152.2515   121.2639    65.5754    65.5699   -28.5079   250.5262     0.4927   184.9164     2.7351     6.7781     6.7820     0.0000  2637.0000     0.0000     0.1116     0.4648     0.0000     0.0000     0.0000     0.4236     0.0000
   4030.5000     7.2317     7.2707  1015.6635   120.0942     0.5012     6.5865     6.5940     0.0766     0.0645     0.0450     6.1492     0.2560     0.0000     0.0046    44.8209   -43.0047     0.8060   145.7881   121.2705    65.5847    65.5589   -28.4841   250.5186     0.6772   184.8996     2.7369     6.7805     6.7884     0.0000  2694.0000     0.0000     0.0985     0.4887     0.0000     0.0000     0.0000     0.4128     0.0000
   4031.0000     7.2342     7.2578  1059.3900   120.0942     0.4960     6.5855     6.5944     0.0759     0.0724     0.0441     5.4702     0.2484     0.0048     0.0040    44.8209   -42.9524     0.7615   140.4109   121.2772    65.5599    65.5667   -28.4604   250.5382     0.1064   184.9436     2.7424     6.7796     6.7889     0.0000  2785.0000     0.0000     0.1199     0.4825     0.0000     0.0000     0.0091     0.3886     0.0000
   4031.5000     7.2342     7.2578  1025.2621   120.0942     0.4960     6.5753     6.5881     0.0816     0.0570     0.0453     4.1804     0.2584     0.0208     0.0043    44.8209   -42.9002     0.7897   129.3605   121.2838    65.5747    65.5854   -28.4367   250.5444     0.3746   184.9352     2.7608     6.7689     6.7824     0.0000  2664.0000     0.0000     0.0783     0.5325     0.0000     0.0000     0.0390     0.3502     0.0000
   4032.0000     7.2299     7.2591   981.5355   120.0942     0.4945     6.5893     6.5842     0.0851     0.0609     0.0466     5.1314     0.2484     0.0270     0.0043    44.8209   -42.8479     0.7947   130.5663   121.2904    65.5276    65.5815   -28.4130   250.6200     0.6144   185.0569     2.7711     6.7833     6.7780     0.0000  2614.0000     0.0000     0.0889     0.5628     0.0000     0.0000     0.0505     0.2978     0.0000
   4032.5000     7.2265     7.2707  1054.4131   120.0942     0.4986     6.5897     6.5897     0.0892     0.0554     0.0498     6.2274     0.2467     0.0190     0.0053    44.8209   -42.7957     0.8440   139.4993   121.2970    65.5232    65.5581   -28.3892   250.5896     0.3283   185.0311     2.7667     6.7836     6.7836     0.0000  2774.0000     0.0000     0.0740     0.5994     0.0000     0.0000     0.0356     0.2910     0.0000
   4033.0000     7.2308     7.2733  1059.3900   120.0942     0.5020     6.5865     6.5955     0.0865     0.0713     0.0498     8.4860     0.2315     0.0053     0.0058    44.8209   -42.7435     0.8919   145.3098   121.3036    65.5161    65.5584   -28.3655   251.0802     0.1016   185.5255     2.7532     6.7805     6.7899     0.0000  2727.0000     0.0000     0.1167     0.5753     0.0000     0.0000     0.0099     0.2980     0.0000
   4033.5000     7.2342     7.2630  1005.7095   120.0942     0.4986     6.5906     6.5855     0.0812     0.0791     0.0476     7.4788     0.2309     0.0000     0.0052    45.4062   -42.6912     0.8685   151.6059   121.3102    65.5437    65.5782   -28.3417   251.1935     0.2658   185.6104     2.7442     6.7849     6.7796     0.0000  2591.0000     0.0000     0.1379     0.5290     0.0000     0.0000     0.0000     0.3331     0.0000
   4034.0000     7.2387     7.2604  1025.2621   120.0942     0.4995     6.5976     6.5871     0.0733     0.0875     0.0431     6.3489     0.2351     0.0000     0.0042    45.9914   -42.6390     0.8693   149.7108   121.3168    65.4564    65.5502   -28.3180   251.2222     0.2751   185.7256     2.7374     6.7925     6.7815     0.0000  2704.0000     0.0000     0.1604     0.4592     0.0000     0.0000     0.0000     0.3804     0.0000
   4034.5000     7.2299     7.2578  1073.9656   120.0942     0.4938     6.5948     6.5893     0.0626     0.0993     0.0372     6.0281     0.2400     0.0000     0.0026    45.4062   -42.5868     0.8714   151.5499   121.3234    65.4838    65.5466   -28.2943   251.6279     0.4529   186.1014     2.7285     6.7891     6.7834     0.0000  2814.0000     0.0000     0.1920     0.3654     0.0000     0.0000     0.0000     0.4426     0.0000
   4035.0000     7.2273     7.2655  1049.4360   120.0942     0.4964     6.5899     6.5965     0.0563     0.1040     0.0336     7.2770     0.2455     0.0000     0.0020    44.8209   -42.5345     0.8774   147.6027   121.3300    65.5116    65.4836   -28.2705   251.5052     0.2703   185.9519     2.7227     6.7838     6.7908     0.0000  2699.0000     0.0000     0.2048     0.3098     0.0000     0.0000     0.0000     0.4854     0.0000
   4035.5000     7.2273     7.2681   996.1110   120.0942     0.4977     6.6040     6.5811     0.0531     0.1068     0.0316     8.5424     0.2481     0.0017     0.0017    44.8209   -42.4823     0.7863   147.6032   121.3366    65.4453    65.5063   -28.2467   251.4320     0.1456   185.9449     2.7214     6.7987     6.7746     0.0000  2632.0000     0.0000     0.2123     0.2820     0.0000     0.0000     0.0032     0.5025     0.0000
