~VERSION INFORMATION
VERS.           1.2   :CWLS Log ASCII Standard - VERSION 1.2
WRAP.           NO    :One Line per depth step
PROD.  Schlumberger   :LAS Producer
PROG.  DLIS to ASCII 17C0-152                          :LAS Program name and version
CREA.        2011/10/27 17:25                          :LAS Creation date {YYYY/MM/DD hh:mm}
DLIS_CREA.  2011-Oct-27 07:17                          :DLIS Creation date and time {YYYY-MMM-DD hh:mm}
SOURCE.     79519d1b-f2ac-4620-a9ab-fbce0bbece67       :DLIS File Name
#--------------------------------------------------
~WELL INFORMATION
#MNEM.UNIT      DATA             DESCRIPTION
#---- ------ --------------   -----------------------------
STRT .F      3722.5000       :START DEPTH     
STOP .F      4490.0000       :STOP DEPTH     
STEP .F       0.5000         :STEP       
NULL .          -999.25      :NULL VALUE
COMP .                 COMPANY:  SWEPI LP                           
WELL .                    WELL:  Harper Hill 2-29                   
FLD  .                   FIELD:  Swan                               
LOC  .                LOCATION:                                     
CNTY .                  COUNTY:  Moffat                             
STAT .                   STATE:  Colorado                           
CTRY .                 COUNTRY:                                     
SRVC .         SERVICE COMPANY:  Schlumberger                       
API  .              API NUMBER:  05-0081-07659                      
DATE .                LOG DATE:  26-Oct-2011
UWI  .          UNIQUE WELL ID:                                     
#-----------------------------------------------------------------------------
~PARAMETER INFORMATION
#MNEM.UNIT    VALUE                      DESCRIPTION
#---- -----   --------------------       ------------------------
CN   .        SWEPI LP                   :Company Name
WN   .        Harper Hill 2-29           :Well Name
FN   .        Swan                       :Field Name
FL   .                                   :Field Location
FL1  .                                   :Field Location Line 1
COUN .        Moffat                     :County or Rig Name
STAT .        Colorado                   :State or Province
NATI .                                   :Nation
DATE .        26-Oct-2011                :Date as Month-Day-Year
APIN .        05-0081-07659              :API Serial Number
SECT .        29                         :Section
TOWN .        5N                         :Township
RANG .        90W                        :Range
DMF  .        Kelly Bushing              :Drilling Measured From
LMF  .        Kelly Bushing              :Log Measured From
PDAT .        Ground Level               :Permanent Datum
ENGI .        Mark Kast                  :Engineer's Name
WITN .        Tony                       :Witness's Name
LATI .                                   :Latitude
LONG .                                   :Longitude
LUL  .        Rock Springs               :Logging Unit Location
LUN  .              2271                 :Logging Unit Number
RUN  .        Two                        :Run Number
SON  .                                   :Service Order Number
BHT  .DEGF     127.00000                 :Bottom Hole Temperature (used in calculations)
BS   .IN         6.75000                 :Bit Size
DFD  .LB/G       7.90000                 :Drilling Fluid Density
DFV  .S         44.00000                 :Drilling Fluid Viscosity
DFL  .C3        16.60000                 :Drilling Fluid Loss
RMFS .                                   :Resistivity of Mud Filtrate Sample
EKB  .F       6597.00000                 :Elevation of Kelly Bushing
EGL  .F       6585.00000                 :Elevation of Ground Level
BLI  .                                   :Bottom Log Interval
BSAL .PPM     44500.00000                :Borehole Salinity
FLEV .                                   :Fluid Level
MCST .                                   :Mud Cake Sample Temperature
MFST .                                   :Mud Filtrate Sample Temperature
MRT  .DEGF     127.00000                 :Maximum Recorded Temperature
MST  .                                   :Mud Sample Temperature
RMCS .                                   :Resistivity of Mud Cake Sample
RMS  .                                   :Resistivity of Mud Sample
RW   .OHMM       1.00000                 :Resistivity of Connate Water
TDD  .F       4480.00000                 :Total Depth - Driller
TDL  .F       4482.00000                 :Total Depth - Logger
TLI  .                                   :Top Log Interval
HIDE .                                   :Header Identifier
MATR .        SAND                       :Rock Matrix for Neutron Porosity Corrections
DFT  .        OBM                        :Drilling Fluid Type
DFPH .                                   :Drilling Fluid PH
MCSS .        N/A                        :Mud Cake Sample Source
MFSS .        N/A                        :Mud Filtrate Sample Source
MSS  .        N/A                        :Mud Sample Source
OS1  .                                   :Other Services Line 1
OS2  .                                   :Other Services Line 2
OS3  .                                   :Other Services Line 3
OS4  .                                   :Other Services Line 4
OS5  .                                   :Other Services Line 5
R1   .                                   :Remark Line 1
R2   .                                   :Remark Line 2
R3   .                                   :Remark Line 3
R4   .                                   :Remark Line 4
R5   .                                   :Remark Line 5
R6   .                                   :Remark Line 6
R7   .                                   :Remark Line 7
R8   .                                   :Remark Line 8
TCS  .        20 00                      :Time Circulation Stopped
TLAB .                                   :Time Logger At Bottom
EPD  .F         6585.000000              :Elevation of Permanent Datum above Mean Sea Level
APD  .F          12.000000               :Elevation of Depth Reference (LMF) above Permanent Datum
#-----------------------------------------------------------------------------
~CURVE INFORMATION
#MNEM.UNIT   API CODE                                  DESCRIPTION
#---- -----  --------                                  -----------------------
DEPT .F                                                :DEPTH (BOREHOLE) {F12.4}
C1_OBMT.IN                                             :OBMT Caliper 1 {F11.4}
C2_OBMT.IN                                             :OBMT Caliper 2 {F11.4}
CDF  .LBF                                              :Calibrated Downhole Force {F11.4}
CTEM .DEGF                                             :Cartridge Temperature {F11.4}
DCAL .IN                                               :Differential Caliper {F11.4}
DEVI .DEG                                              :Hole Deviation {F11.4}
DEVIM.DEG                                              :Memorized Deviation {F11.4}
DWAL_WALK2.                                            :Dry Weight Fraction Pseudo Aluminum (SpectroLith WALK2 Model) {F11.4}
DWCA_WALK2.                                            :Dry Weight Fraction Calcium (SpectroLith WALK2 Model) {F11.4}
DWFE_WALK2.                                            :Dry Weight Fraction Iron + 0.14 Aluminum (SpectroLith WALK2 Model) {F11.4}
DWGD_WALK2.PPM                                         :Dry Weight Fraction Gadolinium (SpectroLith WALK2 Model) {F11.4}
DWSI_WALK2.                                            :Dry Weight Fraction Silicon (SpectroLith WALK2 Model) {F11.4}
DWSU_WALK2.                                            :Dry Weight Fraction Sulfur (SpectroLith WALK2 Model) {F11.4}
DWTI_WALK2.                                            :Dry Weight Fraction Titanium (SpectroLith WALK2 Model) {F11.4}
ECST .DEGF                                             :ECS Temperature {F11.4}
ED   .F                                                :East Departure {F11.4}
ESUF_WALK2.                                            :Elemental Statistical Uncertainty Factor (SpectroLith WALK2 Model) {F11.4}
GR_EDTC.GAPI                                           :EDTC Gamma Ray {F11.4}
GTEM .DEGF                                             :Generalized Borehole Temperature {F11.4}
HAZI .DEG                                              :Hole Azimuth {F11.4}
HAZIM.DEG                                              :Hole Azimuth {F11.4}
ND   .F                                                :North Departure {F11.4}
P1AZ .DEG                                              :Pad 1 Azimuth {F11.4}
QCPMT.                                                 :Photomultiplier Tube Quality Control {F11.4}
RB   .DEG                                              :Relative Bearing {F11.4}
RHGE_WALK2.G/C3                                        :Matrix Density from Elemental Concentrations (SpectroLith WALK2 Model) {F11.4}
SDEV .DEG                                              :Sonde Deviation {F11.4}
SDEVM.DEG                                              :Sonde Deviation {F11.4}
STIT .F                                                :Stuck Tool Indicator, Total {F11.4}
TENS .LBF                                              :Cable Tension {F11.4}
WANH_WALK2.                                            :Dry Weight Fraction Anhydrite/Gypsum (SpectroLith WALK2 Model) {F11.4}
WCAR_WALK2.                                            :Dry Weight Fraction Carbonate (SpectroLith WALK2 Model) {F11.4}
WCLA_WALK2.                                            :Dry Weight Fraction Clay (SpectroLith WALK2 Model) {F11.4}
WCOA_WALK2.                                            :Dry Weight Fraction Coal (SpectroLith WALK2 Model) {F11.4}
WEVA_WALK2.                                            :Dry Weight Fraction Salt (SpectroLith WALK2 Model) {F11.4}
WPYR_WALK2.                                            :Dry Weight Fraction Pyrite (SpectroLith WALK2 Model) {F11.4}
WQFM_WALK2.                                            :Dry Weight Fraction Quartz+Feldspar+Mica (QFM) (SpectroLith WALK2 Model) {F11.4}
WSID_WALK2.                                            :Dry Weight Fraction Siderite (SpectroLith WALK2 Model) {F11.4}
#-----------------------------------------------------------------------------
# 
#      DEPT      C1_OBMT    C2_OBMT      CDF        CTEM       DCAL       DEVI      DEVIM    DWAL_WALK2 DWCA_WALK2 DWFE_WALK2 DWGD_WALK2 DWSI_WALK2 DWSU_WALK2 DWTI_WALK2    ECST        ED     ESUF_WALK2  GR_EDTC      GTEM       HAZI      HAZIM        ND        P1AZ      QCPMT        RB     RHGE_WALK2    SDEV      SDEVM       STIT       TENS    WANH_WALK2 WCAR_WALK2 WCLA_WALK2 WCOA_WALK2 WEVA_WALK2 WPYR_WALK2 WQFM_WALK2 WSID_WALK2
#
~A  
# ...
   3979.0000     7.2256     7.2509  1049.4360   122.0707     0.4882     6.4648     6.5134     0.0588     0.1159     0.0339     7.6358     0.2283     0.0000     0.0050    44.8209   -48.3752     0.7802   149.7589   120.5899    66.6988    66.3255   -30.8968   252.9966     0.3378   186.2557     2.7252     6.6525     6.7035     0.0000  2715.0000     0.0000     0.2368     0.3315     0.0000     0.0000     0.0000     0.4317     0.0000
   3979.5000     7.2317     7.2587  1054.4131   122.0707     0.4952     6.4795     6.5005     0.0562     0.1161     0.0323    11.2365     0.2328     0.0000     0.0050    44.8209   -48.3233     0.8148   142.3605   120.5965    66.6616    66.3433   -30.8741   253.1216     0.5989   186.4166     2.7223     6.6682     6.6903     0.0000  2764.0000     0.0000     0.2373     0.3087     0.0000     0.0000     0.0000     0.4540     0.0000
   3980.0000     7.2238     7.2604  1020.2850   122.0707     0.4921     6.4644     6.5129     0.0536     0.1272     0.0309    14.9745     0.2243     0.0000     0.0047    44.8209   -48.2714     0.8190   141.5531   120.6031    66.6895    66.3203   -30.8513   253.4658     0.8026   186.7311     2.7215     6.6520     6.7029     0.0000  2600.0000     0.0000     0.2672     0.2860     0.0000     0.0000     0.0000     0.4467     0.0000
   3980.5000     7.2290     7.2655  1025.2621   122.0707     0.4973     6.4703     6.5231     0.0500     0.1368     0.0293    13.2826     0.2191     0.0000     0.0033    44.8209   -48.2194     0.7767   138.8273   120.6097    66.6625    66.2704   -30.8285   253.3071     1.3742   186.6001     2.7202     6.6585     6.7138     0.0000  2722.0000     0.0000     0.2929     0.2547     0.0000     0.0000     0.0000     0.4524     0.0000
   3981.0000     7.1874     7.2612  1064.0116   122.0707     0.4742     6.4796     6.5047     0.0495     0.1380     0.0290    11.2728     0.2185     0.0000     0.0031    44.8209   -48.1675     0.7439   143.8933   120.6163    66.6248    66.2858   -30.8057   252.9440     0.0118   186.2767     2.7199     6.6661     6.6924     0.0000  2727.0000     0.0000     0.2962     0.2502     0.0000     0.0000     0.0000     0.4536     0.0000
   3981.5000     7.1944     7.2526  1015.6635   122.0707     0.4734     6.4785     6.5167     0.0513     0.1310     0.0302     7.7765     0.2234     0.0000     0.0029    44.8209   -48.1156     0.6985   141.0066   120.6229    66.6285    66.2819   -30.7829   253.1043     0.2078   186.4323     2.7209     6.6653     6.7053     0.0000  2636.0000     0.0000     0.2775     0.2655     0.0000     0.0000     0.0000     0.4571     0.0000
   3982.0000     7.2005     7.2604  1044.8146   121.8072     0.4804     6.4758     6.5286     0.0569     0.1292     0.0335     5.5777     0.2156     0.0000     0.0033    45.4062   -48.0636     0.6617   138.3311   120.6295    66.6244    66.2540   -30.7601   253.1059     0.3475   186.4381     2.7266     6.6627     6.7182     0.0000  2732.0000     0.0000     0.2725     0.3150     0.0000     0.0000     0.0000     0.4126     0.0000
   3982.5000     7.1970     7.2372  1068.9885   121.3295     0.4671     6.4794     6.5133     0.0594     0.1400     0.0349     3.0737     0.1987     0.0018     0.0030    45.9914   -48.0116     0.6450   136.5087   120.6361    66.5876    66.2886   -30.7372   253.5067     0.0000   186.8727     2.7331     6.6663     6.7020     0.0000  2743.0000     0.0000     0.3015     0.3367     0.0000     0.0000     0.0033     0.3585     0.0000
   3983.0000     7.1926     7.2234  1010.6865   121.3295     0.4580     6.4864     6.5160     0.0607     0.1612     0.0340     2.9110     0.1730     0.0159     0.0024    45.2111   -47.9597     0.6347   138.1264   120.6427    66.5984    66.2830   -30.7144   253.4598     0.0000   186.8154     2.7518     6.6734     6.7046     0.0000  2592.0000     0.0000     0.3587     0.3489     0.0000     0.0000     0.0297     0.2627     0.0000
   3983.5000     7.1918     7.2501  1010.6865   121.0825     0.4709     6.4791     6.5284     0.0559     0.1868     0.0308     3.8682     0.1520     0.0195     0.0018    44.8209   -47.9077     0.6632   136.2567   120.6494    66.6192    66.2382   -30.6915   253.4161     0.0457   186.7514     2.7545     6.6658     6.7175     0.0000  2682.0000     0.0000     0.4276     0.3063     0.0000     0.0000     0.0364     0.2297     0.0000
   3984.0000     7.1857     7.2234  1093.1626   121.0825     0.4545     6.4900     6.5263     0.0526     0.1998     0.0287     6.1257     0.1430     0.0200     0.0017    47.1620   -47.8557     0.6863   137.5032   120.6560    66.5711    66.2413   -30.6686   253.6992     0.1190   187.0804     2.7534     6.6768     6.7150     0.0000  2817.0000     0.0000     0.4624     0.2770     0.0000     0.0000     0.0374     0.2233     0.0000
   3984.5000     7.2100     7.2578  1068.9885   121.0166     0.4838     6.4941     6.5204     0.0496     0.1924     0.0283     5.6138     0.1556     0.0085     0.0020    47.1620   -47.8037     0.6602   130.4434   120.6626    66.5838    66.2366   -30.6457   253.6125     0.2445   186.9814     2.7379     6.6824     6.7100     0.0000  2683.0000     0.0000     0.4427     0.2506     0.0000     0.0000     0.0159     0.2909     0.0000
   3985.0000     7.2290     7.2681  1030.2390   121.2060     0.4985     6.4744     6.5312     0.0490     0.1719     0.0281     4.9113     0.1804     0.0057     0.0025    44.8209   -47.7517     0.6561   133.1441   120.6692    66.5902    66.1945   -30.6228   253.6774     0.0513   187.0398     2.7308     6.6627     6.7224     0.0000  2659.0000     0.0000     0.3875     0.2453     0.0000     0.0000     0.0107     0.3565     0.0000
   3985.5000     7.2273     7.2681  1073.9656   121.0825     0.4977     6.4897     6.5218     0.0480     0.1475     0.0280     2.7510     0.2102     0.0019     0.0026    44.8209   -47.6997     0.6981   131.9642   120.6758    66.5623    66.1854   -30.5999   253.5719     0.0000   186.9624     2.7219     6.6787     6.7124     0.0000  2809.0000     0.0000     0.3217     0.2370     0.0000     0.0000     0.0035     0.4378     0.0000
   3986.0000     7.2360     7.2612  1088.5410   121.0825     0.4986     6.4911     6.5239     0.0527     0.1289     0.0302     2.0473     0.2240     0.0058     0.0030    45.9914   -47.6477     0.7270   136.5535   120.6824    66.5289    66.1806   -30.5769   253.4623     0.0648   186.8867     2.7274     6.6806     6.7150     0.0000  2730.0000     0.0000     0.2717     0.2786     0.0000     0.0000     0.0108     0.4390     0.0000
   3986.5000     7.2360     7.2561  1010.6865   121.1483     0.4960     6.4846     6.5333     0.0584     0.1182     0.0338     1.0661     0.2262     0.0044     0.0033    45.9914   -47.5957     0.7366   138.6057   120.6890    66.5332    66.1603   -30.5540   253.3460     0.2396   186.7671     2.7306     6.6738     6.7249     0.0000  2645.0000     0.0000     0.2429     0.3286     0.0000     0.0000     0.0082     0.4202     0.0000
   3987.0000     7.2234     7.2458  1073.9656   120.7119     0.4846     6.4896     6.5281     0.0639     0.1196     0.0372     1.3884     0.2146     0.0027     0.0036    44.8209   -47.5437     0.7278   141.3993   120.6956    66.5039    66.1463   -30.5310   253.4260     0.3729   186.8756     2.7352     6.6784     6.7188     0.0000  2795.0000     0.0000     0.2468     0.3765     0.0000     0.0000     0.0051     0.3715     0.0000
   3987.5000     7.2144     7.2329  1088.5410   120.2178     0.4736     6.4995     6.5242     0.0622     0.1282     0.0367     2.4501     0.2072     0.0000     0.0032    44.8209   -47.4917     0.7209   150.9554   120.7022    66.4645    66.1759   -30.5080   253.2091     0.0679   186.6992     2.7325     6.6883     6.7143     0.0000  2737.0000     0.0000     0.2699     0.3614     0.0000     0.0000     0.0000     0.3687     0.0000
   3988.0000     7.2300     7.2604  1010.6865   120.3413     0.4952     6.4808     6.5373     0.0567     0.1437     0.0336     5.5671     0.1987     0.0000     0.0025    44.8209   -47.4397     0.7208   154.9550   120.7088    66.4882    66.1356   -30.4850   253.1870     0.0844   186.6539     2.7294     6.6695     6.7288     0.0000  2616.0000     0.0000     0.3117     0.3130     0.0000     0.0000     0.0000     0.3753     0.0000
