~VERSION INFORMATION
VERS.           1.2   :CWLS Log ASCII Standard - VERSION 1.2
WRAP.           NO    :One Line per depth step
PROD.  Schlumberger   :LAS Producer
PROG.  DLIS to ASCII 17C0-152                          :LAS Program name and version
CREA.        2011/10/27 17:24                          :LAS Creation date {YYYY/MM/DD hh:mm}
DLIS_CREA.  2011-Oct-27 07:22                          :DLIS Creation date and time {YYYY-MMM-DD hh:mm}
SOURCE.     7e486f41-920f-449c-9fc4-a1d2576f3c93       :DLIS File Name
#--------------------------------------------------
~WELL INFORMATION
#MNEM.UNIT      DATA             DESCRIPTION
#---- ------ --------------   -----------------------------
STRT .F      3201.5000       :START DEPTH     
STOP .F      4055.0000       :STOP DEPTH     
STEP .F       0.5000         :STEP       
NULL .          -999.25      :NULL VALUE
COMP .                 COMPANY:  SWEPI LP                           
WELL .                    WELL:  Harper Hill 2-29                   
FLD  .                   FIELD:  Swan                               
LOC  .                LOCATION:                                     
CNTY .                  COUNTY:  Moffat                             
STAT .                   STATE:  Colorado                           
CTRY .                 COUNTRY:                                     
SRVC .         SERVICE COMPANY:  Schlumberger                       
API  .              API NUMBER:  05-0081-07659                      
DATE .                LOG DATE:  26-Oct-2011
UWI  .          UNIQUE WELL ID:                                     
#-----------------------------------------------------------------------------
~PARAMETER INFORMATION
#MNEM.UNIT    VALUE                      DESCRIPTION
#---- -----   --------------------       ------------------------
CN   .        SWEPI LP                   :Company Name
WN   .        Harper Hill 2-29           :Well Name
FN   .        Swan                       :Field Name
FL   .                                   :Field Location
FL1  .                                   :Field Location Line 1
COUN .        Moffat                     :County or Rig Name
STAT .        Colorado                   :State or Province
NATI .                                   :Nation
DATE .        26-Oct-2011                :Date as Month-Day-Year
APIN .        05-0081-07659              :API Serial Number
SECT .        29                         :Section
TOWN .        5N                         :Township
RANG .        90W                        :Range
DMF  .        Kelly Bushing              :Drilling Measured From
LMF  .        Kelly Bushing              :Log Measured From
PDAT .        Ground Level               :Permanent Datum
ENGI .        Mark Kast                  :Engineer's Name
WITN .        Tony                       :Witness's Name
LATI .                                   :Latitude
LONG .                                   :Longitude
LUL  .        Rock Springs               :Logging Unit Location
LUN  .              2271                 :Logging Unit Number
RUN  .        Two                        :Run Number
SON  .                                   :Service Order Number
BHT  .DEGF     127.00000                 :Bottom Hole Temperature (used in calculations)
BS   .IN         6.75000                 :Bit Size
DFD  .LB/G       7.90000                 :Drilling Fluid Density
DFV  .S         44.00000                 :Drilling Fluid Viscosity
DFL  .C3        16.60000                 :Drilling Fluid Loss
RMFS .                                   :Resistivity of Mud Filtrate Sample
EKB  .F       6597.00000                 :Elevation of Kelly Bushing
EGL  .F       6585.00000                 :Elevation of Ground Level
BLI  .                                   :Bottom Log Interval
BSAL .PPM     44500.00000                :Borehole Salinity
FLEV .                                   :Fluid Level
MCST .                                   :Mud Cake Sample Temperature
MFST .                                   :Mud Filtrate Sample Temperature
MRT  .DEGF     127.00000                 :Maximum Recorded Temperature
MST  .                                   :Mud Sample Temperature
RMCS .                                   :Resistivity of Mud Cake Sample
RMS  .                                   :Resistivity of Mud Sample
RW   .OHMM       1.00000                 :Resistivity of Connate Water
TDD  .F       4480.00000                 :Total Depth - Driller
TDL  .F       4482.00000                 :Total Depth - Logger
TLI  .                                   :Top Log Interval
HIDE .                                   :Header Identifier
MATR .        SAND                       :Rock Matrix for Neutron Porosity Corrections
DFT  .        OBM                        :Drilling Fluid Type
DFPH .                                   :Drilling Fluid PH
MCSS .        N/A                        :Mud Cake Sample Source
MFSS .        N/A                        :Mud Filtrate Sample Source
MSS  .        N/A                        :Mud Sample Source
OS1  .                                   :Other Services Line 1
OS2  .                                   :Other Services Line 2
OS3  .                                   :Other Services Line 3
OS4  .                                   :Other Services Line 4
OS5  .                                   :Other Services Line 5
R1   .                                   :Remark Line 1
R2   .                                   :Remark Line 2
R3   .                                   :Remark Line 3
R4   .                                   :Remark Line 4
R5   .                                   :Remark Line 5
R6   .                                   :Remark Line 6
R7   .                                   :Remark Line 7
R8   .                                   :Remark Line 8
TCS  .        20 00                      :Time Circulation Stopped
TLAB .                                   :Time Logger At Bottom
EPD  .F         6585.000000              :Elevation of Permanent Datum above Mean Sea Level
APD  .F          12.000000               :Elevation of Depth Reference (LMF) above Permanent Datum
#-----------------------------------------------------------------------------
~CURVE INFORMATION
#MNEM.UNIT   API CODE                                  DESCRIPTION
#---- -----  --------                                  -----------------------
DEPT .F                                                :DEPTH (BOREHOLE) {F12.4}
C1_OBMT.IN                                             :OBMT Caliper 1 {F11.4}
C2_OBMT.IN                                             :OBMT Caliper 2 {F11.4}
CDF  .LBF                                              :Calibrated Downhole Force {F11.4}
CTEM .DEGF                                             :Cartridge Temperature {F11.4}
DCAL .IN                                               :Differential Caliper {F11.4}
DEVI .DEG                                              :Hole Deviation {F11.4}
DEVIM.DEG                                              :Memorized Deviation {F11.4}
DWAL_WALK2.                                            :Dry Weight Fraction Pseudo Aluminum (SpectroLith WALK2 Model) {F11.4}
DWCA_WALK2.                                            :Dry Weight Fraction Calcium (SpectroLith WALK2 Model) {F11.4}
DWFE_WALK2.                                            :Dry Weight Fraction Iron + 0.14 Aluminum (SpectroLith WALK2 Model) {F11.4}
DWGD_WALK2.PPM                                         :Dry Weight Fraction Gadolinium (SpectroLith WALK2 Model) {F11.4}
DWSI_WALK2.                                            :Dry Weight Fraction Silicon (SpectroLith WALK2 Model) {F11.4}
DWSU_WALK2.                                            :Dry Weight Fraction Sulfur (SpectroLith WALK2 Model) {F11.4}
DWTI_WALK2.                                            :Dry Weight Fraction Titanium (SpectroLith WALK2 Model) {F11.4}
ECST .DEGF                                             :ECS Temperature {F11.4}
ED   .F                                                :East Departure {F11.4}
ESUF_WALK2.                                            :Elemental Statistical Uncertainty Factor (SpectroLith WALK2 Model) {F11.4}
GR_EDTC.GAPI                                           :EDTC Gamma Ray {F11.4}
GTEM .DEGF                                             :Generalized Borehole Temperature {F11.4}
HAZI .DEG                                              :Hole Azimuth {F11.4}
HAZIM.DEG                                              :Hole Azimuth {F11.4}
ND   .F                                                :North Departure {F11.4}
P1AZ .DEG                                              :Pad 1 Azimuth {F11.4}
QCPMT.                                                 :Photomultiplier Tube Quality Control {F11.4}
RB   .DEG                                              :Relative Bearing {F11.4}
RHGE_WALK2.G/C3                                        :Matrix Density from Elemental Concentrations (SpectroLith WALK2 Model) {F11.4}
SDEV .DEG                                              :Sonde Deviation {F11.4}
SDEVM.DEG                                              :Sonde Deviation {F11.4}
STIT .F                                                :Stuck Tool Indicator, Total {F11.4}
TENS .LBF                                              :Cable Tension {F11.4}
WANH_WALK2.                                            :Dry Weight Fraction Anhydrite/Gypsum (SpectroLith WALK2 Model) {F11.4}
WCAR_WALK2.                                            :Dry Weight Fraction Carbonate (SpectroLith WALK2 Model) {F11.4}
WCLA_WALK2.                                            :Dry Weight Fraction Clay (SpectroLith WALK2 Model) {F11.4}
WCOA_WALK2.                                            :Dry Weight Fraction Coal (SpectroLith WALK2 Model) {F11.4}
WEVA_WALK2.                                            :Dry Weight Fraction Salt (SpectroLith WALK2 Model) {F11.4}
WPYR_WALK2.                                            :Dry Weight Fraction Pyrite (SpectroLith WALK2 Model) {F11.4}
WQFM_WALK2.                                            :Dry Weight Fraction Quartz+Feldspar+Mica (QFM) (SpectroLith WALK2 Model) {F11.4}
WSID_WALK2.                                            :Dry Weight Fraction Siderite (SpectroLith WALK2 Model) {F11.4}
#-----------------------------------------------------------------------------
# 
#      DEPT      C1_OBMT    C2_OBMT      CDF        CTEM       DCAL       DEVI      DEVIM    DWAL_WALK2 DWCA_WALK2 DWFE_WALK2 DWGD_WALK2 DWSI_WALK2 DWSU_WALK2 DWTI_WALK2    ECST        ED     ESUF_WALK2  GR_EDTC      GTEM       HAZI      HAZIM        ND        P1AZ      QCPMT        RB     RHGE_WALK2    SDEV      SDEVM       STIT       TENS    WANH_WALK2 WCAR_WALK2 WCLA_WALK2 WCOA_WALK2 WEVA_WALK2 WPYR_WALK2 WQFM_WALK2 WSID_WALK2
#
~A  
# ...
   3258.5000     4.9884     4.9416   874.5300   124.9695    -1.7850    27.0556    26.9833     0.0624     0.1249     0.0365     0.4425     0.2110     0.0000     0.0041    47.1620   -15.8572     1.2271   135.8167   111.0671    97.6369   213.0607    57.0399   284.7685     0.2438   186.3471     2.7315    27.2466    27.1743     0.0000  1887.0000     0.0000     0.2611     0.3632     0.0000     0.0000     0.0000     0.3757     0.0000
   3259.0000     4.9893     4.9399   879.5070   124.9695    -1.7855    27.0728    27.0074     0.0625     0.1228     0.0366     0.0000     0.2132     0.0000     0.0040    47.1620   -15.9801     1.2120   142.8764   111.0737   100.3790   212.5153    56.8491   282.0593     0.3364   181.4937     2.7314    27.2638    27.1985     0.0000  1984.0000     0.0000     0.2552     0.3645     0.0000     0.0000     0.0000     0.3803     0.0000
   3259.5000     4.9926     4.9431   864.9315   124.8378    -1.7822    27.1189    26.9160     0.0628     0.1228     0.0367     0.0000     0.2128     0.0000     0.0044    48.3325   -16.1012     1.1373   142.4854   111.0804   102.6575   212.0629    56.6575   301.6827     0.4923   197.0343     2.7314    27.3099    27.1073     0.0000  1891.0000     0.0000     0.2552     0.3671     0.0000     0.0000     0.0000     0.3776     0.0000
   3260.0000     4.9874     4.9414   864.9315   124.9695    -1.7857    27.2486    26.8539     0.0575     0.1391     0.0337     2.7224     0.2031     0.0000     0.0035    49.5030   -16.2207     1.0448   147.5815   111.0870   104.9330   211.7305    56.4655   292.4293     0.2188   186.6610     2.7288    27.4394    27.0446     0.0000  1944.0000     0.0000     0.2992     0.3200     0.0000     0.0000     0.0000     0.3808     0.0000
   3260.5000     4.9823     4.9416   879.5070   125.1013    -1.7881    27.2892    26.8224     0.0592     0.1334     0.0344     7.0155     0.2070     0.0036     0.0032    48.3325   -16.3390     0.9411   153.7842   111.0936   106.9204   211.4948    56.2733   295.1341     0.1048   187.2977     2.7333    27.4794    27.0124     0.0000  1961.0000     0.0000     0.2838     0.3351     0.0000     0.0000     0.0067     0.3744     0.0000
   3261.0000     4.9851     4.9431   840.4020   125.1013    -1.7859    27.4325    26.7764     0.0654     0.1134     0.0362     6.3080     0.2210     0.0181     0.0032    47.1620   -16.4565     0.9607   155.5171   111.1002   108.9461   211.3456    56.0809   291.9785     0.1063   182.6873     2.7503    27.6231    26.9670     0.0000  1857.0000     0.0000     0.2301     0.3897     0.0000     0.0000     0.0339     0.3463     0.0000
   3261.5000     4.9832     4.9416   898.7040   125.1013    -1.7876    27.4883    26.6509     0.0718     0.0943     0.0389     4.6237     0.2328     0.0252     0.0037    47.1620   -16.5731     0.9226   156.6576   111.1068   110.8100   211.1303    55.8887   296.7643     0.0000   185.2771     2.7605    27.6787    26.8413     0.0000  2002.0000     0.0000     0.1787     0.4463     0.0000     0.0000     0.0471     0.3278     0.0000
   3262.0000     4.9858     4.9416   869.5530   124.9695    -1.7863    27.5521    26.5806     0.0733     0.0877     0.0391     2.1539     0.2386     0.0294     0.0042    47.1620   -16.6887     0.9053   158.7881   111.1134   112.9174   211.0145    55.6968   306.4197     0.0000   191.9980     2.7646    27.7426    26.7713     0.0000  1882.0000     0.0000     0.1610     0.4591     0.0000     0.0000     0.0550     0.3249     0.0000
   3262.5000     4.9858     4.9416   864.9315   125.0354    -1.7863    27.5798    26.5968     0.0693     0.0927     0.0382     6.1924     0.2385     0.0183     0.0041    47.1620   -16.8040     0.8710   163.6298   111.1200   114.6650   210.9927    55.5050   304.2825     0.0000   188.5271     2.7508    27.7704    26.7875     0.0000  1906.0000     0.0000     0.1744     0.4243     0.0000     0.0000     0.0343     0.3670     0.0000
   3263.0000     4.9926     4.9431   898.7040   125.1013    -1.7822    27.6357    26.4414     0.0692     0.0887     0.0386     8.7214     0.2428     0.0156     0.0040    47.1620   -16.9187     0.8653   163.8093   111.1266   116.0258   210.8440    55.3135   308.5655     0.1107   191.1281     2.7476    27.8270    26.6329     0.0000  1989.0000     0.0000     0.1637     0.4236     0.0000     0.0000     0.0292     0.3835     0.0000
   3263.5000     4.9909     4.9431   859.9545   125.0354    -1.7831    27.7440    26.4113     0.0690     0.0884     0.0403    15.2813     0.2419     0.0031     0.0036    47.1620   -17.0328     0.8496   156.4184   111.1332   118.3186   210.8316    55.1224   303.1296     0.0699   184.2526     2.7360    27.9352    26.6026     0.0000  1840.0000     0.0000     0.1627     0.4216     0.0000     0.0000     0.0059     0.4098     0.0000
   3264.0000     4.9967     4.9372   894.0825   124.9695    -1.7831    27.4390    26.3923     0.0692     0.0864     0.0406    16.1207     0.2437     0.0036     0.0030    47.1620   -17.1467     0.8083   157.9174   111.1398   120.8694   210.8421    54.9315   305.5872     1.2712   184.1818     2.7367    27.6310    26.5843     0.0000  1986.0000     0.0000     0.1575     0.4232     0.0000     0.0000     0.0066     0.4126     0.0000
   3264.5000     4.9962     4.9365   894.0825   124.9119    -1.7838    27.3516    26.2193     0.0697     0.0850     0.0408    16.8384     0.2446     0.0045     0.0029    47.1620   -17.2601     0.7721   159.7862   111.1464   123.7079   210.7314    54.7412   302.6557     0.8504   179.0670     2.7380    27.5435    26.4113     0.0000  1971.0000     0.0000     0.1537     0.4273     0.0000     0.0000     0.0084     0.4106     0.0000
   3265.0000     5.0134     4.9517   854.9775   125.0354    -1.7676    27.3194    26.1999     0.0688     0.0778     0.0391    12.9677     0.2557     0.0138     0.0026    47.1620   -17.3730     0.7704   170.8575   111.1530   126.4906   210.7282    54.5514   302.7292     0.5738   176.6629     2.7446    27.5133    26.3938     0.0000  1862.0000     0.0000     0.1342     0.4198     0.0000     0.0000     0.0258     0.4202     0.0000
   3265.5000     5.0144     4.9502   898.7040   125.1013    -1.7678    27.3448    26.1469     0.0719     0.0697     0.0401    10.9818     0.2603     0.0191     0.0029    47.1620   -17.4857     0.8015   167.7965   111.1597   128.7068   210.7327    54.3618   308.2640     0.0000   179.6074     2.7514    27.5389    26.3409     0.0000  2037.0000     0.0000     0.1126     0.4471     0.0000     0.0000     0.0357     0.4047     0.0000
   3266.0000     5.0222     4.9880   854.9775   125.0354    -1.7449    27.2438    25.9697     0.0693     0.0747     0.0393     8.8908     0.2585     0.0151     0.0024    47.1620   -17.5977     0.8060   168.0318   111.1663   128.5882   210.6245    54.1729   306.6015     0.0492   178.2366     2.7460    27.4388    26.1646     0.0000  1882.0000     0.0000     0.1260     0.4242     0.0000     0.0000     0.0283     0.4216     0.0000
   3266.5000     5.0620     5.0343   728.7750   125.0354    -1.7019    25.9390    26.0036     0.0689     0.0785     0.0399     9.2064     0.2540     0.0082     0.0026    47.1620   -17.7094     0.8092   165.8055   111.1729   124.9239   210.6833    53.9844   307.8134     0.0000   182.5944     2.7396    26.1387    26.2032     0.0000  1721.0000     0.0000     0.1362     0.4204     0.0000     0.0000     0.0153     0.4281     0.0000
   3267.0000     5.0770     5.0613   675.4500   125.1589    -1.6808    23.7733    25.9136     0.0658     0.0994     0.0388     9.5336     0.2344     0.0036     0.0023    47.1620   -17.8210     0.7736   166.1673   111.1795   127.5618   210.6323    53.7961   306.9992     0.4380   179.4859     2.7356    23.9747    26.1147     0.0000  1514.0000     0.0000     0.1924     0.3935     0.0000     0.0000     0.0066     0.4075     0.0000
   3267.5000     5.1444     5.0929  1005.7095   125.1589    -1.6314    22.5013    25.7630     0.0667     0.1170     0.0383    10.0429     0.2132     0.0085     0.0031    47.1620   -17.9319     0.7665   166.1673   111.1861   132.1469   210.5526    53.6086   316.6833     0.6319   184.1859     2.7437    22.7108    25.9687     0.0000  2299.0000     0.0000     0.2398     0.4011     0.0000     0.0000     0.0160     0.3432     0.0000
