~VERSION INFORMATION
VERS.           1.2   :CWLS Log ASCII Standard - VERSION 1.2
WRAP.           NO    :One Line per depth step
PROD.  Schlumberger   :LAS Producer
PROG.  DLIS to ASCII 17C0-152                          :LAS Program name and version
CREA.        2011/10/27 17:25                          :LAS Creation date {YYYY/MM/DD hh:mm}
DLIS_CREA.  2011-Oct-27 07:30                          :DLIS Creation date and time {YYYY-MMM-DD hh:mm}
SOURCE.     9895fb31-02c7-4189-bf8e-52df0b775dd1       :DLIS File Name
#--------------------------------------------------
~WELL INFORMATION
#MNEM.UNIT      DATA             DESCRIPTION
#---- ------ --------------   -----------------------------
STRT .F      3344.0000       :START DEPTH     
STOP .F      3862.5000       :STOP DEPTH     
STEP .F       0.5000         :STEP       
NULL .          -999.25      :NULL VALUE
COMP .                 COMPANY:  SWEPI LP                           
WELL .                    WELL:  Harper Hill 2-29                   
FLD  .                   FIELD:  Swan                               
LOC  .                LOCATION:                                     
CNTY .                  COUNTY:  Moffat                             
STAT .                   STATE:  Colorado                           
CTRY .                 COUNTRY:                                     
SRVC .         SERVICE COMPANY:  Schlumberger                       
API  .              API NUMBER:  05-0081-07659                      
DATE .                LOG DATE:  26-Oct-2011
UWI  .          UNIQUE WELL ID:                                     
#-----------------------------------------------------------------------------
~PARAMETER INFORMATION
#MNEM.UNIT    VALUE                      DESCRIPTION
#---- -----   --------------------       ------------------------
CN   .        SWEPI LP                   :Company Name
WN   .        Harper Hill 2-29           :Well Name
FN   .        Swan                       :Field Name
FL   .                                   :Field Location
FL1  .                                   :Field Location Line 1
COUN .        Moffat                     :County or Rig Name
STAT .        Colorado                   :State or Province
NATI .                                   :Nation
DATE .        26-Oct-2011                :Date as Month-Day-Year
APIN .        05-0081-07659              :API Serial Number
SECT .        29                         :Section
TOWN .        5N                         :Township
RANG .        90W                        :Range
DMF  .        Kelly Bushing              :Drilling Measured From
LMF  .        Kelly Bushing              :Log Measured From
PDAT .        Ground Level               :Permanent Datum
ENGI .        Mark Kast                  :Engineer's Name
WITN .        Tony                       :Witness's Name
LATI .                                   :Latitude
LONG .                                   :Longitude
LUL  .        Rock Springs               :Logging Unit Location
LUN  .              2271                 :Logging Unit Number
RUN  .        Two                        :Run Number
SON  .                                   :Service Order Number
BHT  .DEGF     127.00000                 :Bottom Hole Temperature (used in calculations)
BS   .IN         6.75000                 :Bit Size
DFD  .LB/G       7.90000                 :Drilling Fluid Density
DFV  .S         44.00000                 :Drilling Fluid Viscosity
DFL  .C3        16.60000                 :Drilling Fluid Loss
RMFS .                                   :Resistivity of Mud Filtrate Sample
EKB  .F       6597.00000                 :Elevation of Kelly Bushing
EGL  .F       6585.00000                 :Elevation of Ground Level
BLI  .                                   :Bottom Log Interval
BSAL .PPM     44500.00000                :Borehole Salinity
FLEV .                                   :Fluid Level
MCST .                                   :Mud Cake Sample Temperature
MFST .                                   :Mud Filtrate Sample Temperature
MRT  .DEGF     127.00000                 :Maximum Recorded Temperature
MST  .                                   :Mud Sample Temperature
RMCS .                                   :Resistivity of Mud Cake Sample
RMS  .                                   :Resistivity of Mud Sample
RW   .OHMM       1.00000                 :Resistivity of Connate Water
TDD  .F       4480.00000                 :Total Depth - Driller
TDL  .F       4482.00000                 :Total Depth - Logger
TLI  .                                   :Top Log Interval
HIDE .                                   :Header Identifier
MATR .        SAND                       :Rock Matrix for Neutron Porosity Corrections
DFT  .        OBM                        :Drilling Fluid Type
DFPH .                                   :Drilling Fluid PH
MCSS .        N/A                        :Mud Cake Sample Source
MFSS .        N/A                        :Mud Filtrate Sample Source
MSS  .        N/A                        :Mud Sample Source
OS1  .                                   :Other Services Line 1
OS2  .                                   :Other Services Line 2
OS3  .                                   :Other Services Line 3
OS4  .                                   :Other Services Line 4
OS5  .                                   :Other Services Line 5
R1   .                                   :Remark Line 1
R2   .                                   :Remark Line 2
R3   .                                   :Remark Line 3
R4   .                                   :Remark Line 4
R5   .                                   :Remark Line 5
R6   .                                   :Remark Line 6
R7   .                                   :Remark Line 7
R8   .                                   :Remark Line 8
TCS  .        20 00                      :Time Circulation Stopped
TLAB .                                   :Time Logger At Bottom
EPD  .F         6585.000000              :Elevation of Permanent Datum above Mean Sea Level
APD  .F          12.000000               :Elevation of Depth Reference (LMF) above Permanent Datum
#-----------------------------------------------------------------------------
~CURVE INFORMATION
#MNEM.UNIT   API CODE                                  DESCRIPTION
#---- -----  --------                                  -----------------------
DEPT .F                                                :DEPTH (BOREHOLE) {F12.4}
C1_OBMT.IN                                             :OBMT Caliper 1 {F11.4}
C2_OBMT.IN                                             :OBMT Caliper 2 {F11.4}
CDF  .LBF                                              :Calibrated Downhole Force {F11.4}
CTEM .DEGF                                             :Cartridge Temperature {F11.4}
DCAL .IN                                               :Differential Caliper {F11.4}
DEVI .DEG                                              :Hole Deviation {F11.4}
DEVIM.DEG                                              :Memorized Deviation {F11.4}
DWAL_WALK2.                                            :Dry Weight Fraction Pseudo Aluminum (SpectroLith WALK2 Model) {F11.4}
DWCA_WALK2.                                            :Dry Weight Fraction Calcium (SpectroLith WALK2 Model) {F11.4}
DWFE_WALK2.                                            :Dry Weight Fraction Iron + 0.14 Aluminum (SpectroLith WALK2 Model) {F11.4}
DWGD_WALK2.PPM                                         :Dry Weight Fraction Gadolinium (SpectroLith WALK2 Model) {F11.4}
DWSI_WALK2.                                            :Dry Weight Fraction Silicon (SpectroLith WALK2 Model) {F11.4}
DWSU_WALK2.                                            :Dry Weight Fraction Sulfur (SpectroLith WALK2 Model) {F11.4}
DWTI_WALK2.                                            :Dry Weight Fraction Titanium (SpectroLith WALK2 Model) {F11.4}
ECST .DEGF                                             :ECS Temperature {F11.4}
ED   .F                                                :East Departure {F11.4}
ESUF_WALK2.                                            :Elemental Statistical Uncertainty Factor (SpectroLith WALK2 Model) {F11.4}
GR_EDTC.GAPI                                           :EDTC Gamma Ray {F11.4}
GTEM .DEGF                                             :Generalized Borehole Temperature {F11.4}
HAZI .DEG                                              :Hole Azimuth {F11.4}
HAZIM.DEG                                              :Hole Azimuth {F11.4}
ND   .F                                                :North Departure {F11.4}
P1AZ .DEG                                              :Pad 1 Azimuth {F11.4}
QCPMT.                                                 :Photomultiplier Tube Quality Control {F11.4}
RB   .DEG                                              :Relative Bearing {F11.4}
RHGE_WALK2.G/C3                                        :Matrix Density from Elemental Concentrations (SpectroLith WALK2 Model) {F11.4}
SDEV .DEG                                              :Sonde Deviation {F11.4}
SDEVM.DEG                                              :Sonde Deviation {F11.4}
STIT .F                                                :Stuck Tool Indicator, Total {F11.4}
TENS .LBF                                              :Cable Tension {F11.4}
WANH_WALK2.                                            :Dry Weight Fraction Anhydrite/Gypsum (SpectroLith WALK2 Model) {F11.4}
WCAR_WALK2.                                            :Dry Weight Fraction Carbonate (SpectroLith WALK2 Model) {F11.4}
WCLA_WALK2.                                            :Dry Weight Fraction Clay (SpectroLith WALK2 Model) {F11.4}
WCOA_WALK2.                                            :Dry Weight Fraction Coal (SpectroLith WALK2 Model) {F11.4}
WEVA_WALK2.                                            :Dry Weight Fraction Salt (SpectroLith WALK2 Model) {F11.4}
WPYR_WALK2.                                            :Dry Weight Fraction Pyrite (SpectroLith WALK2 Model) {F11.4}
WQFM_WALK2.                                            :Dry Weight Fraction Quartz+Feldspar+Mica (QFM) (SpectroLith WALK2 Model) {F11.4}
WSID_WALK2.                                            :Dry Weight Fraction Siderite (SpectroLith WALK2 Model) {F11.4}
#-----------------------------------------------------------------------------
# 
#      DEPT      C1_OBMT    C2_OBMT      CDF        CTEM       DCAL       DEVI      DEVIM    DWAL_WALK2 DWCA_WALK2 DWFE_WALK2 DWGD_WALK2 DWSI_WALK2 DWSU_WALK2 DWTI_WALK2    ECST        ED     ESUF_WALK2  GR_EDTC      GTEM       HAZI      HAZIM        ND        P1AZ      QCPMT        RB     RHGE_WALK2    SDEV      SDEVM       STIT       TENS    WANH_WALK2 WCAR_WALK2 WCLA_WALK2 WCOA_WALK2 WEVA_WALK2 WPYR_WALK2 WQFM_WALK2 WSID_WALK2
#
~A  
# ...
   3448.5000     7.1892     7.2268  1093.1626   124.0472     0.4580     8.4066     8.3408     0.0584     0.1070     0.0327     4.4598     0.2403     0.0158     0.0020    48.3325   -16.0524     0.7246   140.4193   113.5783   193.8121   193.9749    21.7193    23.4525     0.0000   189.5318     2.7402     8.6880     8.6191     0.0000  2468.0000     0.0000     0.2128     0.3287     0.0000     0.0000     0.0295     0.4290     0.0000
   3449.0000     7.1918     7.2311  1049.4360   124.0472     0.4615     8.3845     8.3592     0.0621     0.0994     0.0352     4.3351     0.2424     0.0115     0.0029    48.7227   -16.0699     0.7136   140.4193   113.5849   193.8457   193.9729    21.6489    23.5825     0.0192   189.6278     2.7383     8.6650     8.6386     0.0000  2283.0000     0.0000     0.1925     0.3605     0.0000     0.0000     0.0215     0.4255     0.0000
   3449.5000     7.1970     7.2277  1015.6635   124.0472     0.4624     8.3849     8.3274     0.0641     0.1001     0.0365     4.8712     0.2378     0.0113     0.0029    49.5030   -16.0874     0.7145   144.5082   113.5916   193.9114   193.9630    21.5785    23.6051     0.0000   189.5852     2.7406     8.6658     8.6057     0.0000  2174.0000     0.0000     0.1942     0.3787     0.0000     0.0000     0.0212     0.4059     0.0000
   3450.0000     7.1926     7.2268  1088.5410   124.0472     0.4597     8.4068     8.3381     0.0673     0.1058     0.0381     5.5737     0.2257     0.0149     0.0025    48.9178   -16.1049     0.6647   144.1416   113.5982   193.9903   193.9590    21.5082    24.5020     0.0000   190.3937     2.7487     8.6885     8.6165     0.0000  2499.0000     0.0000     0.2097     0.4068     0.0000     0.0000     0.0278     0.3558     0.0000
   3450.5000     7.1988     7.2243  1054.4131   124.0472     0.4615     8.3910     8.3516     0.0723     0.0978     0.0397     4.4895     0.2275     0.0255     0.0025    48.3325   -16.1224     0.6655   143.3627   113.6048   194.0124   193.9494    21.4377    25.3581     0.0000   191.2193     2.7628     8.6724     8.6311     0.0000  2336.0000     0.0000     0.1880     0.4504     0.0000     0.0000     0.0477     0.3139     0.0000
   3451.0000     7.1961     7.2182  1010.6865   124.0472     0.4572     8.3699     8.3215     0.0780     0.0844     0.0418     3.3853     0.2340     0.0331     0.0032    48.3325   -16.1399     0.6548   143.5574   113.6114   194.0674   193.9464    21.3674    25.3839     0.0000   191.1910     2.7736     8.6501     8.5994     0.0000  2267.0000     0.0000     0.1521     0.5008     0.0000     0.0000     0.0620     0.2851     0.0000
   3451.5000     7.1918     7.2191  1039.8375   124.0472     0.4555     8.3967     8.3311     0.0826     0.0681     0.0439     1.5548     0.2455     0.0363     0.0041    48.3325   -16.1573     0.6963   146.6518   113.6180   194.0830   193.9498    21.2971    25.6207     0.0000   191.4091     2.7782     8.6779     8.6091     0.0000  2381.0000     0.0000     0.1083     0.5414     0.0000     0.0000     0.0679     0.2825     0.0000
   3452.0000     7.1953     7.2191   996.1110   124.0472     0.4572     8.3839     8.3448     0.0788     0.0671     0.0426     2.3833     0.2525     0.0285     0.0041    48.3325   -16.1748     0.7049   154.2455   113.6246   194.0981   193.9533    21.2267    25.8321     0.0547   191.6037     2.7665     8.6647     8.6237     0.0000  2231.0000     0.0000     0.1056     0.5079     0.0000     0.0000     0.0533     0.3332     0.0000
   3452.5000     7.1935     7.2174  1001.0880   124.0472     0.4554     8.3598     8.3165     0.0741     0.0749     0.0406     2.7963     0.2510     0.0233     0.0036    48.3325   -16.1923     0.7155   152.6879   113.6312   194.1181   193.9522    21.1564    25.7434     0.0165   191.4969     2.7582     8.6393     8.5939     0.0000  2271.0000     0.0000     0.1266     0.4665     0.0000     0.0000     0.0437     0.3632     0.0000
   3453.0000     7.1901     7.2208  1044.8146   124.0472     0.4554     8.3866     8.3261     0.0668     0.0899     0.0373     3.2028     0.2457     0.0185     0.0025    49.5030   -16.2097     0.6708   148.3692   113.6378   194.1452   193.9467    21.0862    25.4503     0.0000   191.1792     2.7489     8.6672     8.6037     0.0000  2358.0000     0.0000     0.1669     0.4020     0.0000     0.0000     0.0347     0.3963     0.0000
   3453.5000     7.1901     7.2243   996.1110   124.0472     0.4572     8.3757     8.3398     0.0654     0.0988     0.0363     2.4484     0.2379     0.0200     0.0023    49.5030   -16.2272     0.6469   141.1867   113.6444   194.1384   193.9565    21.0159    25.4458     0.0003   191.1818     2.7503     8.6557     8.6181     0.0000  2186.0000     0.0000     0.1908     0.3899     0.0000     0.0000     0.0374     0.3819     0.0000
   3454.0000     7.1866     7.2260  1010.6865   124.0472     0.4563     8.3631     8.3214     0.0646     0.1072     0.0364     2.1836     0.2292     0.0154     0.0024    48.3325   -16.2446     0.6223   135.1527   113.6510   194.1459   193.9444    20.9456    25.5139     0.0941   191.2423     2.7465     8.6423     8.5985     0.0000  2297.0000     0.0000     0.2133     0.3824     0.0000     0.0000     0.0289     0.3754     0.0000
   3454.5000     7.1805     7.2251  1049.4360   124.0472     0.4528     8.3769     8.3114     0.0683     0.1086     0.0380     3.2152     0.2214     0.0179     0.0032    48.3325   -16.2621     0.6256   134.9105   113.6576   194.1463   193.9350    20.8754    25.8096     0.0000   191.5341     2.7526     8.6563     8.5876     0.0000  2401.0000     0.0000     0.2171     0.4152     0.0000     0.0000     0.0334     0.3342     0.0000
   3455.0000     7.1814     7.2277   996.1110   124.0472     0.4545     8.3693     8.3343     0.0710     0.1056     0.0387     3.5415     0.2209     0.0240     0.0036    48.3325   -16.2795     0.6184   129.6317   113.6642   194.1276   193.9417    20.8051    25.9375     0.0000   191.6793     2.7605     8.6484     8.6117     0.0000  2258.0000     0.0000     0.2091     0.4394     0.0000     0.0000     0.0449     0.3067     0.0000
   3455.5000     7.1831     7.2294   996.1110   124.0472     0.4563     8.3555     8.3197     0.0715     0.0996     0.0373     3.7049     0.2286     0.0352     0.0038    48.3325   -16.2969     0.6305   136.0551   113.6709   194.1225   193.9344    20.7349    25.9441     0.0000   191.6914     2.7702     8.6340     8.5966     0.0000  2269.0000     0.0000     0.1928     0.4434     0.0000     0.0000     0.0658     0.2980     0.0000
   3456.0000     7.1866     7.2277  1044.8146   124.0472     0.4571     8.3759     8.3014     0.0679     0.0930     0.0345     1.9291     0.2433     0.0410     0.0032    48.3325   -16.3143     0.6346   140.5809   113.6775   194.1177   193.9136    20.6647    25.4500     0.0538   191.2065     2.7707     8.6557     8.5776     0.0000  2393.0000     0.0000     0.1752     0.4120     0.0000     0.0000     0.0741     0.3387     0.0000
   3456.5000     7.1936     7.2311   986.5125   124.0472     0.4623     8.3652     8.3224     0.0630     0.0969     0.0325     2.0742     0.2465     0.0356     0.0028    48.3325   -16.3317     0.6766   139.9967   113.6841   194.1028   193.9388    20.5946    25.2214     0.2584   190.9953     2.7614     8.6450     8.6001     0.0000  2210.0000     0.0000     0.1858     0.3690     0.0000     0.0000     0.0665     0.3787     0.0000
   3457.0000     7.1953     7.2277  1010.6865   124.0472     0.4615     8.3457     8.3098     0.0587     0.1004     0.0310     1.9229     0.2492     0.0282     0.0024    48.3325   -16.3491     0.6634   136.1025   113.6907   194.0858   193.9314    20.5244    25.2008     0.0481   190.9924     2.7505     8.6247     8.5870     0.0000  2347.0000     0.0000     0.1951     0.3312     0.0000     0.0000     0.0527     0.4210     0.0000
   3457.5000     7.1953     7.2277  1039.8375   124.0472     0.4615     8.3711     8.2960     0.0573     0.1071     0.0314     3.7403     0.2427     0.0170     0.0031    48.3325   -16.3665     0.6915   130.4762   113.6973   194.1014   193.9372    20.4543    25.1010     0.0000   190.8774     2.7392     8.6513     8.5725     0.0000  2335.0000     0.0000     0.2132     0.3186     0.0000     0.0000     0.0318     0.4364     0.0000
