~VERSION INFORMATION
VERS.           1.2   :CWLS Log ASCII Standard - VERSION 1.2
WRAP.           NO    :One Line per depth step
PROD.  Schlumberger   :LAS Producer
PROG.  DLIS to ASCII 17C0-152                          :LAS Program name and version
CREA.        2011/10/27 17:25                          :LAS Creation date {YYYY/MM/DD hh:mm}
DLIS_CREA.  2011-Oct-27 07:17                          :DLIS Creation date and time {YYYY-MMM-DD hh:mm}
SOURCE.     79519d1b-f2ac-4620-a9ab-fbce0bbece67       :DLIS File Name
#--------------------------------------------------
~WELL INFORMATION
#MNEM.UNIT      DATA             DESCRIPTION
#---- ------ --------------   -----------------------------
STRT .F      3722.5000       :START DEPTH     
STOP .F      4490.0000       :STOP DEPTH     
STEP .F       0.5000         :STEP       
NULL .          -999.25      :NULL VALUE
COMP .                 COMPANY:  SWEPI LP                           
WELL .                    WELL:  Harper Hill 2-29                   
FLD  .                   FIELD:  Swan                               
LOC  .                LOCATION:                                     
CNTY .                  COUNTY:  Moffat                             
STAT .                   STATE:  Colorado                           
CTRY .                 COUNTRY:                                     
SRVC .         SERVICE COMPANY:  Schlumberger                       
API  .              API NUMBER:  05-0081-07659                      
DATE .                LOG DATE:  26-Oct-2011
UWI  .          UNIQUE WELL ID:                                     
#-----------------------------------------------------------------------------
~PARAMETER INFORMATION
#MNEM.UNIT    VALUE                      DESCRIPTION
#---- -----   --------------------       ------------------------
CN   .        SWEPI LP                   :Company Name
WN   .        Harper Hill 2-29           :Well Name
FN   .        Swan                       :Field Name
FL   .                                   :Field Location
FL1  .                                   :Field Location Line 1
COUN .        Moffat                     :County or Rig Name
STAT .        Colorado                   :State or Province
NATI .                                   :Nation
DATE .        26-Oct-2011                :Date as Month-Day-Year
APIN .        05-0081-07659              :API Serial Number
SECT .        29                         :Section
TOWN .        5N                         :Township
RANG .        90W                        :Range
DMF  .        Kelly Bushing              :Drilling Measured From
LMF  .        Kelly Bushing              :Log Measured From
PDAT .        Ground Level               :Permanent Datum
ENGI .        Mark Kast                  :Engineer's Name
WITN .        Tony                       :Witness's Name
LATI .                                   :Latitude
LONG .                                   :Longitude
LUL  .        Rock Springs               :Logging Unit Location
LUN  .              2271                 :Logging Unit Number
RUN  .        Two                        :Run Number
SON  .                                   :Service Order Number
BHT  .DEGF     127.00000                 :Bottom Hole Temperature (used in calculations)
BS   .IN         6.75000                 :Bit Size
DFD  .LB/G       7.90000                 :Drilling Fluid Density
DFV  .S         44.00000                 :Drilling Fluid Viscosity
DFL  .C3        16.60000                 :Drilling Fluid Loss
RMFS .                                   :Resistivity of Mud Filtrate Sample
EKB  .F       6597.00000                 :Elevation of Kelly Bushing
EGL  .F       6585.00000                 :Elevation of Ground Level
BLI  .                                   :Bottom Log Interval
BSAL .PPM     44500.00000                :Borehole Salinity
FLEV .                                   :Fluid Level
MCST .                                   :Mud Cake Sample Temperature
MFST .                                   :Mud Filtrate Sample Temperature
MRT  .DEGF     127.00000                 :Maximum Recorded Temperature
MST  .                                   :Mud Sample Temperature
RMCS .                                   :Resistivity of Mud Cake Sample
RMS  .                                   :Resistivity of Mud Sample
RW   .OHMM       1.00000                 :Resistivity of Connate Water
TDD  .F       4480.00000                 :Total Depth - Driller
TDL  .F       4482.00000                 :Total Depth - Logger
TLI  .                                   :Top Log Interval
HIDE .                                   :Header Identifier
MATR .        SAND                       :Rock Matrix for Neutron Porosity Corrections
DFT  .        OBM                        :Drilling Fluid Type
DFPH .                                   :Drilling Fluid PH
MCSS .        N/A                        :Mud Cake Sample Source
MFSS .        N/A                        :Mud Filtrate Sample Source
MSS  .        N/A                        :Mud Sample Source
OS1  .                                   :Other Services Line 1
OS2  .                                   :Other Services Line 2
OS3  .                                   :Other Services Line 3
OS4  .                                   :Other Services Line 4
OS5  .                                   :Other Services Line 5
R1   .                                   :Remark Line 1
R2   .                                   :Remark Line 2
R3   .                                   :Remark Line 3
R4   .                                   :Remark Line 4
R5   .                                   :Remark Line 5
R6   .                                   :Remark Line 6
R7   .                                   :Remark Line 7
R8   .                                   :Remark Line 8
TCS  .        20 00                      :Time Circulation Stopped
TLAB .                                   :Time Logger At Bottom
EPD  .F         6585.000000              :Elevation of Permanent Datum above Mean Sea Level
APD  .F          12.000000               :Elevation of Depth Reference (LMF) above Permanent Datum
#-----------------------------------------------------------------------------
~CURVE INFORMATION
#MNEM.UNIT   API CODE                                  DESCRIPTION
#---- -----  --------                                  -----------------------
DEPT .F                                                :DEPTH (BOREHOLE) {F12.4}
C1_OBMT.IN                                             :OBMT Caliper 1 {F11.4}
C2_OBMT.IN                                             :OBMT Caliper 2 {F11.4}
CDF  .LBF                                              :Calibrated Downhole Force {F11.4}
CTEM .DEGF                                             :Cartridge Temperature {F11.4}
DCAL .IN                                               :Differential Caliper {F11.4}
DEVI .DEG                                              :Hole Deviation {F11.4}
DEVIM.DEG                                              :Memorized Deviation {F11.4}
DWAL_WALK2.                                            :Dry Weight Fraction Pseudo Aluminum (SpectroLith WALK2 Model) {F11.4}
DWCA_WALK2.                                            :Dry Weight Fraction Calcium (SpectroLith WALK2 Model) {F11.4}
DWFE_WALK2.                                            :Dry Weight Fraction Iron + 0.14 Aluminum (SpectroLith WALK2 Model) {F11.4}
DWGD_WALK2.PPM                                         :Dry Weight Fraction Gadolinium (SpectroLith WALK2 Model) {F11.4}
DWSI_WALK2.                                            :Dry Weight Fraction Silicon (SpectroLith WALK2 Model) {F11.4}
DWSU_WALK2.                                            :Dry Weight Fraction Sulfur (SpectroLith WALK2 Model) {F11.4}
DWTI_WALK2.                                            :Dry Weight Fraction Titanium (SpectroLith WALK2 Model) {F11.4}
ECST .DEGF                                             :ECS Temperature {F11.4}
ED   .F                                                :East Departure {F11.4}
ESUF_WALK2.                                            :Elemental Statistical Uncertainty Factor (SpectroLith WALK2 Model) {F11.4}
GR_EDTC.GAPI                                           :EDTC Gamma Ray {F11.4}
GTEM .DEGF                                             :Generalized Borehole Temperature {F11.4}
HAZI .DEG                                              :Hole Azimuth {F11.4}
HAZIM.DEG                                              :Hole Azimuth {F11.4}
ND   .F                                                :North Departure {F11.4}
P1AZ .DEG                                              :Pad 1 Azimuth {F11.4}
QCPMT.                                                 :Photomultiplier Tube Quality Control {F11.4}
RB   .DEG                                              :Relative Bearing {F11.4}
RHGE_WALK2.G/C3                                        :Matrix Density from Elemental Concentrations (SpectroLith WALK2 Model) {F11.4}
SDEV .DEG                                              :Sonde Deviation {F11.4}
SDEVM.DEG                                              :Sonde Deviation {F11.4}
STIT .F                                                :Stuck Tool Indicator, Total {F11.4}
TENS .LBF                                              :Cable Tension {F11.4}
WANH_WALK2.                                            :Dry Weight Fraction Anhydrite/Gypsum (SpectroLith WALK2 Model) {F11.4}
WCAR_WALK2.                                            :Dry Weight Fraction Carbonate (SpectroLith WALK2 Model) {F11.4}
WCLA_WALK2.                                            :Dry Weight Fraction Clay (SpectroLith WALK2 Model) {F11.4}
WCOA_WALK2.                                            :Dry Weight Fraction Coal (SpectroLith WALK2 Model) {F11.4}
WEVA_WALK2.                                            :Dry Weight Fraction Salt (SpectroLith WALK2 Model) {F11.4}
WPYR_WALK2.                                            :Dry Weight Fraction Pyrite (SpectroLith WALK2 Model) {F11.4}
WQFM_WALK2.                                            :Dry Weight Fraction Quartz+Feldspar+Mica (QFM) (SpectroLith WALK2 Model) {F11.4}
WSID_WALK2.                                            :Dry Weight Fraction Siderite (SpectroLith WALK2 Model) {F11.4}
#-----------------------------------------------------------------------------
# 
#      DEPT      C1_OBMT    C2_OBMT      CDF        CTEM       DCAL       DEVI      DEVIM    DWAL_WALK2 DWCA_WALK2 DWFE_WALK2 DWGD_WALK2 DWSI_WALK2 DWSU_WALK2 DWTI_WALK2    ECST        ED     ESUF_WALK2  GR_EDTC      GTEM       HAZI      HAZIM        ND        P1AZ      QCPMT        RB     RHGE_WALK2    SDEV      SDEVM       STIT       TENS    WANH_WALK2 WCAR_WALK2 WCLA_WALK2 WCOA_WALK2 WEVA_WALK2 WPYR_WALK2 WQFM_WALK2 WSID_WALK2
#
~A  
# ...
   4178.5000     7.2421     7.3017  1068.9885   114.1648     0.5218     6.3521     6.3480     0.0594     0.0921     0.0347     7.1100     0.2547     0.0000     0.0040    44.8209   -28.2057     0.7510   126.9038   123.2266    60.0516    59.2253   -20.9053   240.2778     0.0000   180.2248     2.7226     6.5350     6.5308     0.0000  2798.0000     0.0000     0.1727     0.3369     0.0000     0.0000     0.0000     0.4904     0.0000
   4179.0000     7.2325     7.2887  1020.2850   114.1648     0.5106     6.3503     6.3509     0.0623     0.1031     0.0364     8.3996     0.2366     0.0000     0.0041    44.8209   -28.1582     0.6915   120.6919   123.2332    60.0275    59.2155   -20.8770   240.3216     0.4646   180.2921     2.7277     6.5327     6.5333     0.0000  2688.0000     0.0000     0.2024     0.3623     0.0000     0.0000     0.0000     0.4353     0.0000
   4179.5000     7.2369     7.2707  1068.9885   114.1648     0.5038     6.3589     6.3475     0.0643     0.1093     0.0378     7.3103     0.2257     0.0000     0.0038    44.8209   -28.1107     0.6083   124.9077   123.2399    59.9916    59.1897   -20.8487   240.4576     0.3062   180.4629     2.7312     6.5419     6.5300     0.0000  2875.0000     0.0000     0.2189     0.3802     0.0000     0.0000     0.0000     0.4009     0.0000
   4180.0000     7.2317     7.2724  1064.0116   114.1648     0.5020     6.3559     6.3482     0.0632     0.1170     0.0369     5.4279     0.2188     0.0042     0.0028    44.8209   -28.0632     0.5836   124.4404   123.2465    59.9651    59.1626   -20.8203   240.2882     0.0000   180.3209     2.7359     6.5385     6.5305     0.0000  2810.0000     0.0000     0.2397     0.3706     0.0000     0.0000     0.0079     0.3818     0.0000
   4180.5000     7.2387     7.2707  1059.3900   114.1648     0.5047     6.3513     6.3492     0.0624     0.1107     0.0361     4.5584     0.2278     0.0077     0.0024    44.8209   -28.0158     0.5853   124.9726   123.2531    59.9610    59.1499   -20.7920   240.2315     0.0000   180.2689     2.7375     6.5340     6.5319     0.0000  2784.0000     0.0000     0.2229     0.3637     0.0000     0.0000     0.0143     0.3992     0.0000
   4181.0000     7.2334     7.2759  1068.9885   114.1648     0.5046     6.3562     6.3497     0.0591     0.1090     0.0346     7.3337     0.2353     0.0048     0.0021    44.8209   -27.9683     0.5811   123.2072   123.2597    59.9398    59.1311   -20.7636   239.7786     0.1587   179.8399     2.7310     6.5390     6.5321     0.0000  2851.0000     0.0000     0.2182     0.3347     0.0000     0.0000     0.0090     0.4381     0.0000
   4181.5000     7.2299     7.2716  1054.4131   114.1648     0.5007     6.3585     6.3508     0.0586     0.0977     0.0349     9.6075     0.2489     0.0000     0.0023    44.8209   -27.9208     0.6096   127.2380   123.2663    59.9161    59.1228   -20.7352   239.6315     1.3196   179.7173     2.7240     6.5412     6.5330     0.0000  2734.0000     0.0000     0.1877     0.3304     0.0000     0.0000     0.0000     0.4819     0.0000
   4182.0000     7.2733     7.3154  1054.4131   114.1648     0.5444     6.3522     6.3491     0.0611     0.0956     0.0364    10.6182     0.2469     0.0000     0.0024    45.4062   -27.8734     0.6493   125.7722   123.2729    59.8926    59.0991   -20.7069   239.4349     0.7468   179.5452     2.7263     6.5367     6.5335     0.0000  2867.0000     0.0000     0.1822     0.3516     0.0000     0.0000     0.0000     0.4661     0.0000
   4182.5000     7.2751     7.3120  1078.5870   114.1648     0.5435     6.3493     6.3480     0.0648     0.0928     0.0384     8.3569     0.2437     0.0008     0.0027    45.9914   -27.8260     0.6551   128.4788   123.2795    59.8829    59.0732   -20.6784   238.9883     0.0101   179.1112     2.7305     6.5338     6.5324     0.0000  2820.0000     0.0000     0.1748     0.3842     0.0000     0.0000     0.0014     0.4396     0.0000
   4183.0000     7.2491     7.3103  1034.8606   114.1648     0.5296     6.3555     6.3529     0.0673     0.0933     0.0395     6.1698     0.2391     0.0028     0.0030    45.2111   -27.7785     0.6395   125.1809   123.2861    59.8488    59.0380   -20.6500   238.8742     0.3200   179.0317     2.7350     6.5390     6.5362     0.0000  2749.0000     0.0000     0.1759     0.4062     0.0000     0.0000     0.0052     0.4127     0.0000
   4183.5000     7.2326     7.2742  1068.9885   114.1648     0.5033     6.3640     6.3553     0.0669     0.0908     0.0395     3.8208     0.2424     0.0017     0.0029    44.8209   -27.7311     0.6665   130.5135   123.2927    59.8047    59.0238   -20.6215   238.3266     0.4647   178.5315     2.7333     6.5471     6.5379     0.0000  2871.0000     0.0000     0.1693     0.4033     0.0000     0.0000     0.0032     0.4242     0.0000
   4184.0000     7.2290     7.2716  1054.4131   114.1648     0.5003     6.3486     6.3462     0.0675     0.0856     0.0401     2.8481     0.2472     0.0000     0.0030    44.8209   -27.6837     0.6603   128.5664   123.2993    59.7983    59.0010   -20.5931   238.5706     0.5757   178.7802     2.7314     6.5308     6.5282     0.0000  2778.0000     0.0000     0.1554     0.4084     0.0000     0.0000     0.0000     0.4362     0.0000
   4184.5000     7.2352     7.2707  1049.4360   114.1648     0.5029     6.3533     6.3497     0.0709     0.0740     0.0420     3.3842     0.2549     0.0013     0.0030    44.8209   -27.6363     0.6506   127.2839   123.3059    59.7731    59.0077   -20.5646   238.7309     0.1436   178.9645     2.7345     6.5359     6.5322     0.0000  2827.0000     0.0000     0.1239     0.4384     0.0000     0.0000     0.0025     0.4352     0.0000
   4185.0000     7.2282     7.2707  1073.9656   113.2347     0.4995     6.3512     6.3510     0.0733     0.0630     0.0432     5.2123     0.2637     0.0023     0.0033    44.8209   -27.5889     0.6446   127.1024   123.3126    59.7643    58.9975   -20.5361   239.3732     0.0440   179.6114     2.7359     6.5334     6.5332     0.0000  2885.0000     0.0000     0.0944     0.4592     0.0000     0.0000     0.0042     0.4422     0.0000
   4185.5000     7.2144     7.2535  1030.2390   113.1184     0.4839     6.3553     6.3414     0.0748     0.0521     0.0442     7.7455     0.2734     0.0011     0.0034    44.8209   -27.5415     0.7008   127.0086   123.3192    59.7302    58.9833   -20.5076   239.5962     0.2029   179.8669     2.7346     6.5370     6.5224     0.0000  2763.0000     0.0000     0.0653     0.4727     0.0000     0.0000     0.0020     0.4600     0.0000
   4186.0000     7.2261     7.2604  1044.8146   113.1766     0.4932     6.3522     6.3502     0.0736     0.0529     0.0435     8.8308     0.2747     0.0000     0.0038    44.8209   -27.4941     0.7272   127.5766   123.3258    59.7112    58.9669   -20.4792   239.5484     0.7025   179.8383     2.7322     6.5344     6.5322     0.0000  2810.0000     0.0000     0.0673     0.4621     0.0000     0.0000     0.0000     0.4706     0.0000
   4186.5000     7.2455     7.2896  1059.3900   113.2347     0.5175     6.3538     6.3466     0.0772     0.0530     0.0454     8.5578     0.2684     0.0000     0.0046    44.8209   -27.4468     0.7414   125.4348   123.3324    59.6990    58.9611   -20.4506   239.3173     0.6625   179.6208     2.7356     6.5370     6.5295     0.0000  2859.0000     0.0000     0.0677     0.4936     0.0000     0.0000     0.0000     0.4387     0.0000
   4187.0000     7.2334     7.2694  1020.2850   113.0022     0.5014     6.3537     6.3330     0.0740     0.0716     0.0434     6.0020     0.2525     0.0000     0.0046    44.8209   -27.3995     0.6888   128.2041   123.3390    59.6695    58.9629   -20.4222   239.2565     0.3542   179.5898     2.7352     6.5363     6.5145     0.0000  2737.0000     0.0000     0.1175     0.4657     0.0000     0.0000     0.0000     0.4167     0.0000
   4187.5000     7.2339     7.2690  1005.7095   112.7697     0.5014     6.3472     6.3443     0.0685     0.0921     0.0402     4.2584     0.2384     0.0000     0.0042    44.8209   -27.3522     0.6826   130.0160   123.3456    59.6470    58.9143   -20.3937   239.2481     0.5829   179.6038     2.7327     6.5295     6.5265     0.0000  2714.0000     0.0000     0.1728     0.4168     0.0000     0.0000     0.0000     0.4104     0.0000
