~VERSION INFORMATION
VERS.           1.2   :CWLS Log ASCII Standard - VERSION 1.2
WRAP.           NO    :One Line per depth step
PROD.  Schlumberger   :LAS Producer
PROG.  DLIS to ASCII 17C0-152                          :LAS Program name and version
CREA.        2011/10/27 17:25                          :LAS Creation date {YYYY/MM/DD hh:mm}
DLIS_CREA.  2011-Oct-27 07:17                          :DLIS Creation date and time {YYYY-MMM-DD hh:mm}
SOURCE.     79519d1b-f2ac-4620-a9ab-fbce0bbece67       :DLIS File Name
#--------------------------------------------------
~WELL INFORMATION
#MNEM.UNIT      DATA             DESCRIPTION
#---- ------ --------------   -----------------------------
STRT .F      3722.5000       :START DEPTH     
STOP .F      4490.0000       :STOP DEPTH     
STEP .F       0.5000         :STEP       
NULL .          -999.25      :NULL VALUE
COMP .                 COMPANY:  SWEPI LP                           
WELL .                    WELL:  Harper Hill 2-29                   
FLD  .                   FIELD:  Swan                               
LOC  .                LOCATION:                                     
CNTY .                  COUNTY:  Moffat                             
STAT .                   STATE:  Colorado                           
CTRY .                 COUNTRY:                                     
SRVC .         SERVICE COMPANY:  Schlumberger                       
API  .              API NUMBER:  05-0081-07659                      
DATE .                LOG DATE:  26-Oct-2011
UWI  .          UNIQUE WELL ID:                                     
#-----------------------------------------------------------------------------
~PARAMETER INFORMATION
#MNEM.UNIT    VALUE                      DESCRIPTION
#---- -----   --------------------       ------------------------
CN   .        SWEPI LP                   :Company Name
WN   .        Harper Hill 2-29           :Well Name
FN   .        Swan                       :Field Name
FL   .                                   :Field Location
FL1  .                                   :Field Location Line 1
COUN .        Moffat                     :County or Rig Name
STAT .        Colorado                   :State or Province
NATI .                                   :Nation
DATE .        26-Oct-2011                :Date as Month-Day-Year
APIN .        05-0081-07659              :API Serial Number
SECT .        29                         :Section
TOWN .        5N                         :Township
RANG .        90W                        :Range
DMF  .        Kelly Bushing              :Drilling Measured From
LMF  .        Kelly Bushing              :Log Measured From
PDAT .        Ground Level               :Permanent Datum
ENGI .        Mark Kast                  :Engineer's Name
WITN .        Tony                       :Witness's Name
LATI .                                   :Latitude
LONG .                                   :Longitude
LUL  .        Rock Springs               :Logging Unit Location
LUN  .              2271                 :Logging Unit Number
RUN  .        Two                        :Run Number
SON  .                                   :Service Order Number
BHT  .DEGF     127.00000                 :Bottom Hole Temperature (used in calculations)
BS   .IN         6.75000                 :Bit Size
DFD  .LB/G       7.90000                 :Drilling Fluid Density
DFV  .S         44.00000                 :Drilling Fluid Viscosity
DFL  .C3        16.60000                 :Drilling Fluid Loss
RMFS .                                   :Resistivity of Mud Filtrate Sample
EKB  .F       6597.00000                 :Elevation of Kelly Bushing
EGL  .F       6585.00000                 :Elevation of Ground Level
BLI  .                                   :Bottom Log Interval
BSAL .PPM     44500.00000                :Borehole Salinity
FLEV .                                   :Fluid Level
MCST .                                   :Mud Cake Sample Temperature
MFST .                                   :Mud Filtrate Sample Temperature
MRT  .DEGF     127.00000                 :Maximum Recorded Temperature
MST  .                                   :Mud Sample Temperature
RMCS .                                   :Resistivity of Mud Cake Sample
RMS  .                                   :Resistivity of Mud Sample
RW   .OHMM       1.00000                 :Resistivity of Connate Water
TDD  .F       4480.00000                 :Total Depth - Driller
TDL  .F       4482.00000                 :Total Depth - Logger
TLI  .                                   :Top Log Interval
HIDE .                                   :Header Identifier
MATR .        SAND                       :Rock Matrix for Neutron Porosity Corrections
DFT  .        OBM                        :Drilling Fluid Type
DFPH .                                   :Drilling Fluid PH
MCSS .        N/A                        :Mud Cake Sample Source
MFSS .        N/A                        :Mud Filtrate Sample Source
MSS  .        N/A                        :Mud Sample Source
OS1  .                                   :Other Services Line 1
OS2  .                                   :Other Services Line 2
OS3  .                                   :Other Services Line 3
OS4  .                                   :Other Services Line 4
OS5  .                                   :Other Services Line 5
R1   .                                   :Remark Line 1
R2   .                                   :Remark Line 2
R3   .                                   :Remark Line 3
R4   .                                   :Remark Line 4
R5   .                                   :Remark Line 5
R6   .                                   :Remark Line 6
R7   .                                   :Remark Line 7
R8   .                                   :Remark Line 8
TCS  .        20 00                      :Time Circulation Stopped
TLAB .                                   :Time Logger At Bottom
EPD  .F         6585.000000              :Elevation of Permanent Datum above Mean Sea Level
APD  .F          12.000000               :Elevation of Depth Reference (LMF) above Permanent Datum
#-----------------------------------------------------------------------------
~CURVE INFORMATION
#MNEM.UNIT   API CODE                                  DESCRIPTION
#---- -----  --------                                  -----------------------
DEPT .F                                                :DEPTH (BOREHOLE) {F12.4}
C1_OBMT.IN                                             :OBMT Caliper 1 {F11.4}
C2_OBMT.IN                                             :OBMT Caliper 2 {F11.4}
CDF  .LBF                                              :Calibrated Downhole Force {F11.4}
CTEM .DEGF                                             :Cartridge Temperature {F11.4}
DCAL .IN                                               :Differential Caliper {F11.4}
DEVI .DEG                                              :Hole Deviation {F11.4}
DEVIM.DEG                                              :Memorized Deviation {F11.4}
DWAL_WALK2.                                            :Dry Weight Fraction Pseudo Aluminum (SpectroLith WALK2 Model) {F11.4}
DWCA_WALK2.                                            :Dry Weight Fraction Calcium (SpectroLith WALK2 Model) {F11.4}
DWFE_WALK2.                                            :Dry Weight Fraction Iron + 0.14 Aluminum (SpectroLith WALK2 Model) {F11.4}
DWGD_WALK2.PPM                                         :Dry Weight Fraction Gadolinium (SpectroLith WALK2 Model) {F11.4}
DWSI_WALK2.                                            :Dry Weight Fraction Silicon (SpectroLith WALK2 Model) {F11.4}
DWSU_WALK2.                                            :Dry Weight Fraction Sulfur (SpectroLith WALK2 Model) {F11.4}
DWTI_WALK2.                                            :Dry Weight Fraction Titanium (SpectroLith WALK2 Model) {F11.4}
ECST .DEGF                                             :ECS Temperature {F11.4}
ED   .F                                                :East Departure {F11.4}
ESUF_WALK2.                                            :Elemental Statistical Uncertainty Factor (SpectroLith WALK2 Model) {F11.4}
GR_EDTC.GAPI                                           :EDTC Gamma Ray {F11.4}
GTEM .DEGF                                             :Generalized Borehole Temperature {F11.4}
HAZI .DEG                                              :Hole Azimuth {F11.4}
HAZIM.DEG                                              :Hole Azimuth {F11.4}
ND   .F                                                :North Departure {F11.4}
P1AZ .DEG                                              :Pad 1 Azimuth {F11.4}
QCPMT.                                                 :Photomultiplier Tube Quality Control {F11.4}
RB   .DEG                                              :Relative Bearing {F11.4}
RHGE_WALK2.G/C3                                        :Matrix Density from Elemental Concentrations (SpectroLith WALK2 Model) {F11.4}
SDEV .DEG                                              :Sonde Deviation {F11.4}
SDEVM.DEG                                              :Sonde Deviation {F11.4}
STIT .F                                                :Stuck Tool Indicator, Total {F11.4}
TENS .LBF                                              :Cable Tension {F11.4}
WANH_WALK2.                                            :Dry Weight Fraction Anhydrite/Gypsum (SpectroLith WALK2 Model) {F11.4}
WCAR_WALK2.                                            :Dry Weight Fraction Carbonate (SpectroLith WALK2 Model) {F11.4}
WCLA_WALK2.                                            :Dry Weight Fraction Clay (SpectroLith WALK2 Model) {F11.4}
WCOA_WALK2.                                            :Dry Weight Fraction Coal (SpectroLith WALK2 Model) {F11.4}
WEVA_WALK2.                                            :Dry Weight Fraction Salt (SpectroLith WALK2 Model) {F11.4}
WPYR_WALK2.                                            :Dry Weight Fraction Pyrite (SpectroLith WALK2 Model) {F11.4}
WQFM_WALK2.                                            :Dry Weight Fraction Quartz+Feldspar+Mica (QFM) (SpectroLith WALK2 Model) {F11.4}
WSID_WALK2.                                            :Dry Weight Fraction Siderite (SpectroLith WALK2 Model) {F11.4}
#-----------------------------------------------------------------------------
# 
#      DEPT      C1_OBMT    C2_OBMT      CDF        CTEM       DCAL       DEVI      DEVIM    DWAL_WALK2 DWCA_WALK2 DWFE_WALK2 DWGD_WALK2 DWSI_WALK2 DWSU_WALK2 DWTI_WALK2    ECST        ED     ESUF_WALK2  GR_EDTC      GTEM       HAZI      HAZIM        ND        P1AZ      QCPMT        RB     RHGE_WALK2    SDEV      SDEVM       STIT       TENS    WANH_WALK2 WCAR_WALK2 WCLA_WALK2 WCOA_WALK2 WEVA_WALK2 WPYR_WALK2 WQFM_WALK2 WSID_WALK2
#
~A  
# ...
   4330.5000     7.2741     7.2630  1015.6635   104.2824     0.5185     6.3777     6.4364     0.0687     0.0496     0.0405    11.0475     0.2873     0.0000     0.0036    44.8209   -14.3020     0.6933   135.2521   125.2356    53.3117    52.6334   -11.6022   216.8105     1.2848   163.6011     2.7262     6.5635     6.6250     0.0000  2821.0000     0.0000     0.0585     0.4189     0.0000     0.0000     0.0000     0.5226     0.0000
   4331.0000     7.2733     7.2621  1064.0116   104.2824     0.5177     6.3789     6.4413     0.0662     0.0526     0.0390    11.5444     0.2883     0.0000     0.0036    44.8209   -14.2574     0.7365   140.2130   125.2422    53.2895    52.6169   -11.5682   216.8399     1.1332   163.6524     2.7239     6.5647     6.6302     0.0000  2927.0000     0.0000     0.0666     0.3970     0.0000     0.0000     0.0000     0.5364     0.0000
   4331.5000     7.2706     7.2784  1059.3900   104.2824     0.5245     6.3867     6.4462     0.0682     0.0394     0.0398    10.3983     0.3006     0.0000     0.0048    44.8209   -14.2128     0.8197   137.6817   125.2488    53.2678    52.5958   -11.5341   216.8774     0.3594   163.7115     2.7230     6.5728     6.6352     0.0000  2900.0000     0.0000     0.0309     0.4145     0.0000     0.0000     0.0000     0.5546     0.0000
   4332.0000     7.2672     7.2819  1025.2621   104.2824     0.5245     6.3799     6.4455     0.0712     0.0211     0.0409     7.5423     0.3172     0.0023     0.0059    44.8209   -14.1683     0.8351   136.6867   125.2554    53.2285    52.5667   -11.5000   216.8442     0.1248   163.7175     2.7246     6.5655     6.6344     0.0000  2829.0000     0.0000     0.0000     0.4412     0.0000     0.0000     0.0043     0.5545     0.0000
   4332.5000     7.2637     7.2922  1064.0116   104.2824     0.5279     6.3861     6.4491     0.0709     0.0133     0.0397     3.3570     0.3278     0.0069     0.0068    44.8209   -14.1237     0.8338   128.7035   125.2620    53.2094    52.5398   -11.4658   216.7849     0.0343   163.6777     2.7265     6.5720     6.6380     0.0000  2965.0000     0.0000     0.0000     0.4384     0.0000     0.0000     0.0130     0.5486     0.0000
   4333.0000     7.2663     7.2741  1049.4360   104.2824     0.5202     6.3940     6.4519     0.0700     0.0156     0.0399     2.6790     0.3260     0.0026     0.0064    45.9914   -14.0791     0.8252   132.4030   125.2686    53.1772    52.5200   -11.4317   216.5339     0.1412   163.4604     2.7222     6.5802     6.6411     0.0000  2843.0000     0.0000     0.0000     0.4304     0.0000     0.0000     0.0049     0.5647     0.0000
   4333.5000     7.2663     7.2819  1005.7095   104.2824     0.5241     6.3845     6.4527     0.0692     0.0253     0.0401     3.6914     0.3155     0.0000     0.0056    47.1620   -14.0345     0.7780   135.9078   125.2753    53.1818    52.5025   -11.3975   216.5228     0.3091   163.4444     2.7211     6.5703     6.6419     0.0000  2812.0000     0.0000     0.0000     0.4235     0.0000     0.0000     0.0000     0.5765     0.0000
   4334.0000     7.2689     7.2681  1068.9885   104.2824     0.5185     6.3907     6.4560     0.0694     0.0340     0.0406     8.6552     0.3047     0.0000     0.0046    44.8209   -13.9899     0.7584   143.8791   125.2819    53.1566    52.4886   -11.3633   216.6001     0.4182   163.5466     2.7235     6.5769     6.6455     0.0000  2964.0000     0.0000     0.0166     0.4246     0.0000     0.0000     0.0000     0.5589     0.0000
   4334.5000     7.2724     7.2750  1054.4131   104.2824     0.5237     6.3979     6.4565     0.0668     0.0352     0.0392     9.1349     0.3078     0.0000     0.0040    44.8209   -13.9453     0.7728   146.7997   125.2885    53.1153    52.4619   -11.3290   216.5698     0.6718   163.5578     2.7213     6.5847     6.6461     0.0000  2898.0000     0.0000     0.0198     0.4017     0.0000     0.0000     0.0000     0.5785     0.0000
   4335.0000     7.2724     7.2733  1010.6865   104.2824     0.5228     6.3890     6.4654     0.0681     0.0212     0.0400     6.2955     0.3218     0.0000     0.0041    44.8209   -13.9007     0.7627   146.4103   125.2951    53.1096    52.4445   -11.2947   216.5852     0.1101   163.5784     2.7203     6.5753     6.6555     0.0000  2802.0000     0.0000     0.0000     0.4132     0.0000     0.0000     0.0000     0.5868     0.0000
   4335.5000     7.2758     7.2870  1059.3900   104.2824     0.5314     6.3923     6.4648     0.0705     0.0162     0.0416     1.7600     0.3232     0.0003     0.0038    44.8209   -13.8561     0.7383   144.4751   125.3017    53.0897    52.4284   -11.2604   216.7164     0.2697   163.7289     2.7227     6.5789     6.6551     0.0000  2956.0000     0.0000     0.0000     0.4350     0.0000     0.0000     0.0006     0.5644     0.0000
   4336.0000     7.2741     7.2956  1059.3900   104.2824     0.5349     6.3993     6.4614     0.0751     0.0142     0.0445     0.0000     0.3171     0.0000     0.0037    45.9914   -13.8115     0.7539   140.9703   125.3083    53.0560    52.4286   -11.2261   216.5751     0.0738   163.6220     2.7274     6.5863     6.6514     0.0000  2867.0000     0.0000     0.0000     0.4755     0.0000     0.0000     0.0000     0.5245     0.0000
   4336.5000     7.2729     7.2957  1001.0880   104.2824     0.5342     6.3907     6.4721     0.0761     0.0290     0.0452     1.1780     0.2979     0.0000     0.0032    45.2111   -13.7669     0.7084   144.4992   125.3149    53.0585    52.4069   -11.1917   216.5127     0.8632   163.5572     2.7313     6.5772     6.6627     0.0000  2817.0000     0.0000     0.0029     0.4843     0.0000     0.0000     0.0000     0.5128     0.0000
   4337.0000     7.2724     7.2939  1068.9885   104.2824     0.5331     6.3989     6.4758     0.0789     0.0216     0.0467     1.2416     0.3016     0.0000     0.0038    43.6503   -13.7222     0.7496   142.9313   125.3215    53.0270    52.3900   -11.1573   216.4857     0.0179   163.5619     2.7329     6.5858     6.6665     0.0000  2974.0000     0.0000     0.0000     0.5088     0.0000     0.0000     0.0000     0.4912     0.0000
   4337.5000     7.2715     7.2750  1068.9885   104.2824     0.5232     6.4045     6.4700     0.0797     0.0200     0.0470     2.7801     0.3024     0.0000     0.0042    44.2356   -13.6776     0.7748   145.0731   125.3281    53.0106    52.3886   -11.1229   216.2954     0.6206   163.3892     2.7331     6.5916     6.6603     0.0000  2876.0000     0.0000     0.0000     0.5153     0.0000     0.0000     0.0000     0.4847     0.0000
   4338.0000     7.2681     7.2673  1015.6635   104.2824     0.5177     6.3937     6.4824     0.0825     0.0118     0.0483     3.7304     0.3073     0.0000     0.0053    44.8209   -13.6329     0.8180   139.4023   125.3347    53.0222    52.3713   -11.0885   216.3142     0.2520   163.3960     2.7340     6.5799     6.6731     0.0000  2837.0000     0.0000     0.0000     0.5403     0.0000     0.0000     0.0000     0.4597     0.0000
   4338.5000     7.2637     7.2973  1059.3900   104.2824     0.5305     6.4034     6.4846     0.0794     0.0373     0.0465     6.9187     0.2830     0.0000     0.0051    44.2356   -13.5882     0.7830   135.3437   125.3413    52.9969    52.3531   -11.0540   216.4159     0.2707   163.5225     2.7351     6.5901     6.6753     0.0000  2927.0000     0.0000     0.0253     0.5131     0.0000     0.0000     0.0000     0.4617     0.0000
   4339.0000     7.2637     7.2939  1068.9885   104.2824     0.5288     6.4060     6.4816     0.0754     0.0573     0.0437     8.5439     0.2672     0.0032     0.0049    43.6503   -13.5435     0.7769   126.7764   125.3479    52.9684    52.3520   -11.0196   216.4040     0.0814   163.5392     2.7371     6.5929     6.6721     0.0000  2906.0000     0.0000     0.0791     0.4776     0.0000     0.0000     0.0061     0.4372     0.0000
   4339.5000     7.2664     7.2742  1030.2390   104.2824     0.5203     6.3983     6.4942     0.0677     0.0805     0.0392     8.1658     0.2538     0.0066     0.0032    44.2356   -13.4988     0.7172   128.1394   125.3546    52.9691    52.3307   -10.9850   216.3651     0.0802   163.4995     2.7367     6.5848     6.6854     0.0000  2834.0000     0.0000     0.1416     0.4100     0.0000     0.0000     0.0123     0.4361     0.0000
