~VERSION INFORMATION
VERS.           1.2   :CWLS Log ASCII Standard - VERSION 1.2
WRAP.           NO    :One Line per depth step
PROD.  Schlumberger   :LAS Producer
PROG.  DLIS to ASCII 17C0-152                          :LAS Program name and version
CREA.        2011/10/27 17:25                          :LAS Creation date {YYYY/MM/DD hh:mm}
DLIS_CREA.  2011-Oct-27 07:17                          :DLIS Creation date and time {YYYY-MMM-DD hh:mm}
SOURCE.     79519d1b-f2ac-4620-a9ab-fbce0bbece67       :DLIS File Name
#--------------------------------------------------
~WELL INFORMATION
#MNEM.UNIT      DATA             DESCRIPTION
#---- ------ --------------   -----------------------------
STRT .F      3722.5000       :START DEPTH     
STOP .F      4490.0000       :STOP DEPTH     
STEP .F       0.5000         :STEP       
NULL .          -999.25      :NULL VALUE
COMP .                 COMPANY:  SWEPI LP                           
WELL .                    WELL:  Harper Hill 2-29                   
FLD  .                   FIELD:  Swan                               
LOC  .                LOCATION:                                     
CNTY .                  COUNTY:  Moffat                             
STAT .                   STATE:  Colorado                           
CTRY .                 COUNTRY:                                     
SRVC .         SERVICE COMPANY:  Schlumberger                       
API  .              API NUMBER:  05-0081-07659                      
DATE .                LOG DATE:  26-Oct-2011
UWI  .          UNIQUE WELL ID:                                     
#-----------------------------------------------------------------------------
~PARAMETER INFORMATION
#MNEM.UNIT    VALUE                      DESCRIPTION
#---- -----   --------------------       ------------------------
CN   .        SWEPI LP                   :Company Name
WN   .        Harper Hill 2-29           :Well Name
FN   .        Swan                       :Field Name
FL   .                                   :Field Location
FL1  .                                   :Field Location Line 1
COUN .        Moffat                     :County or Rig Name
STAT .        Colorado                   :State or Province
NATI .                                   :Nation
DATE .        26-Oct-2011                :Date as Month-Day-Year
APIN .        05-0081-07659              :API Serial Number
SECT .        29                         :Section
TOWN .        5N                         :Township
RANG .        90W                        :Range
DMF  .        Kelly Bushing              :Drilling Measured From
LMF  .        Kelly Bushing              :Log Measured From
PDAT .        Ground Level               :Permanent Datum
ENGI .        Mark Kast                  :Engineer's Name
WITN .        Tony                       :Witness's Name
LATI .                                   :Latitude
LONG .                                   :Longitude
LUL  .        Rock Springs               :Logging Unit Location
LUN  .              2271                 :Logging Unit Number
RUN  .        Two                        :Run Number
SON  .                                   :Service Order Number
BHT  .DEGF     127.00000                 :Bottom Hole Temperature (used in calculations)
BS   .IN         6.75000                 :Bit Size
DFD  .LB/G       7.90000                 :Drilling Fluid Density
DFV  .S         44.00000                 :Drilling Fluid Viscosity
DFL  .C3        16.60000                 :Drilling Fluid Loss
RMFS .                                   :Resistivity of Mud Filtrate Sample
EKB  .F       6597.00000                 :Elevation of Kelly Bushing
EGL  .F       6585.00000                 :Elevation of Ground Level
BLI  .                                   :Bottom Log Interval
BSAL .PPM     44500.00000                :Borehole Salinity
FLEV .                                   :Fluid Level
MCST .                                   :Mud Cake Sample Temperature
MFST .                                   :Mud Filtrate Sample Temperature
MRT  .DEGF     127.00000                 :Maximum Recorded Temperature
MST  .                                   :Mud Sample Temperature
RMCS .                                   :Resistivity of Mud Cake Sample
RMS  .                                   :Resistivity of Mud Sample
RW   .OHMM       1.00000                 :Resistivity of Connate Water
TDD  .F       4480.00000                 :Total Depth - Driller
TDL  .F       4482.00000                 :Total Depth - Logger
TLI  .                                   :Top Log Interval
HIDE .                                   :Header Identifier
MATR .        SAND                       :Rock Matrix for Neutron Porosity Corrections
DFT  .        OBM                        :Drilling Fluid Type
DFPH .                                   :Drilling Fluid PH
MCSS .        N/A                        :Mud Cake Sample Source
MFSS .        N/A                        :Mud Filtrate Sample Source
MSS  .        N/A                        :Mud Sample Source
OS1  .                                   :Other Services Line 1
OS2  .                                   :Other Services Line 2
OS3  .                                   :Other Services Line 3
OS4  .                                   :Other Services Line 4
OS5  .                                   :Other Services Line 5
R1   .                                   :Remark Line 1
R2   .                                   :Remark Line 2
R3   .                                   :Remark Line 3
R4   .                                   :Remark Line 4
R5   .                                   :Remark Line 5
R6   .                                   :Remark Line 6
R7   .                                   :Remark Line 7
R8   .                                   :Remark Line 8
TCS  .        20 00                      :Time Circulation Stopped
TLAB .                                   :Time Logger At Bottom
EPD  .F         6585.000000              :Elevation of Permanent Datum above Mean Sea Level
APD  .F          12.000000               :Elevation of Depth Reference (LMF) above Permanent Datum
#-----------------------------------------------------------------------------
~CURVE INFORMATION
#MNEM.UNIT   API CODE                                  DESCRIPTION
#---- -----  --------                                  -----------------------
DEPT .F                                                :DEPTH (BOREHOLE) {F12.4}
C1_OBMT.IN                                             :OBMT Caliper 1 {F11.4}
C2_OBMT.IN                                             :OBMT Caliper 2 {F11.4}
CDF  .LBF                                              :Calibrated Downhole Force {F11.4}
CTEM .DEGF                                             :Cartridge Temperature {F11.4}
DCAL .IN                                               :Differential Caliper {F11.4}
DEVI .DEG                                              :Hole Deviation {F11.4}
DEVIM.DEG                                              :Memorized Deviation {F11.4}
DWAL_WALK2.                                            :Dry Weight Fraction Pseudo Aluminum (SpectroLith WALK2 Model) {F11.4}
DWCA_WALK2.                                            :Dry Weight Fraction Calcium (SpectroLith WALK2 Model) {F11.4}
DWFE_WALK2.                                            :Dry Weight Fraction Iron + 0.14 Aluminum (SpectroLith WALK2 Model) {F11.4}
DWGD_WALK2.PPM                                         :Dry Weight Fraction Gadolinium (SpectroLith WALK2 Model) {F11.4}
DWSI_WALK2.                                            :Dry Weight Fraction Silicon (SpectroLith WALK2 Model) {F11.4}
DWSU_WALK2.                                            :Dry Weight Fraction Sulfur (SpectroLith WALK2 Model) {F11.4}
DWTI_WALK2.                                            :Dry Weight Fraction Titanium (SpectroLith WALK2 Model) {F11.4}
ECST .DEGF                                             :ECS Temperature {F11.4}
ED   .F                                                :East Departure {F11.4}
ESUF_WALK2.                                            :Elemental Statistical Uncertainty Factor (SpectroLith WALK2 Model) {F11.4}
GR_EDTC.GAPI                                           :EDTC Gamma Ray {F11.4}
GTEM .DEGF                                             :Generalized Borehole Temperature {F11.4}
HAZI .DEG                                              :Hole Azimuth {F11.4}
HAZIM.DEG                                              :Hole Azimuth {F11.4}
ND   .F                                                :North Departure {F11.4}
P1AZ .DEG                                              :Pad 1 Azimuth {F11.4}
QCPMT.                                                 :Photomultiplier Tube Quality Control {F11.4}
RB   .DEG                                              :Relative Bearing {F11.4}
RHGE_WALK2.G/C3                                        :Matrix Density from Elemental Concentrations (SpectroLith WALK2 Model) {F11.4}
SDEV .DEG                                              :Sonde Deviation {F11.4}
SDEVM.DEG                                              :Sonde Deviation {F11.4}
STIT .F                                                :Stuck Tool Indicator, Total {F11.4}
TENS .LBF                                              :Cable Tension {F11.4}
WANH_WALK2.                                            :Dry Weight Fraction Anhydrite/Gypsum (SpectroLith WALK2 Model) {F11.4}
WCAR_WALK2.                                            :Dry Weight Fraction Carbonate (SpectroLith WALK2 Model) {F11.4}
WCLA_WALK2.                                            :Dry Weight Fraction Clay (SpectroLith WALK2 Model) {F11.4}
WCOA_WALK2.                                            :Dry Weight Fraction Coal (SpectroLith WALK2 Model) {F11.4}
WEVA_WALK2.                                            :Dry Weight Fraction Salt (SpectroLith WALK2 Model) {F11.4}
WPYR_WALK2.                                            :Dry Weight Fraction Pyrite (SpectroLith WALK2 Model) {F11.4}
WQFM_WALK2.                                            :Dry Weight Fraction Quartz+Feldspar+Mica (QFM) (SpectroLith WALK2 Model) {F11.4}
WSID_WALK2.                                            :Dry Weight Fraction Siderite (SpectroLith WALK2 Model) {F11.4}
#-----------------------------------------------------------------------------
# 
#      DEPT      C1_OBMT    C2_OBMT      CDF        CTEM       DCAL       DEVI      DEVIM    DWAL_WALK2 DWCA_WALK2 DWFE_WALK2 DWGD_WALK2 DWSI_WALK2 DWSU_WALK2 DWTI_WALK2    ECST        ED     ESUF_WALK2  GR_EDTC      GTEM       HAZI      HAZIM        ND        P1AZ      QCPMT        RB     RHGE_WALK2    SDEV      SDEVM       STIT       TENS    WANH_WALK2 WCAR_WALK2 WCLA_WALK2 WCOA_WALK2 WEVA_WALK2 WPYR_WALK2 WQFM_WALK2 WSID_WALK2
#
~A  
# ...
   4131.0000     7.2326     7.2604  1044.8146   116.1413     0.4965     6.4230     6.4161     0.0667     0.1055     0.0386     7.9521     0.2264     0.0093     0.0022    45.9914   -32.7872     0.6682   130.1167   122.5988    62.5601    61.8526   -23.5048   247.0119     0.5192   184.4224     2.7431     6.6090     6.6017     0.0000  2707.0000     0.0000     0.2088     0.4011     0.0000     0.0000     0.0174     0.3726     0.0000
   4131.5000     7.2300     7.2656  1054.4131   116.1413     0.4977     6.4292     6.4048     0.0671     0.0947     0.0388    10.6376     0.2383     0.0080     0.0027    44.8209   -32.7380     0.6833   135.7939   122.6054    62.5308    61.8489   -23.4785   246.9557     0.2991   184.3955     2.7401     6.6154     6.5898     0.0000  2795.0000     0.0000     0.1797     0.4047     0.0000     0.0000     0.0149     0.4007     0.0000
   4132.0000     7.2300     7.2707  1039.8375   116.1413     0.5003     6.4305     6.4078     0.0690     0.0955     0.0403    13.1260     0.2336     0.0041     0.0032    44.8209   -32.6888     0.6479   134.5068   122.6121    62.5016    61.7894   -23.4522   247.0338     0.5085   184.5022     2.7384     6.6167     6.5929     0.0000  2736.0000     0.0000     0.1819     0.4216     0.0000     0.0000     0.0077     0.3887     0.0000
   4132.5000     7.2290     7.2698  1034.8606   116.1413     0.4994     6.4249     6.4118     0.0725     0.0897     0.0422    12.8036     0.2343     0.0048     0.0038    45.9914   -32.6396     0.6697   139.8155   122.6187    62.5089    61.7521   -23.4258   247.0060     0.7716   184.4673     2.7416     6.6108     6.5970     0.0000  2719.0000     0.0000     0.1663     0.4526     0.0000     0.0000     0.0090     0.3720     0.0000
   4133.0000     7.2377     7.2664  1064.0116   116.1413     0.5020     6.4251     6.4096     0.0720     0.0851     0.0418    10.3204     0.2407     0.0054     0.0037    45.9914   -32.5904     0.6786   134.7551   122.6253    62.4975    61.7415   -23.3993   246.9786     0.5662   184.4514     2.7409     6.6114     6.5951     0.0000  2833.0000     0.0000     0.1540     0.4476     0.0000     0.0000     0.0101     0.3883     0.0000
   4133.5000     7.2377     7.2604  1068.9885   116.1413     0.4990     6.4316     6.4016     0.0704     0.0674     0.0404     7.4564     0.2646     0.0091     0.0034    44.8209   -32.5413     0.7444   139.6804   122.6319    62.4518    61.7191   -23.3729   246.7298     0.6643   184.2495     2.7397     6.6182     6.5868     0.0000  2753.0000     0.0000     0.1064     0.4337     0.0000     0.0000     0.0171     0.4428     0.0000
   4134.0000     7.2342     7.2578  1025.2621   116.1413     0.4960     6.4259     6.4038     0.0685     0.0441     0.0383     4.4862     0.2961     0.0151     0.0037    44.8209   -32.4922     0.8145   135.3898   122.6385    62.4295    61.6913   -23.3465   246.7408     0.4472   184.2827     2.7389     6.6121     6.5889     0.0000  2694.0000     0.0000     0.0435     0.4172     0.0000     0.0000     0.0282     0.5111     0.0000
   4134.5000     7.2308     7.2595  1059.3900   116.1413     0.4951     6.4230     6.4042     0.0672     0.0340     0.0360     4.0987     0.3117     0.0249     0.0042    44.8209   -32.4431     0.8541   140.3515   122.6451    62.4330    61.6592   -23.3200   246.9957     0.2587   184.5326     2.7444     6.6088     6.5891     0.0000  2825.0000     0.0000     0.0165     0.4053     0.0000     0.0000     0.0466     0.5316     0.0000
   4135.0000     7.2300     7.2638  1093.1626   116.1413     0.4969     6.4321     6.3928     0.0695     0.0532     0.0371     4.6493     0.2853     0.0261     0.0045    44.8209   -32.3941     0.8052   138.5005   122.6517    62.4012    61.6437   -23.2936   247.3462     0.0000   184.9121     2.7513     6.6183     6.5771     0.0000  2787.0000     0.0000     0.0681     0.4263     0.0000     0.0000     0.0489     0.4568     0.0000
   4135.5000     7.2273     7.2630  1015.6635   116.1413     0.4951     6.4244     6.3956     0.0656     0.0703     0.0355     5.2507     0.2718     0.0216     0.0042    44.8209   -32.3451     0.8084   141.1813   122.6583    62.3793    61.5972   -23.2671   247.4271     0.0000   185.0144     2.7457     6.6102     6.5799     0.0000  2710.0000     0.0000     0.1141     0.3916     0.0000     0.0000     0.0404     0.4540     0.0000
   4136.0000     7.2273     7.2664  1049.4360   116.1413     0.4968     6.4238     6.4034     0.0639     0.0791     0.0364     4.7017     0.2627     0.0087     0.0038    44.8209   -32.2961     0.8184   139.2334   122.6649    62.3443    61.5475   -23.2406   247.3716     0.0000   184.9940     2.7337     6.6095     6.5881     0.0000  2786.0000     0.0000     0.1377     0.3771     0.0000     0.0000     0.0163     0.4689     0.0000
   4136.5000     7.2342     7.2655  1059.3900   116.1413     0.4999     6.4298     6.3897     0.0568     0.0814     0.0332     3.3505     0.2716     0.0011     0.0034    44.8209   -32.2471     0.8595   142.9884   122.6715    62.3295    61.5346   -23.2140   247.4551     0.2137   185.0918     2.7194     6.6162     6.5741     0.0000  2795.0000     0.0000     0.1440     0.3144     0.0000     0.0000     0.0021     0.5394     0.0000
   4137.0000     7.2387     7.2621  1010.6865   116.1413     0.5004     6.4225     6.3918     0.0571     0.0977     0.0337     5.0491     0.2519     0.0000     0.0031    44.8209   -32.1982     0.8350   133.4049   122.6781    62.3091    61.4944   -23.1875   247.4006     0.0279   185.0578     2.7217     6.6087     6.5765     0.0000  2672.0000     0.0000     0.1877     0.3172     0.0000     0.0000     0.0000     0.4951     0.0000
   4137.5000     7.2378     7.2604  1073.9656   116.1413     0.4991     6.4220     6.4023     0.0560     0.1214     0.0332     5.5623     0.2260     0.0000     0.0026    44.8209   -32.1492     0.7788   133.4049   122.6848    62.2832    61.4579   -23.1609   247.3655     0.5844   185.0486     2.7248     6.6082     6.5875     0.0000  2844.0000     0.0000     0.2515     0.3075     0.0000     0.0000     0.0000     0.4410     0.0000
   4138.0000     7.2325     7.2578  1068.9885   116.1413     0.4951     6.4343     6.3867     0.0556     0.1283     0.0325     7.0543     0.2191     0.0033     0.0024    44.8209   -32.1003     0.7488   126.8291   122.6914    62.2468    61.4254   -23.1343   247.3269     0.5091   185.0465     2.7287     6.6208     6.5709     0.0000  2789.0000     0.0000     0.2701     0.3034     0.0000     0.0000     0.0061     0.4203     0.0000
   4138.5000     7.2290     7.2612  1039.8375   116.1413     0.4951     6.4224     6.3797     0.0589     0.1194     0.0331     7.5338     0.2248     0.0130     0.0028    44.8209   -32.0515     0.7348   138.0724   122.6980    62.2306    61.4221   -23.1077   247.2783     0.5751   185.0143     2.7397     6.6081     6.5633     0.0000  2692.0000     0.0000     0.2463     0.3330     0.0000     0.0000     0.0243     0.3963     0.0000
   4139.0000     7.2309     7.2699  1064.0116   116.1413     0.5003     6.4206     6.3966     0.0630     0.1013     0.0340    10.7018     0.2402     0.0223     0.0037    44.8209   -32.0027     0.7584   138.6283   122.7046    62.2332    61.3483   -23.0810   247.5034     0.0607   185.2355     2.7491     6.6064     6.5812     0.0000  2817.0000     0.0000     0.1974     0.3689     0.0000     0.0000     0.0417     0.3921     0.0000
   4139.5000     7.2326     7.2707  1073.9656   116.1413     0.5016     6.4346     6.3838     0.0677     0.0901     0.0367    14.1715     0.2449     0.0223     0.0040    44.8209   -31.9538     0.7183   146.6802   122.7112    62.1852    61.3118   -23.0543   247.3705     0.7794   185.1509     2.7523     6.6211     6.5679     0.0000  2760.0000     0.0000     0.1674     0.4099     0.0000     0.0000     0.0418     0.3809     0.0000
   4140.0000     7.2342     7.2681  1054.4131   116.1413     0.5012     6.4210     6.3757     0.0668     0.0849     0.0366    14.7785     0.2522     0.0207     0.0034    45.9914   -31.9051     0.7026   144.1813   122.7178    62.2018    61.2972   -23.0276   247.2607     1.4000   185.0254     2.7493     6.6070     6.5595     0.0000  2695.0000     0.0000     0.1535     0.4017     0.0000     0.0000     0.0387     0.4061     0.0000
