~VERSION INFORMATION
VERS.           1.2   :CWLS Log ASCII Standard - VERSION 1.2
WRAP.           NO    :One Line per depth step
PROD.  Schlumberger   :LAS Producer
PROG.  DLIS to ASCII 17C0-152                          :LAS Program name and version
CREA.        2011/10/27 17:24                          :LAS Creation date {YYYY/MM/DD hh:mm}
DLIS_CREA.  2011-Oct-27 07:22                          :DLIS Creation date and time {YYYY-MMM-DD hh:mm}
SOURCE.     7e486f41-920f-449c-9fc4-a1d2576f3c93       :DLIS File Name
#--------------------------------------------------
~WELL INFORMATION
#MNEM.UNIT      DATA             DESCRIPTION
#---- ------ --------------   -----------------------------
STRT .F      3201.5000       :START DEPTH     
STOP .F      4055.0000       :STOP DEPTH     
STEP .F       0.5000         :STEP       
NULL .          -999.25      :NULL VALUE
COMP .                 COMPANY:  SWEPI LP                           
WELL .                    WELL:  Harper Hill 2-29                   
FLD  .                   FIELD:  Swan                               
LOC  .                LOCATION:                                     
CNTY .                  COUNTY:  Moffat                             
STAT .                   STATE:  Colorado                           
CTRY .                 COUNTRY:                                     
SRVC .         SERVICE COMPANY:  Schlumberger                       
API  .              API NUMBER:  05-0081-07659                      
DATE .                LOG DATE:  26-Oct-2011
UWI  .          UNIQUE WELL ID:                                     
#-----------------------------------------------------------------------------
~PARAMETER INFORMATION
#MNEM.UNIT    VALUE                      DESCRIPTION
#---- -----   --------------------       ------------------------
CN   .        SWEPI LP                   :Company Name
WN   .        Harper Hill 2-29           :Well Name
FN   .        Swan                       :Field Name
FL   .                                   :Field Location
FL1  .                                   :Field Location Line 1
COUN .        Moffat                     :County or Rig Name
STAT .        Colorado                   :State or Province
NATI .                                   :Nation
DATE .        26-Oct-2011                :Date as Month-Day-Year
APIN .        05-0081-07659              :API Serial Number
SECT .        29                         :Section
TOWN .        5N                         :Township
RANG .        90W                        :Range
DMF  .        Kelly Bushing              :Drilling Measured From
LMF  .        Kelly Bushing              :Log Measured From
PDAT .        Ground Level               :Permanent Datum
ENGI .        Mark Kast                  :Engineer's Name
WITN .        Tony                       :Witness's Name
LATI .                                   :Latitude
LONG .                                   :Longitude
LUL  .        Rock Springs               :Logging Unit Location
LUN  .              2271                 :Logging Unit Number
RUN  .        Two                        :Run Number
SON  .                                   :Service Order Number
BHT  .DEGF     127.00000                 :Bottom Hole Temperature (used in calculations)
BS   .IN         6.75000                 :Bit Size
DFD  .LB/G       7.90000                 :Drilling Fluid Density
DFV  .S         44.00000                 :Drilling Fluid Viscosity
DFL  .C3        16.60000                 :Drilling Fluid Loss
RMFS .                                   :Resistivity of Mud Filtrate Sample
EKB  .F       6597.00000                 :Elevation of Kelly Bushing
EGL  .F       6585.00000                 :Elevation of Ground Level
BLI  .                                   :Bottom Log Interval
BSAL .PPM     44500.00000                :Borehole Salinity
FLEV .                                   :Fluid Level
MCST .                                   :Mud Cake Sample Temperature
MFST .                                   :Mud Filtrate Sample Temperature
MRT  .DEGF     127.00000                 :Maximum Recorded Temperature
MST  .                                   :Mud Sample Temperature
RMCS .                                   :Resistivity of Mud Cake Sample
RMS  .                                   :Resistivity of Mud Sample
RW   .OHMM       1.00000                 :Resistivity of Connate Water
TDD  .F       4480.00000                 :Total Depth - Driller
TDL  .F       4482.00000                 :Total Depth - Logger
TLI  .                                   :Top Log Interval
HIDE .                                   :Header Identifier
MATR .        SAND                       :Rock Matrix for Neutron Porosity Corrections
DFT  .        OBM                        :Drilling Fluid Type
DFPH .                                   :Drilling Fluid PH
MCSS .        N/A                        :Mud Cake Sample Source
MFSS .        N/A                        :Mud Filtrate Sample Source
MSS  .        N/A                        :Mud Sample Source
OS1  .                                   :Other Services Line 1
OS2  .                                   :Other Services Line 2
OS3  .                                   :Other Services Line 3
OS4  .                                   :Other Services Line 4
OS5  .                                   :Other Services Line 5
R1   .                                   :Remark Line 1
R2   .                                   :Remark Line 2
R3   .                                   :Remark Line 3
R4   .                                   :Remark Line 4
R5   .                                   :Remark Line 5
R6   .                                   :Remark Line 6
R7   .                                   :Remark Line 7
R8   .                                   :Remark Line 8
TCS  .        20 00                      :Time Circulation Stopped
TLAB .                                   :Time Logger At Bottom
EPD  .F         6585.000000              :Elevation of Permanent Datum above Mean Sea Level
APD  .F          12.000000               :Elevation of Depth Reference (LMF) above Permanent Datum
#-----------------------------------------------------------------------------
~CURVE INFORMATION
#MNEM.UNIT   API CODE                                  DESCRIPTION
#---- -----  --------                                  -----------------------
DEPT .F                                                :DEPTH (BOREHOLE) {F12.4}
C1_OBMT.IN                                             :OBMT Caliper 1 {F11.4}
C2_OBMT.IN                                             :OBMT Caliper 2 {F11.4}
CDF  .LBF                                              :Calibrated Downhole Force {F11.4}
CTEM .DEGF                                             :Cartridge Temperature {F11.4}
DCAL .IN                                               :Differential Caliper {F11.4}
DEVI .DEG                                              :Hole Deviation {F11.4}
DEVIM.DEG                                              :Memorized Deviation {F11.4}
DWAL_WALK2.                                            :Dry Weight Fraction Pseudo Aluminum (SpectroLith WALK2 Model) {F11.4}
DWCA_WALK2.                                            :Dry Weight Fraction Calcium (SpectroLith WALK2 Model) {F11.4}
DWFE_WALK2.                                            :Dry Weight Fraction Iron + 0.14 Aluminum (SpectroLith WALK2 Model) {F11.4}
DWGD_WALK2.PPM                                         :Dry Weight Fraction Gadolinium (SpectroLith WALK2 Model) {F11.4}
DWSI_WALK2.                                            :Dry Weight Fraction Silicon (SpectroLith WALK2 Model) {F11.4}
DWSU_WALK2.                                            :Dry Weight Fraction Sulfur (SpectroLith WALK2 Model) {F11.4}
DWTI_WALK2.                                            :Dry Weight Fraction Titanium (SpectroLith WALK2 Model) {F11.4}
ECST .DEGF                                             :ECS Temperature {F11.4}
ED   .F                                                :East Departure {F11.4}
ESUF_WALK2.                                            :Elemental Statistical Uncertainty Factor (SpectroLith WALK2 Model) {F11.4}
GR_EDTC.GAPI                                           :EDTC Gamma Ray {F11.4}
GTEM .DEGF                                             :Generalized Borehole Temperature {F11.4}
HAZI .DEG                                              :Hole Azimuth {F11.4}
HAZIM.DEG                                              :Hole Azimuth {F11.4}
ND   .F                                                :North Departure {F11.4}
P1AZ .DEG                                              :Pad 1 Azimuth {F11.4}
QCPMT.                                                 :Photomultiplier Tube Quality Control {F11.4}
RB   .DEG                                              :Relative Bearing {F11.4}
RHGE_WALK2.G/C3                                        :Matrix Density from Elemental Concentrations (SpectroLith WALK2 Model) {F11.4}
SDEV .DEG                                              :Sonde Deviation {F11.4}
SDEVM.DEG                                              :Sonde Deviation {F11.4}
STIT .F                                                :Stuck Tool Indicator, Total {F11.4}
TENS .LBF                                              :Cable Tension {F11.4}
WANH_WALK2.                                            :Dry Weight Fraction Anhydrite/Gypsum (SpectroLith WALK2 Model) {F11.4}
WCAR_WALK2.                                            :Dry Weight Fraction Carbonate (SpectroLith WALK2 Model) {F11.4}
WCLA_WALK2.                                            :Dry Weight Fraction Clay (SpectroLith WALK2 Model) {F11.4}
WCOA_WALK2.                                            :Dry Weight Fraction Coal (SpectroLith WALK2 Model) {F11.4}
WEVA_WALK2.                                            :Dry Weight Fraction Salt (SpectroLith WALK2 Model) {F11.4}
WPYR_WALK2.                                            :Dry Weight Fraction Pyrite (SpectroLith WALK2 Model) {F11.4}
WQFM_WALK2.                                            :Dry Weight Fraction Quartz+Feldspar+Mica (QFM) (SpectroLith WALK2 Model) {F11.4}
WSID_WALK2.                                            :Dry Weight Fraction Siderite (SpectroLith WALK2 Model) {F11.4}
#-----------------------------------------------------------------------------
# 
#      DEPT      C1_OBMT    C2_OBMT      CDF        CTEM       DCAL       DEVI      DEVIM    DWAL_WALK2 DWCA_WALK2 DWFE_WALK2 DWGD_WALK2 DWSI_WALK2 DWSU_WALK2 DWTI_WALK2    ECST        ED     ESUF_WALK2  GR_EDTC      GTEM       HAZI      HAZIM        ND        P1AZ      QCPMT        RB     RHGE_WALK2    SDEV      SDEVM       STIT       TENS    WANH_WALK2 WCAR_WALK2 WCLA_WALK2 WCOA_WALK2 WEVA_WALK2 WPYR_WALK2 WQFM_WALK2 WSID_WALK2
#
~A  
# ...
   3372.5000     7.2352     7.1778  1034.8606   126.0236     0.4564    13.2556    11.2881     0.0566     0.1330     0.0321     6.3933     0.2127     0.0101     0.0026    47.1620   -33.0347     0.6819   142.7221   112.5739   204.3490   201.3630    24.9553    26.0644     0.0732   181.6666     2.7368    13.7042    11.6924     0.0000  2274.0000     0.0000     0.2828     0.3125     0.0000     0.0000     0.0190     0.3857     0.0000
   3373.0000     7.2273     7.1735  1010.6865   126.0236     0.4504    13.1684    11.2591     0.0520     0.1319     0.0297     3.1604     0.2219     0.0088     0.0022    47.1620   -33.0703     0.6392   134.1173   112.5805   204.2590   201.2957    24.8643    26.1382     0.0591   181.8264     2.7305    13.6149    11.6617     0.0000  2093.0000     0.0000     0.2797     0.2723     0.0000     0.0000     0.0164     0.4316     0.0000
   3373.5000     7.2273     7.1778  1025.2621   126.0236     0.4525    13.0805    11.1562     0.0509     0.1390     0.0293     2.9620     0.2153     0.0077     0.0019    47.1620   -33.1055     0.5945   126.0153   112.5871   204.1646   201.1321    24.7737    26.2088     0.0590   181.9876     2.7297    13.5257    11.5554     0.0000  2233.0000     0.0000     0.2990     0.2626     0.0000     0.0000     0.0144     0.4241     0.0000
   3374.0000     7.1901     7.1795  1034.8606   126.0236     0.4348    13.0824    11.1256     0.0502     0.1443     0.0293     4.0701     0.2100     0.0030     0.0026    47.1620   -33.1402     0.6268   133.4143   112.5937   204.1128   201.0424    24.6835    26.2336     0.0000   182.0621     2.7249    13.5233    11.5199     0.0000  2267.0000     0.0000     0.3133     0.2563     0.0000     0.0000     0.0055     0.4250     0.0000
   3374.5000     7.1857     7.1770  1005.7095   126.0236     0.4313    12.9976    11.0736     0.0517     0.1510     0.0297     4.7960     0.2000     0.0037     0.0034    47.1620   -33.1747     0.6637   131.9832   112.6003   204.0331   200.9284    24.5937    26.1141     0.0361   182.0241     2.7278    13.4367    11.4657     0.0000  2048.0000     0.0000     0.3312     0.2695     0.0000     0.0000     0.0069     0.3924     0.0000
   3375.0000     7.1909     7.1787  1020.2850   126.0236     0.4348    12.9027    11.0259     0.0537     0.1617     0.0305     5.5864     0.1843     0.0051     0.0039    47.1620   -33.2089     0.6857   132.2974   112.6069   203.9358   200.8268    24.5041    26.0717     0.0040   182.0783     2.7328    13.3409    11.4169     0.0000  2258.0000     0.0000     0.3599     0.2867     0.0000     0.0000     0.0096     0.3437     0.0000
   3375.5000     7.2134     7.1778  1044.8146   126.0236     0.4456    12.8962    10.9707     0.0512     0.1751     0.0291     5.3414     0.1730     0.0059     0.0033    47.1620   -33.2427     0.6951   129.5302   112.6135   203.9084   200.7072    24.4149    26.0841     0.1751   182.1170     2.7334    13.3370    11.3623     0.0000  2273.0000     0.0000     0.3960     0.2647     0.0000     0.0000     0.0110     0.3282     0.0000
   3376.0000     7.2196     7.1778  1001.0880   126.0236     0.4487    12.8203    10.9207     0.0510     0.1838     0.0292     6.0929     0.1631     0.0073     0.0026    47.1620   -33.2761     0.6806   131.7919   112.6201   203.8040   200.5754    24.3261    25.9358     0.3889   182.0750     2.7366    13.2604    11.3112     0.0000  2074.0000     0.0000     0.4193     0.2636     0.0000     0.0000     0.0137     0.3034     0.0000
   3376.5000     7.2161     7.1778  1015.6635   126.0236     0.4469    12.7393    10.8680     0.0510     0.1771     0.0293     4.7118     0.1708     0.0084     0.0019    47.1620   -33.3092     0.6879   136.0539   112.6267   203.7213   200.4409    24.2376    25.9104     0.2539   182.1314     2.7369    13.1776    11.2563     0.0000  2221.0000     0.0000     0.4014     0.2632     0.0000     0.0000     0.0157     0.3197     0.0000
   3377.0000     7.2299     7.1830  1044.8146   126.0236     0.4564    12.7287    10.8273     0.0571     0.1634     0.0323     5.7919     0.1764     0.0147     0.0014    47.1620   -33.3420     0.6499   141.8464   112.6333   203.6679   200.2975    24.1494    25.3875     0.3293   181.6744     2.7477    13.1685    11.2156     0.0000  2308.0000     0.0000     0.3646     0.3168     0.0000     0.0000     0.0274     0.2911     0.0000
   3377.5000     7.2274     7.1916  1005.7095   126.0236     0.4595    12.6503    10.7832     0.0599     0.1515     0.0341     7.4486     0.1852     0.0144     0.0012    47.1620   -33.3744     0.6275   147.6983   112.6399   203.5713   200.1382    24.0614    25.0620     0.0863   181.4520     2.7488    13.0883    11.1697     0.0000  2115.0000     0.0000     0.3325     0.3416     0.0000     0.0000     0.0270     0.2989     0.0000
   3378.0000     7.2369     7.1950  1015.6635   126.0236     0.4659    12.5671    10.7058     0.0598     0.1411     0.0343    10.0342     0.1974     0.0136     0.0010    47.1620   -33.4064     0.6065   161.1958   112.6465   203.4789   199.9656    23.9738    24.8516     0.6059   181.3375     2.7462    13.0045    11.0906     0.0000  2223.0000     0.0000     0.3046     0.3405     0.0000     0.0000     0.0254     0.3296     0.0000
   3378.5000     7.2439     7.2217  1034.8606   126.0236     0.4828    12.5656    10.6808     0.0572     0.1291     0.0327    10.8002     0.2160     0.0121     0.0014    48.3325   -33.4379     0.6729   169.4636   112.6532   203.4382   199.8487    23.8866    24.5773     0.8809   181.1099     2.7396    13.0038    11.0653     0.0000  2269.0000     0.0000     0.2724     0.3176     0.0000     0.0000     0.0227     0.3873     0.0000
   3379.0000     7.2429     7.2200  1005.7095   126.0236     0.4814    12.4823    10.6475     0.0544     0.1185     0.0308     9.8198     0.2335     0.0131     0.0016    48.3325   -33.4693     0.7224   165.7127   112.6598   203.3226   199.7343    23.7995    24.5501     0.5319   181.1964     2.7354    12.9188    11.0307     0.0000  2098.0000     0.0000     0.2438     0.2934     0.0000     0.0000     0.0245     0.4382     0.0000
   3379.5000     7.2456     7.1838  1020.2850   126.0236     0.4647    12.3967    10.5584     0.0558     0.1206     0.0310     8.6935     0.2292     0.0154     0.0023    47.1620   -33.5002     0.7056   164.5036   112.6664   203.2178   199.5472    23.7129    24.3548     0.2312   181.1086     2.7389    12.8316    10.9386     0.0000  2299.0000     0.0000     0.2494     0.3052     0.0000     0.0000     0.0288     0.4166     0.0000
   3380.0000     7.2395     7.1830  1025.2621   126.0236     0.4612    12.3971    10.5369     0.0570     0.1285     0.0320     7.8384     0.2176     0.0140     0.0023    47.1620   -33.5307     0.6456   161.6343   112.6730   203.1777   199.4117    23.6266    23.6768     0.2057   180.4867     2.7404    12.8313    10.9157     0.0000  2222.0000     0.0000     0.2706     0.3164     0.0000     0.0000     0.0262     0.3868     0.0000
   3380.5000     7.2699     7.2208   996.1110   126.0236     0.4953    12.3116    10.5121     0.0600     0.1282     0.0335     6.9047     0.2128     0.0162     0.0024    47.1620   -33.5610     0.6439   162.8293   112.6796   203.0605   199.2763    23.5404    23.5465     0.0506   180.4739     2.7457    12.7474    10.8930     0.0000  2052.0000     0.0000     0.2700     0.3428     0.0000     0.0000     0.0302     0.3570     0.0000
   3381.0000     7.2716     7.2225  1025.2621   126.0236     0.4970    12.2256    10.4477     0.0623     0.1284     0.0346     6.1288     0.2088     0.0177     0.0025    47.1620   -33.5909     0.6271   158.0138   112.6862   202.9493   199.0983    23.4545    23.4114     0.0000   180.4509     2.7495    12.6597    10.8263     0.0000  2295.0000     0.0000     0.2705     0.3623     0.0000     0.0000     0.0331     0.3341     0.0000
   3381.5000     7.2785     7.2311  1030.2390   126.0236     0.5048    12.2232    10.3921     0.0667     0.1265     0.0367     5.4951     0.2037     0.0215     0.0028    48.3325   -33.6203     0.6339   155.1069   112.6928   202.9020   198.9273    23.3690    23.2099     0.0000   180.3004     2.7575    12.6581    10.7692     0.0000  2218.0000     0.0000     0.2653     0.4010     0.0000     0.0000     0.0403     0.2934     0.0000
