~VERSION INFORMATION
VERS.           1.2   :CWLS Log ASCII Standard - VERSION 1.2
WRAP.           NO    :One Line per depth step
PROD.  Schlumberger   :LAS Producer
PROG.  DLIS to ASCII 17C0-152                          :LAS Program name and version
CREA.        2011/10/27 17:25                          :LAS Creation date {YYYY/MM/DD hh:mm}
DLIS_CREA.  2011-Oct-27 07:17                          :DLIS Creation date and time {YYYY-MMM-DD hh:mm}
SOURCE.     79519d1b-f2ac-4620-a9ab-fbce0bbece67       :DLIS File Name
#--------------------------------------------------
~WELL INFORMATION
#MNEM.UNIT      DATA             DESCRIPTION
#---- ------ --------------   -----------------------------
STRT .F      3722.5000       :START DEPTH     
STOP .F      4490.0000       :STOP DEPTH     
STEP .F       0.5000         :STEP       
NULL .          -999.25      :NULL VALUE
COMP .                 COMPANY:  SWEPI LP                           
WELL .                    WELL:  Harper Hill 2-29                   
FLD  .                   FIELD:  Swan                               
LOC  .                LOCATION:                                     
CNTY .                  COUNTY:  Moffat                             
STAT .                   STATE:  Colorado                           
CTRY .                 COUNTRY:                                     
SRVC .         SERVICE COMPANY:  Schlumberger                       
API  .              API NUMBER:  05-0081-07659                      
DATE .                LOG DATE:  26-Oct-2011
UWI  .          UNIQUE WELL ID:                                     
#-----------------------------------------------------------------------------
~PARAMETER INFORMATION
#MNEM.UNIT    VALUE                      DESCRIPTION
#---- -----   --------------------       ------------------------
CN   .        SWEPI LP                   :Company Name
WN   .        Harper Hill 2-29           :Well Name
FN   .        Swan                       :Field Name
FL   .                                   :Field Location
FL1  .                                   :Field Location Line 1
COUN .        Moffat                     :County or Rig Name
STAT .        Colorado                   :State or Province
NATI .                                   :Nation
DATE .        26-Oct-2011                :Date as Month-Day-Year
APIN .        05-0081-07659              :API Serial Number
SECT .        29                         :Section
TOWN .        5N                         :Township
RANG .        90W                        :Range
DMF  .        Kelly Bushing              :Drilling Measured From
LMF  .        Kelly Bushing              :Log Measured From
PDAT .        Ground Level               :Permanent Datum
ENGI .        Mark Kast                  :Engineer's Name
WITN .        Tony                       :Witness's Name
LATI .                                   :Latitude
LONG .                                   :Longitude
LUL  .        Rock Springs               :Logging Unit Location
LUN  .              2271                 :Logging Unit Number
RUN  .        Two                        :Run Number
SON  .                                   :Service Order Number
BHT  .DEGF     127.00000                 :Bottom Hole Temperature (used in calculations)
BS   .IN         6.75000                 :Bit Size
DFD  .LB/G       7.90000                 :Drilling Fluid Density
DFV  .S         44.00000                 :Drilling Fluid Viscosity
DFL  .C3        16.60000                 :Drilling Fluid Loss
RMFS .                                   :Resistivity of Mud Filtrate Sample
EKB  .F       6597.00000                 :Elevation of Kelly Bushing
EGL  .F       6585.00000                 :Elevation of Ground Level
BLI  .                                   :Bottom Log Interval
BSAL .PPM     44500.00000                :Borehole Salinity
FLEV .                                   :Fluid Level
MCST .                                   :Mud Cake Sample Temperature
MFST .                                   :Mud Filtrate Sample Temperature
MRT  .DEGF     127.00000                 :Maximum Recorded Temperature
MST  .                                   :Mud Sample Temperature
RMCS .                                   :Resistivity of Mud Cake Sample
RMS  .                                   :Resistivity of Mud Sample
RW   .OHMM       1.00000                 :Resistivity of Connate Water
TDD  .F       4480.00000                 :Total Depth - Driller
TDL  .F       4482.00000                 :Total Depth - Logger
TLI  .                                   :Top Log Interval
HIDE .                                   :Header Identifier
MATR .        SAND                       :Rock Matrix for Neutron Porosity Corrections
DFT  .        OBM                        :Drilling Fluid Type
DFPH .                                   :Drilling Fluid PH
MCSS .        N/A                        :Mud Cake Sample Source
MFSS .        N/A                        :Mud Filtrate Sample Source
MSS  .        N/A                        :Mud Sample Source
OS1  .                                   :Other Services Line 1
OS2  .                                   :Other Services Line 2
OS3  .                                   :Other Services Line 3
OS4  .                                   :Other Services Line 4
OS5  .                                   :Other Services Line 5
R1   .                                   :Remark Line 1
R2   .                                   :Remark Line 2
R3   .                                   :Remark Line 3
R4   .                                   :Remark Line 4
R5   .                                   :Remark Line 5
R6   .                                   :Remark Line 6
R7   .                                   :Remark Line 7
R8   .                                   :Remark Line 8
TCS  .        20 00                      :Time Circulation Stopped
TLAB .                                   :Time Logger At Bottom
EPD  .F         6585.000000              :Elevation of Permanent Datum above Mean Sea Level
APD  .F          12.000000               :Elevation of Depth Reference (LMF) above Permanent Datum
#-----------------------------------------------------------------------------
~CURVE INFORMATION
#MNEM.UNIT   API CODE                                  DESCRIPTION
#---- -----  --------                                  -----------------------
DEPT .F                                                :DEPTH (BOREHOLE) {F12.4}
C1_OBMT.IN                                             :OBMT Caliper 1 {F11.4}
C2_OBMT.IN                                             :OBMT Caliper 2 {F11.4}
CDF  .LBF                                              :Calibrated Downhole Force {F11.4}
CTEM .DEGF                                             :Cartridge Temperature {F11.4}
DCAL .IN                                               :Differential Caliper {F11.4}
DEVI .DEG                                              :Hole Deviation {F11.4}
DEVIM.DEG                                              :Memorized Deviation {F11.4}
DWAL_WALK2.                                            :Dry Weight Fraction Pseudo Aluminum (SpectroLith WALK2 Model) {F11.4}
DWCA_WALK2.                                            :Dry Weight Fraction Calcium (SpectroLith WALK2 Model) {F11.4}
DWFE_WALK2.                                            :Dry Weight Fraction Iron + 0.14 Aluminum (SpectroLith WALK2 Model) {F11.4}
DWGD_WALK2.PPM                                         :Dry Weight Fraction Gadolinium (SpectroLith WALK2 Model) {F11.4}
DWSI_WALK2.                                            :Dry Weight Fraction Silicon (SpectroLith WALK2 Model) {F11.4}
DWSU_WALK2.                                            :Dry Weight Fraction Sulfur (SpectroLith WALK2 Model) {F11.4}
DWTI_WALK2.                                            :Dry Weight Fraction Titanium (SpectroLith WALK2 Model) {F11.4}
ECST .DEGF                                             :ECS Temperature {F11.4}
ED   .F                                                :East Departure {F11.4}
ESUF_WALK2.                                            :Elemental Statistical Uncertainty Factor (SpectroLith WALK2 Model) {F11.4}
GR_EDTC.GAPI                                           :EDTC Gamma Ray {F11.4}
GTEM .DEGF                                             :Generalized Borehole Temperature {F11.4}
HAZI .DEG                                              :Hole Azimuth {F11.4}
HAZIM.DEG                                              :Hole Azimuth {F11.4}
ND   .F                                                :North Departure {F11.4}
P1AZ .DEG                                              :Pad 1 Azimuth {F11.4}
QCPMT.                                                 :Photomultiplier Tube Quality Control {F11.4}
RB   .DEG                                              :Relative Bearing {F11.4}
RHGE_WALK2.G/C3                                        :Matrix Density from Elemental Concentrations (SpectroLith WALK2 Model) {F11.4}
SDEV .DEG                                              :Sonde Deviation {F11.4}
SDEVM.DEG                                              :Sonde Deviation {F11.4}
STIT .F                                                :Stuck Tool Indicator, Total {F11.4}
TENS .LBF                                              :Cable Tension {F11.4}
WANH_WALK2.                                            :Dry Weight Fraction Anhydrite/Gypsum (SpectroLith WALK2 Model) {F11.4}
WCAR_WALK2.                                            :Dry Weight Fraction Carbonate (SpectroLith WALK2 Model) {F11.4}
WCLA_WALK2.                                            :Dry Weight Fraction Clay (SpectroLith WALK2 Model) {F11.4}
WCOA_WALK2.                                            :Dry Weight Fraction Coal (SpectroLith WALK2 Model) {F11.4}
WEVA_WALK2.                                            :Dry Weight Fraction Salt (SpectroLith WALK2 Model) {F11.4}
WPYR_WALK2.                                            :Dry Weight Fraction Pyrite (SpectroLith WALK2 Model) {F11.4}
WQFM_WALK2.                                            :Dry Weight Fraction Quartz+Feldspar+Mica (QFM) (SpectroLith WALK2 Model) {F11.4}
WSID_WALK2.                                            :Dry Weight Fraction Siderite (SpectroLith WALK2 Model) {F11.4}
#-----------------------------------------------------------------------------
# 
#      DEPT      C1_OBMT    C2_OBMT      CDF        CTEM       DCAL       DEVI      DEVIM    DWAL_WALK2 DWCA_WALK2 DWFE_WALK2 DWGD_WALK2 DWSI_WALK2 DWSU_WALK2 DWTI_WALK2    ECST        ED     ESUF_WALK2  GR_EDTC      GTEM       HAZI      HAZIM        ND        P1AZ      QCPMT        RB     RHGE_WALK2    SDEV      SDEVM       STIT       TENS    WANH_WALK2 WCAR_WALK2 WCLA_WALK2 WCOA_WALK2 WEVA_WALK2 WPYR_WALK2 WQFM_WALK2 WSID_WALK2
#
~A  
# ...
   4378.0000     7.2672     7.3025  1049.4360   100.3295     0.5348     6.6025     6.6491     0.0649     0.0619     0.0378     4.0853     0.2803     0.0000     0.0048    44.8209   -10.0115     0.7149   135.3224   125.8634    52.1861    51.8234    -8.2736   212.6225     0.0591   160.5637     2.7231     6.7994     6.8483     0.0000  2885.0000     0.0000     0.0916     0.3853     0.0000     0.0000     0.0000     0.5231     0.0000
   4378.5000     7.2741     7.2836  1059.3900   100.3295     0.5288     6.6086     6.6549     0.0607     0.0701     0.0356     0.5394     0.2779     0.0003     0.0038    44.8209    -9.9660     0.6744   134.8164   125.8700    52.1945    51.7967    -8.2378   212.5161     0.1212   160.4498     2.7207     6.8060     6.8547     0.0000  2986.0000     0.0000     0.1135     0.3487     0.0000     0.0000     0.0005     0.5373     0.0000
   4379.0000     7.2724     7.2862  1020.2850   100.3295     0.5293     6.6072     6.6594     0.0596     0.0751     0.0350     0.4100     0.2740     0.0000     0.0035    44.8209    -9.9204     0.7059   135.9636   125.8766    52.1879    51.7891    -8.2019   212.4729     0.4589   160.4133     2.7202     6.8045     6.8593     0.0000  2928.0000     0.0000     0.1270     0.3385     0.0000     0.0000     0.0000     0.5345     0.0000
   4379.5000     7.2706     7.2784  1068.9885   100.3295     0.5245     6.6096     6.6514     0.0601     0.0768     0.0352     3.6669     0.2712     0.0000     0.0037    44.8209    -9.8749     0.6982   137.3488   125.8832    52.1848    51.8030    -8.1661   212.2601     0.4962   160.2048     2.7210     6.8068     6.8508     0.0000  2914.0000     0.0000     0.1316     0.3430     0.0000     0.0000     0.0000     0.5254     0.0000
   4380.0000     7.2654     7.2612  1059.3900   100.3295     0.5133     6.6127     6.6626     0.0605     0.0692     0.0352     8.0378     0.2796     0.0000     0.0046    44.8209    -9.8293     0.7392   142.1146   125.8898    52.1750    51.7778    -8.1302   212.1226     0.7312   160.0779     2.7195     6.8097     6.8622     0.0000  2995.0000     0.0000     0.1113     0.3465     0.0000     0.0000     0.0000     0.5422     0.0000
   4380.5000     7.2637     7.2870  1015.6635   100.3295     0.5254     6.6120     6.6595     0.0605     0.0627     0.0350     9.6948     0.2873     0.0000     0.0050    44.8209    -9.7838     0.7766   138.4151   125.8965    52.1599    51.7800    -8.0943   211.9611     1.3398   159.9323     2.7181     6.8092     6.8590     0.0000  2925.0000     0.0000     0.0936     0.3467     0.0000     0.0000     0.0000     0.5597     0.0000
   4381.0000     7.2611     7.2767  1068.9885   100.3295     0.5189     6.6127     6.6573     0.0625     0.0501     0.0363     9.5128     0.2984     0.0000     0.0049    44.8209    -9.7382     0.8663   125.3695   125.9031    52.1429    51.7788    -8.0585   212.0190     0.4977   160.0067     2.7183     6.8097     6.8565     0.0000  2986.0000     0.0000     0.0598     0.3643     0.0000     0.0000     0.0000     0.5759     0.0000
   4381.5000     7.2672     7.2965  1044.8146   100.3295     0.5318     6.6174     6.6656     0.0677     0.0432     0.0396     5.2631     0.2969     0.0000     0.0045    45.9914    -9.6927     0.7617   121.1347   125.9097    52.1357    51.7486    -8.0226   211.9907     0.3710   159.9860     2.7233     6.8150     6.8656     0.0000  3062.0000     0.0000     0.0412     0.4102     0.0000     0.0000     0.0000     0.5485     0.0000
   4382.0000     7.2689     7.2870  1054.4131   100.3295     0.5280     6.6144     6.6632     0.0739     0.0399     0.0433     3.4706     0.2897     0.0000     0.0048    45.4062    -9.6471     0.7003   124.6609   125.9163    52.1109    51.7682    -7.9866   211.9862     0.0000   160.0061     2.7295     6.8119     6.8631     0.0000  2902.0000     0.0000     0.0324     0.4646     0.0000     0.0000     0.0000     0.5030     0.0000
   4382.5000     7.2741     7.2595  1054.4131   100.3295     0.5168     6.6176     6.6573     0.0758     0.0485     0.0444     2.0865     0.2763     0.0000     0.0049    44.8209    -9.6015     0.6436   133.9054   125.9229    52.0858    51.7603    -7.9508   211.9865     0.1523   160.0315     2.7330     6.8153     6.8570     0.0000  2969.0000     0.0000     0.0555     0.4815     0.0000     0.0000     0.0000     0.4630     0.0000
   4383.0000     7.2741     7.2612  1039.8375   100.3295     0.5177     6.6181     6.6663     0.0752     0.0573     0.0438     6.2595     0.2673     0.0000     0.0054    44.8209    -9.5560     0.6733   136.8012   125.9295    52.0785    51.7568    -7.9149   211.9233     0.1192   159.9760     2.7335     6.8158     6.8665     0.0000  3033.0000     0.0000     0.0792     0.4758     0.0000     0.0000     0.0000     0.4450     0.0000
   4383.5000     7.2689     7.2630  1068.9885   100.3295     0.5159     6.6199     6.6692     0.0698     0.0680     0.0407     9.3417     0.2645     0.0000     0.0050    44.8209    -9.5104     0.6636   138.5544   125.9361    52.0549    51.7352    -7.8789   211.9207     2.0068   159.9968     2.7295     6.8175     6.8692     0.0000  2934.0000     0.0000     0.1079     0.4281     0.0000     0.0000     0.0000     0.4640     0.0000
   4384.0000     7.2637     7.2733  1068.9885   100.3295     0.5185     6.6144     6.6590     0.0674     0.0629     0.0391    12.7969     0.2747     0.0000     0.0051    44.8209    -9.4648     0.7270   136.3558   125.9427    52.0600    51.7496    -7.8430   211.9538     0.9168   160.0245     2.7258     6.8116     6.8584     0.0000  3010.0000     0.0000     0.0943     0.4071     0.0000     0.0000     0.0000     0.4986     0.0000
   4384.5000     7.2637     7.2887  1054.4131   100.3295     0.5262     6.6239     6.6680     0.0640     0.0619     0.0375    10.0625     0.2816     0.0000     0.0042    44.8209    -9.4193     0.6908   127.3991   125.9493    52.0358    51.7343    -7.8071   211.6468     0.6208   159.7436     2.7225     6.8217     6.8679     0.0000  2992.0000     0.0000     0.0915     0.3777     0.0000     0.0000     0.0000     0.5308     0.0000
   4385.0000     7.2637     7.2853  1073.9656   100.3295     0.5245     6.6222     6.6761     0.0617     0.0617     0.0362     8.4969     0.2859     0.0000     0.0037    44.8209    -9.3737     0.6773   127.7663   125.9559    52.0456    51.7099    -7.7711   211.4921     0.2229   159.5799     2.7202     6.8199     6.8765     0.0000  2961.0000     0.0000     0.0911     0.3571     0.0000     0.0000     0.0000     0.5518     0.0000
   4385.5000     7.2412     7.2655  1068.9885   100.3295     0.5033     6.6238     6.6636     0.0583     0.0719     0.0345     7.4109     0.2798     0.0000     0.0027    44.8209    -9.3281     0.6536   128.1518   125.9625    52.0280    51.7388    -7.7351   211.3332     0.9473   159.4394     2.7188     6.8203     6.8621     0.0000  3026.0000     0.0000     0.1185     0.3271     0.0000     0.0000     0.0000     0.5544     0.0000
   4386.0000     7.2724     7.2887  1049.4360   100.3295     0.5306     6.6269     6.6677     0.0574     0.0778     0.0339     8.5923     0.2745     0.0000     0.0030    44.8209    -9.2825     0.6903   133.6037   125.9691    52.0235    51.7165    -7.6991   211.2379     0.8306   159.3492     2.7187     6.8252     6.8680     0.0000  2982.0000     0.0000     0.1343     0.3197     0.0000     0.0000     0.0000     0.5461     0.0000
   4386.5000     7.2715     7.2767  1073.9656   100.3295     0.5241     6.6280     6.6783     0.0610     0.0801     0.0360     9.9188     0.2655     0.0000     0.0031    44.8209    -9.2369     0.6794   123.6735   125.9758    52.0076    51.6990    -7.6631   211.1950     1.2373   159.3224     2.7230     6.8263     6.8790     0.0000  2985.0000     0.0000     0.1403     0.3511     0.0000     0.0000     0.0000     0.5085     0.0000
   4387.0000     7.2672     7.2870  1054.4131   100.3295     0.5271     6.6246     6.6708     0.0661     0.0828     0.0390    10.8604     0.2532     0.0000     0.0036    44.8209    -9.1913     0.7039   126.5617   125.9824    51.9891    51.7002    -7.6271   211.2569     0.8845   159.4023     2.7289     6.8226     6.8710     0.0000  3026.0000     0.0000     0.1477     0.3963     0.0000     0.0000     0.0000     0.4560     0.0000
