~VERSION INFORMATION
VERS.           1.2   :CWLS Log ASCII Standard - VERSION 1.2
WRAP.           NO    :One Line per depth step
PROD.  Schlumberger   :LAS Producer
PROG.  DLIS to ASCII 17C0-152                          :LAS Program name and version
CREA.        2011/10/27 17:25                          :LAS Creation date {YYYY/MM/DD hh:mm}
DLIS_CREA.  2011-Oct-27 07:30                          :DLIS Creation date and time {YYYY-MMM-DD hh:mm}
SOURCE.     9895fb31-02c7-4189-bf8e-52df0b775dd1       :DLIS File Name
#--------------------------------------------------
~WELL INFORMATION
#MNEM.UNIT      DATA             DESCRIPTION
#---- ------ --------------   -----------------------------
STRT .F      3344.0000       :START DEPTH     
STOP .F      3862.5000       :STOP DEPTH     
STEP .F       0.5000         :STEP       
NULL .          -999.25      :NULL VALUE
COMP .                 COMPANY:  SWEPI LP                           
WELL .                    WELL:  Harper Hill 2-29                   
FLD  .                   FIELD:  Swan                               
LOC  .                LOCATION:                                     
CNTY .                  COUNTY:  Moffat                             
STAT .                   STATE:  Colorado                           
CTRY .                 COUNTRY:                                     
SRVC .         SERVICE COMPANY:  Schlumberger                       
API  .              API NUMBER:  05-0081-07659                      
DATE .                LOG DATE:  26-Oct-2011
UWI  .          UNIQUE WELL ID:                                     
#-----------------------------------------------------------------------------
~PARAMETER INFORMATION
#MNEM.UNIT    VALUE                      DESCRIPTION
#---- -----   --------------------       ------------------------
CN   .        SWEPI LP                   :Company Name
WN   .        Harper Hill 2-29           :Well Name
FN   .        Swan                       :Field Name
FL   .                                   :Field Location
FL1  .                                   :Field Location Line 1
COUN .        Moffat                     :County or Rig Name
STAT .        Colorado                   :State or Province
NATI .                                   :Nation
DATE .        26-Oct-2011                :Date as Month-Day-Year
APIN .        05-0081-07659              :API Serial Number
SECT .        29                         :Section
TOWN .        5N                         :Township
RANG .        90W                        :Range
DMF  .        Kelly Bushing              :Drilling Measured From
LMF  .        Kelly Bushing              :Log Measured From
PDAT .        Ground Level               :Permanent Datum
ENGI .        Mark Kast                  :Engineer's Name
WITN .        Tony                       :Witness's Name
LATI .                                   :Latitude
LONG .                                   :Longitude
LUL  .        Rock Springs               :Logging Unit Location
LUN  .              2271                 :Logging Unit Number
RUN  .        Two                        :Run Number
SON  .                                   :Service Order Number
BHT  .DEGF     127.00000                 :Bottom Hole Temperature (used in calculations)
BS   .IN         6.75000                 :Bit Size
DFD  .LB/G       7.90000                 :Drilling Fluid Density
DFV  .S         44.00000                 :Drilling Fluid Viscosity
DFL  .C3        16.60000                 :Drilling Fluid Loss
RMFS .                                   :Resistivity of Mud Filtrate Sample
EKB  .F       6597.00000                 :Elevation of Kelly Bushing
EGL  .F       6585.00000                 :Elevation of Ground Level
BLI  .                                   :Bottom Log Interval
BSAL .PPM     44500.00000                :Borehole Salinity
FLEV .                                   :Fluid Level
MCST .                                   :Mud Cake Sample Temperature
MFST .                                   :Mud Filtrate Sample Temperature
MRT  .DEGF     127.00000                 :Maximum Recorded Temperature
MST  .                                   :Mud Sample Temperature
RMCS .                                   :Resistivity of Mud Cake Sample
RMS  .                                   :Resistivity of Mud Sample
RW   .OHMM       1.00000                 :Resistivity of Connate Water
TDD  .F       4480.00000                 :Total Depth - Driller
TDL  .F       4482.00000                 :Total Depth - Logger
TLI  .                                   :Top Log Interval
HIDE .                                   :Header Identifier
MATR .        SAND                       :Rock Matrix for Neutron Porosity Corrections
DFT  .        OBM                        :Drilling Fluid Type
DFPH .                                   :Drilling Fluid PH
MCSS .        N/A                        :Mud Cake Sample Source
MFSS .        N/A                        :Mud Filtrate Sample Source
MSS  .        N/A                        :Mud Sample Source
OS1  .                                   :Other Services Line 1
OS2  .                                   :Other Services Line 2
OS3  .                                   :Other Services Line 3
OS4  .                                   :Other Services Line 4
OS5  .                                   :Other Services Line 5
R1   .                                   :Remark Line 1
R2   .                                   :Remark Line 2
R3   .                                   :Remark Line 3
R4   .                                   :Remark Line 4
R5   .                                   :Remark Line 5
R6   .                                   :Remark Line 6
R7   .                                   :Remark Line 7
R8   .                                   :Remark Line 8
TCS  .        20 00                      :Time Circulation Stopped
TLAB .                                   :Time Logger At Bottom
EPD  .F         6585.000000              :Elevation of Permanent Datum above Mean Sea Level
APD  .F          12.000000               :Elevation of Depth Reference (LMF) above Permanent Datum
#-----------------------------------------------------------------------------
~CURVE INFORMATION
#MNEM.UNIT   API CODE                                  DESCRIPTION
#---- -----  --------                                  -----------------------
DEPT .F                                                :DEPTH (BOREHOLE) {F12.4}
C1_OBMT.IN                                             :OBMT Caliper 1 {F11.4}
C2_OBMT.IN                                             :OBMT Caliper 2 {F11.4}
CDF  .LBF                                              :Calibrated Downhole Force {F11.4}
CTEM .DEGF                                             :Cartridge Temperature {F11.4}
DCAL .IN                                               :Differential Caliper {F11.4}
DEVI .DEG                                              :Hole Deviation {F11.4}
DEVIM.DEG                                              :Memorized Deviation {F11.4}
DWAL_WALK2.                                            :Dry Weight Fraction Pseudo Aluminum (SpectroLith WALK2 Model) {F11.4}
DWCA_WALK2.                                            :Dry Weight Fraction Calcium (SpectroLith WALK2 Model) {F11.4}
DWFE_WALK2.                                            :Dry Weight Fraction Iron + 0.14 Aluminum (SpectroLith WALK2 Model) {F11.4}
DWGD_WALK2.PPM                                         :Dry Weight Fraction Gadolinium (SpectroLith WALK2 Model) {F11.4}
DWSI_WALK2.                                            :Dry Weight Fraction Silicon (SpectroLith WALK2 Model) {F11.4}
DWSU_WALK2.                                            :Dry Weight Fraction Sulfur (SpectroLith WALK2 Model) {F11.4}
DWTI_WALK2.                                            :Dry Weight Fraction Titanium (SpectroLith WALK2 Model) {F11.4}
ECST .DEGF                                             :ECS Temperature {F11.4}
ED   .F                                                :East Departure {F11.4}
ESUF_WALK2.                                            :Elemental Statistical Uncertainty Factor (SpectroLith WALK2 Model) {F11.4}
GR_EDTC.GAPI                                           :EDTC Gamma Ray {F11.4}
GTEM .DEGF                                             :Generalized Borehole Temperature {F11.4}
HAZI .DEG                                              :Hole Azimuth {F11.4}
HAZIM.DEG                                              :Hole Azimuth {F11.4}
ND   .F                                                :North Departure {F11.4}
P1AZ .DEG                                              :Pad 1 Azimuth {F11.4}
QCPMT.                                                 :Photomultiplier Tube Quality Control {F11.4}
RB   .DEG                                              :Relative Bearing {F11.4}
RHGE_WALK2.G/C3                                        :Matrix Density from Elemental Concentrations (SpectroLith WALK2 Model) {F11.4}
SDEV .DEG                                              :Sonde Deviation {F11.4}
SDEVM.DEG                                              :Sonde Deviation {F11.4}
STIT .F                                                :Stuck Tool Indicator, Total {F11.4}
TENS .LBF                                              :Cable Tension {F11.4}
WANH_WALK2.                                            :Dry Weight Fraction Anhydrite/Gypsum (SpectroLith WALK2 Model) {F11.4}
WCAR_WALK2.                                            :Dry Weight Fraction Carbonate (SpectroLith WALK2 Model) {F11.4}
WCLA_WALK2.                                            :Dry Weight Fraction Clay (SpectroLith WALK2 Model) {F11.4}
WCOA_WALK2.                                            :Dry Weight Fraction Coal (SpectroLith WALK2 Model) {F11.4}
WEVA_WALK2.                                            :Dry Weight Fraction Salt (SpectroLith WALK2 Model) {F11.4}
WPYR_WALK2.                                            :Dry Weight Fraction Pyrite (SpectroLith WALK2 Model) {F11.4}
WQFM_WALK2.                                            :Dry Weight Fraction Quartz+Feldspar+Mica (QFM) (SpectroLith WALK2 Model) {F11.4}
WSID_WALK2.                                            :Dry Weight Fraction Siderite (SpectroLith WALK2 Model) {F11.4}
#-----------------------------------------------------------------------------
# 
#      DEPT      C1_OBMT    C2_OBMT      CDF        CTEM       DCAL       DEVI      DEVIM    DWAL_WALK2 DWCA_WALK2 DWFE_WALK2 DWGD_WALK2 DWSI_WALK2 DWSU_WALK2 DWTI_WALK2    ECST        ED     ESUF_WALK2  GR_EDTC      GTEM       HAZI      HAZIM        ND        P1AZ      QCPMT        RB     RHGE_WALK2    SDEV      SDEVM       STIT       TENS    WANH_WALK2 WCAR_WALK2 WCLA_WALK2 WCOA_WALK2 WEVA_WALK2 WPYR_WALK2 WQFM_WALK2 WSID_WALK2
#
~A  
# ...
   3686.0000     7.1563     7.1830  1083.5641   122.0707     0.4196     3.7437     3.6845     0.0599     0.1545     0.0359     7.1801     0.1801     0.0000     0.0018    49.5030   -14.2732     0.5796   140.5809   116.7173   157.1701   156.9030     2.1426   349.7584     0.7690   192.5614     2.7355     3.8114     3.7501     0.0000  2600.0000     0.0000     0.3405     0.3417     0.0000     0.0000     0.0000     0.3179     0.0000
   3686.5000     7.1571     7.1795  1049.4360   122.0707     0.4183     3.7436     3.6832     0.0604     0.1395     0.0359    10.2318     0.1970     0.0000     0.0026    48.9178   -14.2606     0.6111   139.6073   116.7240   157.1696   156.8364     2.1130   349.4941     0.5276   192.2982     2.7329     3.8113     3.7487     0.0000  2458.0000     0.0000     0.3003     0.3458     0.0000     0.0000     0.0000     0.3539     0.0000
   3687.0000     7.1545     7.1753  1025.2621   122.0707     0.4149     3.7391     3.6694     0.0584     0.1302     0.0344    12.1312     0.2116     0.0000     0.0032    48.3325   -14.2479     0.6109   136.8446   116.7306   157.1801   156.7758     2.0836   349.4946     1.1500   192.2882     2.7286     3.8065     3.7344     0.0000  2487.0000     0.0000     0.2752     0.3283     0.0000     0.0000     0.0000     0.3965     0.0000
   3687.5000     7.1554     7.1778  1064.0116   122.0707     0.4166     3.7429     3.6671     0.0552     0.1273     0.0327    12.0496     0.2207     0.0000     0.0025    48.3325   -14.2353     0.6211   129.2685   116.7372   157.1731   156.6680     2.0542   349.4726     0.8946   192.2732     2.7249     3.8104     3.7320     0.0000  2552.0000     0.0000     0.2673     0.2999     0.0000     0.0000     0.0000     0.4328     0.0000
   3688.0000     7.1554     7.1778  1010.6865   122.0707     0.4166     3.7407     3.6727     0.0537     0.1276     0.0321    10.2605     0.2225     0.0000     0.0018    48.3325   -14.2226     0.6356   118.7542   116.7438   157.1457   156.5736     2.0248   349.3722     0.8259   192.2003     2.7240     3.8082     3.7378     0.0000  2397.0000     0.0000     0.2683     0.2874     0.0000     0.0000     0.0000     0.4443     0.0000
   3688.5000     7.1485     7.1778  1025.2621   122.0707     0.4131     3.7366     3.6571     0.0529     0.1267     0.0318     9.2409     0.2249     0.0000     0.0013    48.3325   -14.2099     0.6319   117.4279   116.7504   157.1523   156.5149     1.9955   349.3904     0.4709   192.2119     2.7233     3.8038     3.7216     0.0000  2508.0000     0.0000     0.2657     0.2804     0.0000     0.0000     0.0000     0.4539     0.0000
   3689.0000     7.1441     7.1787  1059.3900   122.0707     0.4114     3.7434     3.6489     0.0551     0.1258     0.0330     9.5401     0.2222     0.0000     0.0017    48.3325   -14.1971     0.6360   121.6940   116.7570   157.1508   156.3721     1.9663   349.3027     0.9933   192.1259     2.7252     3.8108     3.7131     0.0000  2544.0000     0.0000     0.2634     0.2993     0.0000     0.0000     0.0000     0.4372     0.0000
   3689.5000     7.1502     7.1813   991.1340   122.0707     0.4157     3.7377     3.6522     0.0569     0.1292     0.0338    11.1419     0.2152     0.0000     0.0023    48.3325   -14.1844     0.6554   120.7204   116.7636   157.1271   156.3031     1.9371   349.2600     0.4606   192.1069     2.7273     3.8050     3.7166     0.0000  2352.0000     0.0000     0.2727     0.3147     0.0000     0.0000     0.0000     0.4126     0.0000
   3690.0000     7.1441     7.1830  1015.6635   122.0707     0.4135     3.7308     3.6392     0.0599     0.1241     0.0352    10.8692     0.2162     0.0000     0.0035    48.3325   -14.1716     0.6539   119.7469   116.7702   157.1373   156.1928     1.9080   349.2473     1.0776   192.0842     2.7290     3.7977     3.7031     0.0000  2517.0000     0.0000     0.2588     0.3416     0.0000     0.0000     0.0000     0.3996     0.0000
   3690.5000     7.1467     7.1864  1064.0116   122.0707     0.4165     3.7381     3.6330     0.0610     0.1108     0.0355     9.7904     0.2301     0.0000     0.0045    48.3325   -14.1587     0.7021   113.3214   116.7768   157.0867   156.1085     1.8790   349.1168     0.1798   192.0044     2.7272     3.8053     3.6967     0.0000  2534.0000     0.0000     0.2231     0.3511     0.0000     0.0000     0.0000     0.4257     0.0000
   3691.0000     7.1502     7.1881   981.5355   122.0707     0.4191     3.7344     3.6294     0.0633     0.0878     0.0359     6.9237     0.2538     0.0029     0.0059    48.3325   -14.1459     0.7790   115.8527   116.7834   157.0906   156.0063     1.8501   349.1242     0.0000   192.0077     2.7274     3.8016     3.6930     0.0000  2371.0000     0.0000     0.1612     0.3710     0.0000     0.0000     0.0054     0.4624     0.0000
   3691.5000     7.1485     7.1881  1010.6865   122.0707     0.4183     3.7270     3.6221     0.0628     0.0856     0.0342     6.3730     0.2584     0.0135     0.0058    48.3325   -14.1330     0.7888   120.7204   116.7900   157.0959   155.8631     1.8212   349.0980     0.0000   191.9765     2.7365     3.7939     3.6854     0.0000  2520.0000     0.0000     0.1553     0.3671     0.0000     0.0000     0.0252     0.4524     0.0000
   3692.0000     7.1528     7.1839  1068.9885   122.0707     0.4183     3.7374     3.6147     0.0611     0.0843     0.0327     5.8394     0.2635     0.0169     0.0059    48.3325   -14.1201     0.7822   130.7561   116.7966   157.0797   155.7761     1.7924   348.9167     0.0000   191.8116     2.7374     3.8048     3.6778     0.0000  2554.0000     0.0000     0.1517     0.3525     0.0000     0.0000     0.0316     0.4643     0.0000
   3692.5000     7.1537     7.1813   986.5125   122.0707     0.4174     3.7310     3.6090     0.0554     0.0921     0.0305     6.4587     0.2635     0.0116     0.0046    48.3325   -14.1071     0.7894   133.0927   116.8033   157.0919   155.6585     1.7637   348.8779     0.0000   191.7609     2.7284     3.7981     3.6719     0.0000  2373.0000     0.0000     0.1727     0.3023     0.0000     0.0000     0.0218     0.5031     0.0000
   3693.0000     7.1571     7.1813  1020.2850   122.0707     0.4192     3.7220     3.6021     0.0532     0.0790     0.0307     4.9249     0.2811     0.0006     0.0043    48.3325   -14.0941     0.8015   135.6239   116.8099   157.1391   155.5704     1.7351   348.8328     0.0001   191.6687     2.7137     3.7889     3.6649     0.0000  2492.0000     0.0000     0.1376     0.2829     0.0000     0.0000     0.0011     0.5783     0.0000
   3693.5000     7.1571     7.1795  1068.9885   122.0707     0.4183     3.7341     3.5933     0.0526     0.0764     0.0310     3.0147     0.2848     0.0000     0.0030    48.3325   -14.0811     0.7863   132.7382   116.8165   157.0775   155.4693     1.7065   348.6608     0.5272   191.5584     2.7130     3.8014     3.6558     0.0000  2566.0000     0.0000     0.1305     0.2773     0.0000     0.0000     0.0000     0.5922     0.0000
   3694.0000     7.1510     7.1770  1010.6865   122.0707     0.4140     3.7284     3.5913     0.0577     0.0646     0.0336     1.1613     0.2898     0.0024     0.0032    48.3325   -14.0681     0.7573   140.9160   116.8231   157.0797   155.3485     1.6780   348.6487     0.2606   191.5444     2.7189     3.7954     3.6536     0.0000  2404.0000     0.0000     0.0989     0.3221     0.0000     0.0000     0.0046     0.5745     0.0000
   3694.5000     7.1510     7.1753  1030.2390   122.0707     0.4131     3.7204     3.5910     0.0603     0.0659     0.0341     1.5547     0.2846     0.0105     0.0034    48.3325   -14.0550     0.7515   138.7742   116.8297   157.0855   155.1659     1.6496   348.6144     0.0000   191.5045     2.7293     3.7871     3.6533     0.0000  2509.0000     0.0000     0.1023     0.3452     0.0000     0.0000     0.0196     0.5329     0.0000
   3695.0000     7.1502     7.1795  1054.4131   122.0707     0.4149     3.7294     3.5767     0.0618     0.0638     0.0346     4.0609     0.2848     0.0100     0.0045    48.3325   -14.0418     0.7636   144.6471   116.8363   157.0859   155.0732     1.6212   348.5592     0.0000   191.4488     2.7294     3.7965     3.6385     0.0000  2534.0000     0.0000     0.0966     0.3583     0.0000     0.0000     0.0188     0.5263     0.0000
