~VERSION INFORMATION
VERS.           1.2   :CWLS Log ASCII Standard - VERSION 1.2
WRAP.           NO    :One Line per depth step
PROD.  Schlumberger   :LAS Producer
PROG.  DLIS to ASCII 17C0-152                          :LAS Program name and version
CREA.        2011/10/27 17:25                          :LAS Creation date {YYYY/MM/DD hh:mm}
DLIS_CREA.  2011-Oct-27 07:30                          :DLIS Creation date and time {YYYY-MMM-DD hh:mm}
SOURCE.     9895fb31-02c7-4189-bf8e-52df0b775dd1       :DLIS File Name
#--------------------------------------------------
~WELL INFORMATION
#MNEM.UNIT      DATA             DESCRIPTION
#---- ------ --------------   -----------------------------
STRT .F      3344.0000       :START DEPTH     
STOP .F      3862.5000       :STOP DEPTH     
STEP .F       0.5000         :STEP       
NULL .          -999.25      :NULL VALUE
COMP .                 COMPANY:  SWEPI LP                           
WELL .                    WELL:  Harper Hill 2-29                   
FLD  .                   FIELD:  Swan                               
LOC  .                LOCATION:                                     
CNTY .                  COUNTY:  Moffat                             
STAT .                   STATE:  Colorado                           
CTRY .                 COUNTRY:                                     
SRVC .         SERVICE COMPANY:  Schlumberger                       
API  .              API NUMBER:  05-0081-07659                      
DATE .                LOG DATE:  26-Oct-2011
UWI  .          UNIQUE WELL ID:                                     
#-----------------------------------------------------------------------------
~PARAMETER INFORMATION
#MNEM.UNIT    VALUE                      DESCRIPTION
#---- -----   --------------------       ------------------------
CN   .        SWEPI LP                   :Company Name
WN   .        Harper Hill 2-29           :Well Name
FN   .        Swan                       :Field Name
FL   .                                   :Field Location
FL1  .                                   :Field Location Line 1
COUN .        Moffat                     :County or Rig Name
STAT .        Colorado                   :State or Province
NATI .                                   :Nation
DATE .        26-Oct-2011                :Date as Month-Day-Year
APIN .        05-0081-07659              :API Serial Number
SECT .        29                         :Section
TOWN .        5N                         :Township
RANG .        90W                        :Range
DMF  .        Kelly Bushing              :Drilling Measured From
LMF  .        Kelly Bushing              :Log Measured From
PDAT .        Ground Level               :Permanent Datum
ENGI .        Mark Kast                  :Engineer's Name
WITN .        Tony                       :Witness's Name
LATI .                                   :Latitude
LONG .                                   :Longitude
LUL  .        Rock Springs               :Logging Unit Location
LUN  .              2271                 :Logging Unit Number
RUN  .        Two                        :Run Number
SON  .                                   :Service Order Number
BHT  .DEGF     127.00000                 :Bottom Hole Temperature (used in calculations)
BS   .IN         6.75000                 :Bit Size
DFD  .LB/G       7.90000                 :Drilling Fluid Density
DFV  .S         44.00000                 :Drilling Fluid Viscosity
DFL  .C3        16.60000                 :Drilling Fluid Loss
RMFS .                                   :Resistivity of Mud Filtrate Sample
EKB  .F       6597.00000                 :Elevation of Kelly Bushing
EGL  .F       6585.00000                 :Elevation of Ground Level
BLI  .                                   :Bottom Log Interval
BSAL .PPM     44500.00000                :Borehole Salinity
FLEV .                                   :Fluid Level
MCST .                                   :Mud Cake Sample Temperature
MFST .                                   :Mud Filtrate Sample Temperature
MRT  .DEGF     127.00000                 :Maximum Recorded Temperature
MST  .                                   :Mud Sample Temperature
RMCS .                                   :Resistivity of Mud Cake Sample
RMS  .                                   :Resistivity of Mud Sample
RW   .OHMM       1.00000                 :Resistivity of Connate Water
TDD  .F       4480.00000                 :Total Depth - Driller
TDL  .F       4482.00000                 :Total Depth - Logger
TLI  .                                   :Top Log Interval
HIDE .                                   :Header Identifier
MATR .        SAND                       :Rock Matrix for Neutron Porosity Corrections
DFT  .        OBM                        :Drilling Fluid Type
DFPH .                                   :Drilling Fluid PH
MCSS .        N/A                        :Mud Cake Sample Source
MFSS .        N/A                        :Mud Filtrate Sample Source
MSS  .        N/A                        :Mud Sample Source
OS1  .                                   :Other Services Line 1
OS2  .                                   :Other Services Line 2
OS3  .                                   :Other Services Line 3
OS4  .                                   :Other Services Line 4
OS5  .                                   :Other Services Line 5
R1   .                                   :Remark Line 1
R2   .                                   :Remark Line 2
R3   .                                   :Remark Line 3
R4   .                                   :Remark Line 4
R5   .                                   :Remark Line 5
R6   .                                   :Remark Line 6
R7   .                                   :Remark Line 7
R8   .                                   :Remark Line 8
TCS  .        20 00                      :Time Circulation Stopped
TLAB .                                   :Time Logger At Bottom
EPD  .F         6585.000000              :Elevation of Permanent Datum above Mean Sea Level
APD  .F          12.000000               :Elevation of Depth Reference (LMF) above Permanent Datum
#-----------------------------------------------------------------------------
~CURVE INFORMATION
#MNEM.UNIT   API CODE                                  DESCRIPTION
#---- -----  --------                                  -----------------------
DEPT .F                                                :DEPTH (BOREHOLE) {F12.4}
C1_OBMT.IN                                             :OBMT Caliper 1 {F11.4}
C2_OBMT.IN                                             :OBMT Caliper 2 {F11.4}
CDF  .LBF                                              :Calibrated Downhole Force {F11.4}
CTEM .DEGF                                             :Cartridge Temperature {F11.4}
DCAL .IN                                               :Differential Caliper {F11.4}
DEVI .DEG                                              :Hole Deviation {F11.4}
DEVIM.DEG                                              :Memorized Deviation {F11.4}
DWAL_WALK2.                                            :Dry Weight Fraction Pseudo Aluminum (SpectroLith WALK2 Model) {F11.4}
DWCA_WALK2.                                            :Dry Weight Fraction Calcium (SpectroLith WALK2 Model) {F11.4}
DWFE_WALK2.                                            :Dry Weight Fraction Iron + 0.14 Aluminum (SpectroLith WALK2 Model) {F11.4}
DWGD_WALK2.PPM                                         :Dry Weight Fraction Gadolinium (SpectroLith WALK2 Model) {F11.4}
DWSI_WALK2.                                            :Dry Weight Fraction Silicon (SpectroLith WALK2 Model) {F11.4}
DWSU_WALK2.                                            :Dry Weight Fraction Sulfur (SpectroLith WALK2 Model) {F11.4}
DWTI_WALK2.                                            :Dry Weight Fraction Titanium (SpectroLith WALK2 Model) {F11.4}
ECST .DEGF                                             :ECS Temperature {F11.4}
ED   .F                                                :East Departure {F11.4}
ESUF_WALK2.                                            :Elemental Statistical Uncertainty Factor (SpectroLith WALK2 Model) {F11.4}
GR_EDTC.GAPI                                           :EDTC Gamma Ray {F11.4}
GTEM .DEGF                                             :Generalized Borehole Temperature {F11.4}
HAZI .DEG                                              :Hole Azimuth {F11.4}
HAZIM.DEG                                              :Hole Azimuth {F11.4}
ND   .F                                                :North Departure {F11.4}
P1AZ .DEG                                              :Pad 1 Azimuth {F11.4}
QCPMT.                                                 :Photomultiplier Tube Quality Control {F11.4}
RB   .DEG                                              :Relative Bearing {F11.4}
RHGE_WALK2.G/C3                                        :Matrix Density from Elemental Concentrations (SpectroLith WALK2 Model) {F11.4}
SDEV .DEG                                              :Sonde Deviation {F11.4}
SDEVM.DEG                                              :Sonde Deviation {F11.4}
STIT .F                                                :Stuck Tool Indicator, Total {F11.4}
TENS .LBF                                              :Cable Tension {F11.4}
WANH_WALK2.                                            :Dry Weight Fraction Anhydrite/Gypsum (SpectroLith WALK2 Model) {F11.4}
WCAR_WALK2.                                            :Dry Weight Fraction Carbonate (SpectroLith WALK2 Model) {F11.4}
WCLA_WALK2.                                            :Dry Weight Fraction Clay (SpectroLith WALK2 Model) {F11.4}
WCOA_WALK2.                                            :Dry Weight Fraction Coal (SpectroLith WALK2 Model) {F11.4}
WEVA_WALK2.                                            :Dry Weight Fraction Salt (SpectroLith WALK2 Model) {F11.4}
WPYR_WALK2.                                            :Dry Weight Fraction Pyrite (SpectroLith WALK2 Model) {F11.4}
WQFM_WALK2.                                            :Dry Weight Fraction Quartz+Feldspar+Mica (QFM) (SpectroLith WALK2 Model) {F11.4}
WSID_WALK2.                                            :Dry Weight Fraction Siderite (SpectroLith WALK2 Model) {F11.4}
#-----------------------------------------------------------------------------
# 
#      DEPT      C1_OBMT    C2_OBMT      CDF        CTEM       DCAL       DEVI      DEVIM    DWAL_WALK2 DWCA_WALK2 DWFE_WALK2 DWGD_WALK2 DWSI_WALK2 DWSU_WALK2 DWTI_WALK2    ECST        ED     ESUF_WALK2  GR_EDTC      GTEM       HAZI      HAZIM        ND        P1AZ      QCPMT        RB     RHGE_WALK2    SDEV      SDEVM       STIT       TENS    WANH_WALK2 WCAR_WALK2 WCLA_WALK2 WCOA_WALK2 WEVA_WALK2 WPYR_WALK2 WQFM_WALK2 WSID_WALK2
#
~A  
   3344.0000     7.5292     7.3017  1010.6865   124.0472     0.6646    11.4541    11.4541     0.0655     0.1515     0.0369     2.9374     0.1758     0.0104     0.0042    49.5030   -11.2007     0.6975   164.7248   112.1972   200.5107   200.5107    37.6641    25.1778     0.0000   184.5673     2.7490    11.8956    11.8956     0.0000  2310.0000     0.0000     0.3325     0.3903     0.0000     0.0000     0.0194     0.2577     0.0000
   3344.5000     7.5292     7.3017  1010.6865   124.0472     0.6646    11.4541    11.4541     0.0655     0.1515     0.0369     2.9374     0.1758     0.0104     0.0042    49.5030   -11.2007     0.6975   164.7248   112.2038   200.5107   200.5107    37.6641    25.1778     0.0000   184.5673     2.7490    11.8956    11.8956     0.0000  2310.0000     0.0000     0.3325     0.3903     0.0000     0.0000     0.0194     0.2577     0.0000
   3345.0000     7.5292     7.3017  1010.6865   124.0472     0.6646    11.4541    11.4541     0.0655     0.1515     0.0369     2.9374     0.1758     0.0104     0.0042    49.5030   -11.2007     0.6975   164.7248   112.2104   200.5107   200.5107    37.6641    25.1778     0.0000   184.5673     2.7490    11.8956    11.8956     0.0000  2310.0000     0.0000     0.3325     0.3903     0.0000     0.0000     0.0194     0.2577     0.0000
   3345.5000     7.5292     7.3017  1010.6865   124.0472     0.6646    11.4541    11.4541     0.0655     0.1515     0.0369     2.9374     0.1758     0.0104     0.0042    49.5030   -11.2007     0.6975   164.7248   112.2170   200.5107   200.5107    37.6641    25.1778     0.0000   184.5673     2.7490    11.8956    11.8956     0.0000  2310.0000     0.0000     0.3325     0.3903     0.0000     0.0000     0.0194     0.2577     0.0000
   3346.0000     7.5292     7.3017  1010.6865   124.0472     0.6646    11.4541    11.4541     0.0655     0.1515     0.0369     2.9374     0.1758     0.0104     0.0042    49.5030   -11.2007     0.6975   164.7248   112.2236   200.5107   200.5107    37.6641    25.1778     0.0000   184.5673     2.7490    11.8956    11.8956     0.0000  2310.0000     0.0000     0.3325     0.3903     0.0000     0.0000     0.0194     0.2577     0.0000
   3346.5000     7.5292     7.3017  1010.6865   124.0472     0.6646    11.4541    11.4541     0.0655     0.1515     0.0369     2.9374     0.1758     0.0104     0.0042    49.5030   -11.2007     0.6975   161.4147   112.2302   200.5107   200.5107    37.6641    25.1778     0.0000   184.5673     2.7490    11.8956    11.8956     0.0000  2310.0000     0.0000     0.3325     0.3903     0.0000     0.0000     0.0194     0.2577     0.0000
   3347.0000     7.5292     7.3017  1010.6865   124.0472     0.6646    11.4541    11.4541     0.0655     0.1515     0.0369     2.9374     0.1758     0.0104     0.0042    49.5030   -11.2007     0.6975   161.1428   112.2368   200.5107   200.5107    37.6641    25.1778     0.0000   184.5673     2.7490    11.8956    11.8956     0.0000  2310.0000     0.0000     0.3325     0.3903     0.0000     0.0000     0.0194     0.2577     0.0000
   3347.5000     7.5292     7.3017  1010.6865   124.0472     0.6646    11.4541    11.4541     0.0655     0.1515     0.0369     2.9374     0.1758     0.0104     0.0042    49.5030   -11.2007     0.6975   163.6741   112.2434   200.5107   200.5107    37.6641    25.1778     0.0000   184.5673     2.7490    11.8956    11.8956     0.0000  2310.0000     0.0000     0.3325     0.3903     0.0000     0.0000     0.0194     0.2577     0.0000
   3348.0000     7.5292     7.3017  1010.6865   124.0472     0.6646    11.4541    11.4541     0.0655     0.1515     0.0369     2.9374     0.1758     0.0104     0.0042    49.5030   -11.2007     0.6975   161.5322   112.2500   200.5107   200.5107    37.6641    25.1778     0.0000   184.5673     2.7490    11.8956    11.8956     0.0000  2310.0000     0.0000     0.3325     0.3903     0.0000     0.0000     0.0194     0.2577     0.0000
   3348.5000     7.5292     7.3017  1010.6865   124.0472     0.6646    11.4541    11.4541     0.0655     0.1515     0.0369     2.9374     0.1758     0.0104     0.0042    49.5030   -11.2355     0.6975   162.9865   112.2567   200.5107   200.5107    37.5711    25.1778     0.0000   184.5673     2.7490    11.8956    11.8956     0.0000  2310.0000     0.0000     0.3325     0.3903     0.0000     0.0000     0.0194     0.2577     0.0000
   3349.0000     7.5292     7.3017  1010.6865   124.0472     0.6646    11.4541    11.4541     0.0655     0.1515     0.0369     2.9374     0.1758     0.0104     0.0042    49.5030   -11.2703     0.6975   167.6595   112.2633   200.5107   200.5107    37.4781    25.1778     0.0000   184.5673     2.7490    11.8956    11.8956     0.0000  2310.0000     0.0000     0.3325     0.3903     0.0000     0.0000     0.0194     0.2577     0.0000
   3349.5000     7.5292     7.3017  1010.6865   124.0472     0.6646    11.4541    11.4541     0.0655     0.1515     0.0369     2.9374     0.1758     0.0104     0.0042    49.5030   -11.3051     0.6975   169.9960   112.2699   200.5107   200.5107    37.3851    25.1778     0.0000   184.5673     2.7490    11.8956    11.8956     0.0000  2310.0000     0.0000     0.3325     0.3903     0.0000     0.0000     0.0194     0.2577     0.0000
   3350.0000     7.5292     7.3017  1010.6865   124.0472     0.6646    11.4541    11.4541     0.0655     0.1515     0.0369     2.9374     0.1758     0.0104     0.0042    49.5030   -11.3399     0.6975   169.7873   112.2765   200.5107   200.5107    37.2921    25.1778     0.0000   184.5673     2.7490    11.8956    11.8956     0.0000  2310.0000     0.0000     0.3325     0.3903     0.0000     0.0000     0.0194     0.2577     0.0000
   3350.5000     7.5292     7.3017  1010.6865   124.0472     0.6646    11.4541    11.4541     0.0655     0.1515     0.0369     2.9374     0.1758     0.0104     0.0042    49.5030   -11.3747     0.6975   162.9725   112.2831   200.5107   200.5107    37.1991    25.1778     0.0000   184.5673     2.7490    11.8956    11.8956     0.0000  2310.0000     0.0000     0.3325     0.3903     0.0000     0.0000     0.0194     0.2577     0.0000
   3351.0000     7.5292     7.3017  1010.6865   124.0472     0.6646    11.4541    11.4541     0.0655     0.1515     0.0369     2.9374     0.1758     0.0104     0.0042    49.5030   -11.4094     0.6975   164.3354   112.2897   200.5107   200.5107    37.1061    25.1778     0.0000   184.5673     2.7490    11.8956    11.8956     0.0000  2310.0000     0.0000     0.3325     0.3903     0.0000     0.0000     0.0194     0.2577     0.0000
   3351.5000     7.5292     7.3017  1010.6865   124.0472     0.6646    11.4541    11.4541     0.0655     0.1515     0.0369     2.9374     0.1758     0.0104     0.0042    49.5030   -11.4442     0.6975   167.8402   112.2963   200.5107   200.5107    37.0131    25.1778     0.0000   184.5673     2.7490    11.8956    11.8956     0.0000  2310.0000     0.0000     0.3325     0.3903     0.0000     0.0000     0.0194     0.2577     0.0000
   3352.0000     7.5292     7.3017  1010.6865   124.0472     0.6646    11.4541    11.4541     0.0652     0.1517     0.0367     2.9415     0.1760     0.0104     0.0042    49.5030   -11.4790     0.6985   166.2825   112.3029   200.5107   200.5107    36.9201    25.1778     0.0000   184.5673     2.7487    11.8956    11.8956     0.0000  2310.0000     0.0000     0.3331     0.3879     0.0000     0.0000     0.0194     0.2595     0.0000
   3352.5000     7.5292     7.3017  1010.6865   124.0472     0.6646    11.4541    11.4541     0.0648     0.1520     0.0365     2.9473     0.1764     0.0104     0.0043    49.5030   -11.5138     0.6999   165.0623   112.3095   200.5107   200.5107    36.8271    25.1778     0.0000   184.5673     2.7483    11.8956    11.8956     0.0000  2310.0000     0.0000     0.3339     0.3845     0.0000     0.0000     0.0195     0.2621     0.0000
   3353.0000     7.5292     7.3017  1010.6865   124.0472     0.6646    11.4541    11.4541     0.0644     0.1523     0.0362     2.9538     0.1768     0.0104     0.0043    50.6736   -11.5486     0.7014   162.1417   112.3161   200.5107   200.5107    36.7341    25.1778     0.0000   184.5673     2.7479    11.8956    11.8956     0.0000  2310.0000     0.0000     0.3348     0.3808     0.0000     0.0000     0.0195     0.2649     0.0000
