~VERSION INFORMATION
VERS.           1.2   :CWLS Log ASCII Standard - VERSION 1.2
WRAP.           NO    :One Line per depth step
PROD.  Schlumberger   :LAS Producer
PROG.  DLIS to ASCII 17C0-152                          :LAS Program name and version
CREA.        2011/10/27 17:25                          :LAS Creation date {YYYY/MM/DD hh:mm}
DLIS_CREA.  2011-Oct-27 07:30                          :DLIS Creation date and time {YYYY-MMM-DD hh:mm}
SOURCE.     9895fb31-02c7-4189-bf8e-52df0b775dd1       :DLIS File Name
#--------------------------------------------------
~WELL INFORMATION
#MNEM.UNIT      DATA             DESCRIPTION
#---- ------ --------------   -----------------------------
STRT .F      3344.0000       :START DEPTH     
STOP .F      3862.5000       :STOP DEPTH     
STEP .F       0.5000         :STEP       
NULL .          -999.25      :NULL VALUE
COMP .                 COMPANY:  SWEPI LP                           
WELL .                    WELL:  Harper Hill 2-29                   
FLD  .                   FIELD:  Swan                               
LOC  .                LOCATION:                                     
CNTY .                  COUNTY:  Moffat                             
STAT .                   STATE:  Colorado                           
CTRY .                 COUNTRY:                                     
SRVC .         SERVICE COMPANY:  Schlumberger                       
API  .              API NUMBER:  05-0081-07659                      
DATE .                LOG DATE:  26-Oct-2011
UWI  .          UNIQUE WELL ID:                                     
#-----------------------------------------------------------------------------
~PARAMETER INFORMATION
#MNEM.UNIT    VALUE                      DESCRIPTION
#---- -----   --------------------       ------------------------
CN   .        SWEPI LP                   :Company Name
WN   .        Harper Hill 2-29           :Well Name
FN   .        Swan                       :Field Name
FL   .                                   :Field Location
FL1  .                                   :Field Location Line 1
COUN .        Moffat                     :County or Rig Name
STAT .        Colorado                   :State or Province
NATI .                                   :Nation
DATE .        26-Oct-2011                :Date as Month-Day-Year
APIN .        05-0081-07659              :API Serial Number
SECT .        29                         :Section
TOWN .        5N                         :Township
RANG .        90W                        :Range
DMF  .        Kelly Bushing              :Drilling Measured From
LMF  .        Kelly Bushing              :Log Measured From
PDAT .        Ground Level               :Permanent Datum
ENGI .        Mark Kast                  :Engineer's Name
WITN .        Tony                       :Witness's Name
LATI .                                   :Latitude
LONG .                                   :Longitude
LUL  .        Rock Springs               :Logging Unit Location
LUN  .              2271                 :Logging Unit Number
RUN  .        Two                        :Run Number
SON  .                                   :Service Order Number
BHT  .DEGF     127.00000                 :Bottom Hole Temperature (used in calculations)
BS   .IN         6.75000                 :Bit Size
DFD  .LB/G       7.90000                 :Drilling Fluid Density
DFV  .S         44.00000                 :Drilling Fluid Viscosity
DFL  .C3        16.60000                 :Drilling Fluid Loss
RMFS .                                   :Resistivity of Mud Filtrate Sample
EKB  .F       6597.00000                 :Elevation of Kelly Bushing
EGL  .F       6585.00000                 :Elevation of Ground Level
BLI  .                                   :Bottom Log Interval
BSAL .PPM     44500.00000                :Borehole Salinity
FLEV .                                   :Fluid Level
MCST .                                   :Mud Cake Sample Temperature
MFST .                                   :Mud Filtrate Sample Temperature
MRT  .DEGF     127.00000                 :Maximum Recorded Temperature
MST  .                                   :Mud Sample Temperature
RMCS .                                   :Resistivity of Mud Cake Sample
RMS  .                                   :Resistivity of Mud Sample
RW   .OHMM       1.00000                 :Resistivity of Connate Water
TDD  .F       4480.00000                 :Total Depth - Driller
TDL  .F       4482.00000                 :Total Depth - Logger
TLI  .                                   :Top Log Interval
HIDE .                                   :Header Identifier
MATR .        SAND                       :Rock Matrix for Neutron Porosity Corrections
DFT  .        OBM                        :Drilling Fluid Type
DFPH .                                   :Drilling Fluid PH
MCSS .        N/A                        :Mud Cake Sample Source
MFSS .        N/A                        :Mud Filtrate Sample Source
MSS  .        N/A                        :Mud Sample Source
OS1  .                                   :Other Services Line 1
OS2  .                                   :Other Services Line 2
OS3  .                                   :Other Services Line 3
OS4  .                                   :Other Services Line 4
OS5  .                                   :Other Services Line 5
R1   .                                   :Remark Line 1
R2   .                                   :Remark Line 2
R3   .                                   :Remark Line 3
R4   .                                   :Remark Line 4
R5   .                                   :Remark Line 5
R6   .                                   :Remark Line 6
R7   .                                   :Remark Line 7
R8   .                                   :Remark Line 8
TCS  .        20 00                      :Time Circulation Stopped
TLAB .                                   :Time Logger At Bottom
EPD  .F         6585.000000              :Elevation of Permanent Datum above Mean Sea Level
APD  .F          12.000000               :Elevation of Depth Reference (LMF) above Permanent Datum
#-----------------------------------------------------------------------------
~CURVE INFORMATION
#MNEM.UNIT   API CODE                                  DESCRIPTION
#---- -----  --------                                  -----------------------
DEPT .F                                                :DEPTH (BOREHOLE) {F12.4}
C1_OBMT.IN                                             :OBMT Caliper 1 {F11.4}
C2_OBMT.IN                                             :OBMT Caliper 2 {F11.4}
CDF  .LBF                                              :Calibrated Downhole Force {F11.4}
CTEM .DEGF                                             :Cartridge Temperature {F11.4}
DCAL .IN                                               :Differential Caliper {F11.4}
DEVI .DEG                                              :Hole Deviation {F11.4}
DEVIM.DEG                                              :Memorized Deviation {F11.4}
DWAL_WALK2.                                            :Dry Weight Fraction Pseudo Aluminum (SpectroLith WALK2 Model) {F11.4}
DWCA_WALK2.                                            :Dry Weight Fraction Calcium (SpectroLith WALK2 Model) {F11.4}
DWFE_WALK2.                                            :Dry Weight Fraction Iron + 0.14 Aluminum (SpectroLith WALK2 Model) {F11.4}
DWGD_WALK2.PPM                                         :Dry Weight Fraction Gadolinium (SpectroLith WALK2 Model) {F11.4}
DWSI_WALK2.                                            :Dry Weight Fraction Silicon (SpectroLith WALK2 Model) {F11.4}
DWSU_WALK2.                                            :Dry Weight Fraction Sulfur (SpectroLith WALK2 Model) {F11.4}
DWTI_WALK2.                                            :Dry Weight Fraction Titanium (SpectroLith WALK2 Model) {F11.4}
ECST .DEGF                                             :ECS Temperature {F11.4}
ED   .F                                                :East Departure {F11.4}
ESUF_WALK2.                                            :Elemental Statistical Uncertainty Factor (SpectroLith WALK2 Model) {F11.4}
GR_EDTC.GAPI                                           :EDTC Gamma Ray {F11.4}
GTEM .DEGF                                             :Generalized Borehole Temperature {F11.4}
HAZI .DEG                                              :Hole Azimuth {F11.4}
HAZIM.DEG                                              :Hole Azimuth {F11.4}
ND   .F                                                :North Departure {F11.4}
P1AZ .DEG                                              :Pad 1 Azimuth {F11.4}
QCPMT.                                                 :Photomultiplier Tube Quality Control {F11.4}
RB   .DEG                                              :Relative Bearing {F11.4}
RHGE_WALK2.G/C3                                        :Matrix Density from Elemental Concentrations (SpectroLith WALK2 Model) {F11.4}
SDEV .DEG                                              :Sonde Deviation {F11.4}
SDEVM.DEG                                              :Sonde Deviation {F11.4}
STIT .F                                                :Stuck Tool Indicator, Total {F11.4}
TENS .LBF                                              :Cable Tension {F11.4}
WANH_WALK2.                                            :Dry Weight Fraction Anhydrite/Gypsum (SpectroLith WALK2 Model) {F11.4}
WCAR_WALK2.                                            :Dry Weight Fraction Carbonate (SpectroLith WALK2 Model) {F11.4}
WCLA_WALK2.                                            :Dry Weight Fraction Clay (SpectroLith WALK2 Model) {F11.4}
WCOA_WALK2.                                            :Dry Weight Fraction Coal (SpectroLith WALK2 Model) {F11.4}
WEVA_WALK2.                                            :Dry Weight Fraction Salt (SpectroLith WALK2 Model) {F11.4}
WPYR_WALK2.                                            :Dry Weight Fraction Pyrite (SpectroLith WALK2 Model) {F11.4}
WQFM_WALK2.                                            :Dry Weight Fraction Quartz+Feldspar+Mica (QFM) (SpectroLith WALK2 Model) {F11.4}
WSID_WALK2.                                            :Dry Weight Fraction Siderite (SpectroLith WALK2 Model) {F11.4}
#-----------------------------------------------------------------------------
# 
#      DEPT      C1_OBMT    C2_OBMT      CDF        CTEM       DCAL       DEVI      DEVIM    DWAL_WALK2 DWCA_WALK2 DWFE_WALK2 DWGD_WALK2 DWSI_WALK2 DWSU_WALK2 DWTI_WALK2    ECST        ED     ESUF_WALK2  GR_EDTC      GTEM       HAZI      HAZIM        ND        P1AZ      QCPMT        RB     RHGE_WALK2    SDEV      SDEVM       STIT       TENS    WANH_WALK2 WCAR_WALK2 WCLA_WALK2 WCOA_WALK2 WEVA_WALK2 WPYR_WALK2 WQFM_WALK2 WSID_WALK2
#
~A  
# ...
   3724.0000     7.1926     7.2234   947.4075   122.0707     0.4580     3.4116     3.2791     0.0610     0.1076     0.0356    12.7925     0.2338     0.0010     0.0040    47.7472   -13.1620     0.7583   142.9721   117.2196   150.8820   141.2932     0.1476   350.1508     0.8791   199.2361     2.7280     3.4688     3.3320     0.0000  2354.0000     0.0000     0.2144     0.3512     0.0000     0.0000     0.0019     0.4325     0.0000
   3724.5000     7.1988     7.2208  1044.8146   122.0707     0.4598     3.4141     3.2754     0.0661     0.1262     0.0386    17.5833     0.2029     0.0000     0.0045    48.3325   -13.1441     0.8214   138.9071   117.2262   150.6092   140.9594     0.1254   350.0623     1.2664   199.4201     2.7356     3.4714     3.3282     0.0000  2571.0000     0.0000     0.2645     0.3961     0.0000     0.0000     0.0000     0.3394     0.0000
   3725.0000     7.1926     7.2036  1034.8606   122.0707     0.4481     3.4147     3.2722     0.0676     0.1272     0.0394    17.0230     0.1991     0.0000     0.0048    47.7472   -13.1260     0.8199   143.5522   117.2328   150.3631   140.5985     0.1033   350.3567     1.5849   199.9597     2.7373     3.4719     3.3248     0.0000  2471.0000     0.0000     0.2673     0.4092     0.0000     0.0000     0.0000     0.3235     0.0000
   3725.5000     7.1918     7.2191   942.4305   122.0707     0.4555     3.3985     3.2689     0.0643     0.1240     0.0376    13.2721     0.2087     0.0000     0.0044    47.1620   -13.1079     0.8154   135.9381   117.2394   150.1796   140.2484     0.0813   350.3918     0.1696   200.1785     2.7333     3.4551     3.3215     0.0000  2327.0000     0.0000     0.2585     0.3802     0.0000     0.0000     0.0000     0.3613     0.0000
   3726.0000     7.1857     7.2234  1010.6865   122.0707     0.4545     3.3954     3.2641     0.0578     0.1272     0.0339     7.4984     0.2164     0.0022     0.0029    47.7472   -13.0896     0.7608   139.4461   117.2460   149.9272   139.8364     0.0594   350.5999     0.0863   200.6383     2.7297     3.4519     3.3165     0.0000  2501.0000     0.0000     0.2671     0.3234     0.0000     0.0000     0.0041     0.4054     0.0000
   3726.5000     7.1884     7.2294  1068.9885   122.0707     0.4589     3.3973     3.2624     0.0507     0.1430     0.0304     3.6729     0.2099     0.0000     0.0013    48.3325   -13.0711     0.7427   130.8788   117.2526   149.7136   139.4815     0.0377   351.2316     0.1492   201.4825     2.7235     3.4539     3.3148     0.0000  2568.0000     0.0000     0.3097     0.2604     0.0000     0.0000     0.0000     0.4299     0.0000
   3727.0000     7.1910     7.2294   991.1340   122.0707     0.4602     3.3845     3.2652     0.0461     0.1473     0.0282     2.3347     0.2126     0.0000     0.0000    48.9178   -13.0526     0.7284   131.6882   117.2592   149.4691   139.0967     0.0162   351.5991     0.7627   202.0938     2.7201     3.4407     3.3176     0.0000  2418.0000     0.0000     0.3212     0.2205     0.0000     0.0000     0.0000     0.4582     0.0001
   3727.5000     7.1926     7.2243   996.1110   122.0707     0.4584     3.3789     3.2596     0.0432     0.1408     0.0263     3.5662     0.2255     0.0000     0.0000    49.5030   -13.0339     0.7383   136.0744   117.2658   149.2795   138.7483    -0.0053   351.6646     0.6091   202.3488     2.7156     3.4349     3.3119     0.0000  2501.0000     0.0000     0.3038     0.1943     0.0000     0.0000     0.0000     0.5018     0.0001
   3728.0000     7.1988     7.2208  1049.4360   122.0707     0.4598     3.3826     3.2598     0.0477     0.1269     0.0291     5.4861     0.2336     0.0000     0.0000    48.3325   -13.0150     0.7363   139.7889   117.2725   149.0105   138.2991    -0.0266   351.8967     0.2173   202.8491     2.7183     3.4389     3.3122     0.0000  2579.0000     0.0000     0.2664     0.2341     0.0000     0.0000     0.0000     0.4994     0.0001
   3728.5000     7.1962     7.2191   996.1110   122.0707     0.4576     3.3728     3.2587     0.0539     0.1250     0.0326     6.7313     0.2250     0.0000     0.0008    47.1620   -12.9960     0.7019   143.7360   117.2791   148.8202   137.8726    -0.0477   351.9362     0.0000   203.0790     2.7244     3.4287     3.3110     0.0000  2388.0000     0.0000     0.2613     0.2888     0.0000     0.0000     0.0000     0.4500     0.0000
   3729.0000     7.1892     7.2165  1005.7095   122.0707     0.4528     3.3607     3.2598     0.0614     0.1215     0.0367     7.5280     0.2160     0.0002     0.0020    47.7472   -12.9769     0.6888   141.6338   117.2857   148.6049   137.4909    -0.0688   351.8758     0.1236   203.2339     2.7315     3.4162     3.3120     0.0000  2441.0000     0.0000     0.2518     0.3546     0.0000     0.0000     0.0003     0.3933     0.0000
   3729.5000     7.1884     7.2243  1044.8146   122.0707     0.4563     3.3654     3.2576     0.0637     0.1163     0.0374     9.7009     0.2186     0.0030     0.0029    48.3325   -12.9576     0.7040   136.0468   117.2923   148.4017   136.9803    -0.0896   351.9529     0.0755   203.5139     2.7352     3.4210     3.3098     0.0000  2556.0000     0.0000     0.2379     0.3749     0.0000     0.0000     0.0055     0.3817     0.0000
   3730.0000     7.1901     7.2294   996.1110   122.0707     0.4597     3.3683     3.2566     0.0632     0.1072     0.0364    12.5830     0.2307     0.0061     0.0035    48.9178   -12.9381     0.7657   133.3461   117.2989   148.1469   136.5090    -0.1103   352.1976     0.4810   204.0126     2.7355     3.4240     3.3088     0.0000  2375.0000     0.0000     0.2134     0.3705     0.0000     0.0000     0.0113     0.4048     0.0000
   3730.5000     7.1433     7.2277   996.1110   122.0707     0.4354     3.3502     3.2613     0.0611     0.1028     0.0346    12.2946     0.2403     0.0106     0.0032    49.5030   -12.9185     0.8113   130.0614   117.3055   147.9482   136.0495    -0.1309   352.3029     0.7506   204.3167     2.7367     3.4047     3.3131     0.0000  2445.0000     0.0000     0.2014     0.3518     0.0000     0.0000     0.0199     0.4269     0.0000
   3731.0000     7.1988     7.2363  1039.8375   122.0707     0.4675     3.3497     3.2597     0.0601     0.1049     0.0337     8.8654     0.2398     0.0152     0.0023    48.9178   -12.8987     0.8167   137.5401   117.3121   147.7413   135.5442    -0.1512   352.7994     0.0565   205.0193     2.7410     3.4050     3.3121     0.0000  2543.0000     0.0000     0.2072     0.3431     0.0000     0.0000     0.0285     0.4212     0.0000
   3731.5000     7.1961     7.2165  1020.2850   122.0707     0.4563     3.3559     3.2591     0.0624     0.1054     0.0344     3.6218     0.2358     0.0229     0.0014    48.3325   -12.8787     0.7733   139.1786   117.3187   147.5243   135.0395    -0.1714   353.0673     0.2158   205.5036     2.7514     3.4113     3.3114     0.0000  2434.0000     0.0000     0.2084     0.3632     0.0000     0.0000     0.0428     0.3856     0.0000
   3732.0000     7.1953     7.2191   937.8090   122.0707     0.4572     3.3409     3.2580     0.0626     0.1068     0.0352     4.9332     0.2331     0.0195     0.0009    49.1129   -12.8585     0.7047   137.2502   117.3253   147.2849   134.5654    -0.1915   353.1127     0.0193   205.7884     2.7491     3.3957     3.3102     0.0000  2316.0000     0.0000     0.2122     0.3652     0.0000     0.0000     0.0364     0.3862     0.0000
   3732.5000     7.1901     7.2217  1044.8146   122.0707     0.4559     3.3386     3.2618     0.0593     0.0981     0.0344     7.9341     0.2480     0.0105     0.0008    49.5030   -12.8382     0.7013   135.7738   117.3319   147.0335   134.0919    -0.2113   353.4082     0.0601   206.3346     2.7356     3.3933     3.3142     0.0000  2591.0000     0.0000     0.1890     0.3359     0.0000     0.0000     0.0197     0.4554     0.0000
   3733.0000     7.1884     7.2277  1039.8375   122.0707     0.4580     3.3385     3.2664     0.0566     0.0871     0.0340    13.3982     0.2645     0.0000     0.0015    48.3325   -12.8176     0.7218   133.2413   117.3385   146.8249   133.5084    -0.2310   353.9290     0.4678   207.0636     2.7205     3.3932     3.3189     0.0000  2479.0000     0.0000     0.1594     0.3125     0.0000     0.0000     0.0000     0.5281     0.0000
