~VERSION INFORMATION
VERS.           1.2   :CWLS Log ASCII Standard - VERSION 1.2
WRAP.           NO    :One Line per depth step
PROD.  Schlumberger   :LAS Producer
PROG.  DLIS to ASCII 17C0-152                          :LAS Program name and version
CREA.        2011/10/27 17:25                          :LAS Creation date {YYYY/MM/DD hh:mm}
DLIS_CREA.  2011-Oct-27 07:30                          :DLIS Creation date and time {YYYY-MMM-DD hh:mm}
SOURCE.     9895fb31-02c7-4189-bf8e-52df0b775dd1       :DLIS File Name
#--------------------------------------------------
~WELL INFORMATION
#MNEM.UNIT      DATA             DESCRIPTION
#---- ------ --------------   -----------------------------
STRT .F      3344.0000       :START DEPTH     
STOP .F      3862.5000       :STOP DEPTH     
STEP .F       0.5000         :STEP       
NULL .          -999.25      :NULL VALUE
COMP .                 COMPANY:  SWEPI LP                           
WELL .                    WELL:  Harper Hill 2-29                   
FLD  .                   FIELD:  Swan                               
LOC  .                LOCATION:                                     
CNTY .                  COUNTY:  Moffat                             
STAT .                   STATE:  Colorado                           
CTRY .                 COUNTRY:                                     
SRVC .         SERVICE COMPANY:  Schlumberger                       
API  .              API NUMBER:  05-0081-07659                      
DATE .                LOG DATE:  26-Oct-2011
UWI  .          UNIQUE WELL ID:                                     
#-----------------------------------------------------------------------------
~PARAMETER INFORMATION
#MNEM.UNIT    VALUE                      DESCRIPTION
#---- -----   --------------------       ------------------------
CN   .        SWEPI LP                   :Company Name
WN   .        Harper Hill 2-29           :Well Name
FN   .        Swan                       :Field Name
FL   .                                   :Field Location
FL1  .                                   :Field Location Line 1
COUN .        Moffat                     :County or Rig Name
STAT .        Colorado                   :State or Province
NATI .                                   :Nation
DATE .        26-Oct-2011                :Date as Month-Day-Year
APIN .        05-0081-07659              :API Serial Number
SECT .        29                         :Section
TOWN .        5N                         :Township
RANG .        90W                        :Range
DMF  .        Kelly Bushing              :Drilling Measured From
LMF  .        Kelly Bushing              :Log Measured From
PDAT .        Ground Level               :Permanent Datum
ENGI .        Mark Kast                  :Engineer's Name
WITN .        Tony                       :Witness's Name
LATI .                                   :Latitude
LONG .                                   :Longitude
LUL  .        Rock Springs               :Logging Unit Location
LUN  .              2271                 :Logging Unit Number
RUN  .        Two                        :Run Number
SON  .                                   :Service Order Number
BHT  .DEGF     127.00000                 :Bottom Hole Temperature (used in calculations)
BS   .IN         6.75000                 :Bit Size
DFD  .LB/G       7.90000                 :Drilling Fluid Density
DFV  .S         44.00000                 :Drilling Fluid Viscosity
DFL  .C3        16.60000                 :Drilling Fluid Loss
RMFS .                                   :Resistivity of Mud Filtrate Sample
EKB  .F       6597.00000                 :Elevation of Kelly Bushing
EGL  .F       6585.00000                 :Elevation of Ground Level
BLI  .                                   :Bottom Log Interval
BSAL .PPM     44500.00000                :Borehole Salinity
FLEV .                                   :Fluid Level
MCST .                                   :Mud Cake Sample Temperature
MFST .                                   :Mud Filtrate Sample Temperature
MRT  .DEGF     127.00000                 :Maximum Recorded Temperature
MST  .                                   :Mud Sample Temperature
RMCS .                                   :Resistivity of Mud Cake Sample
RMS  .                                   :Resistivity of Mud Sample
RW   .OHMM       1.00000                 :Resistivity of Connate Water
TDD  .F       4480.00000                 :Total Depth - Driller
TDL  .F       4482.00000                 :Total Depth - Logger
TLI  .                                   :Top Log Interval
HIDE .                                   :Header Identifier
MATR .        SAND                       :Rock Matrix for Neutron Porosity Corrections
DFT  .        OBM                        :Drilling Fluid Type
DFPH .                                   :Drilling Fluid PH
MCSS .        N/A                        :Mud Cake Sample Source
MFSS .        N/A                        :Mud Filtrate Sample Source
MSS  .        N/A                        :Mud Sample Source
OS1  .                                   :Other Services Line 1
OS2  .                                   :Other Services Line 2
OS3  .                                   :Other Services Line 3
OS4  .                                   :Other Services Line 4
OS5  .                                   :Other Services Line 5
R1   .                                   :Remark Line 1
R2   .                                   :Remark Line 2
R3   .                                   :Remark Line 3
R4   .                                   :Remark Line 4
R5   .                                   :Remark Line 5
R6   .                                   :Remark Line 6
R7   .                                   :Remark Line 7
R8   .                                   :Remark Line 8
TCS  .        20 00                      :Time Circulation Stopped
TLAB .                                   :Time Logger At Bottom
EPD  .F         6585.000000              :Elevation of Permanent Datum above Mean Sea Level
APD  .F          12.000000               :Elevation of Depth Reference (LMF) above Permanent Datum
#-----------------------------------------------------------------------------
~CURVE INFORMATION
#MNEM.UNIT   API CODE                                  DESCRIPTION
#---- -----  --------                                  -----------------------
DEPT .F                                                :DEPTH (BOREHOLE) {F12.4}
C1_OBMT.IN                                             :OBMT Caliper 1 {F11.4}
C2_OBMT.IN                                             :OBMT Caliper 2 {F11.4}
CDF  .LBF                                              :Calibrated Downhole Force {F11.4}
CTEM .DEGF                                             :Cartridge Temperature {F11.4}
DCAL .IN                                               :Differential Caliper {F11.4}
DEVI .DEG                                              :Hole Deviation {F11.4}
DEVIM.DEG                                              :Memorized Deviation {F11.4}
DWAL_WALK2.                                            :Dry Weight Fraction Pseudo Aluminum (SpectroLith WALK2 Model) {F11.4}
DWCA_WALK2.                                            :Dry Weight Fraction Calcium (SpectroLith WALK2 Model) {F11.4}
DWFE_WALK2.                                            :Dry Weight Fraction Iron + 0.14 Aluminum (SpectroLith WALK2 Model) {F11.4}
DWGD_WALK2.PPM                                         :Dry Weight Fraction Gadolinium (SpectroLith WALK2 Model) {F11.4}
DWSI_WALK2.                                            :Dry Weight Fraction Silicon (SpectroLith WALK2 Model) {F11.4}
DWSU_WALK2.                                            :Dry Weight Fraction Sulfur (SpectroLith WALK2 Model) {F11.4}
DWTI_WALK2.                                            :Dry Weight Fraction Titanium (SpectroLith WALK2 Model) {F11.4}
ECST .DEGF                                             :ECS Temperature {F11.4}
ED   .F                                                :East Departure {F11.4}
ESUF_WALK2.                                            :Elemental Statistical Uncertainty Factor (SpectroLith WALK2 Model) {F11.4}
GR_EDTC.GAPI                                           :EDTC Gamma Ray {F11.4}
GTEM .DEGF                                             :Generalized Borehole Temperature {F11.4}
HAZI .DEG                                              :Hole Azimuth {F11.4}
HAZIM.DEG                                              :Hole Azimuth {F11.4}
ND   .F                                                :North Departure {F11.4}
P1AZ .DEG                                              :Pad 1 Azimuth {F11.4}
QCPMT.                                                 :Photomultiplier Tube Quality Control {F11.4}
RB   .DEG                                              :Relative Bearing {F11.4}
RHGE_WALK2.G/C3                                        :Matrix Density from Elemental Concentrations (SpectroLith WALK2 Model) {F11.4}
SDEV .DEG                                              :Sonde Deviation {F11.4}
SDEVM.DEG                                              :Sonde Deviation {F11.4}
STIT .F                                                :Stuck Tool Indicator, Total {F11.4}
TENS .LBF                                              :Cable Tension {F11.4}
WANH_WALK2.                                            :Dry Weight Fraction Anhydrite/Gypsum (SpectroLith WALK2 Model) {F11.4}
WCAR_WALK2.                                            :Dry Weight Fraction Carbonate (SpectroLith WALK2 Model) {F11.4}
WCLA_WALK2.                                            :Dry Weight Fraction Clay (SpectroLith WALK2 Model) {F11.4}
WCOA_WALK2.                                            :Dry Weight Fraction Coal (SpectroLith WALK2 Model) {F11.4}
WEVA_WALK2.                                            :Dry Weight Fraction Salt (SpectroLith WALK2 Model) {F11.4}
WPYR_WALK2.                                            :Dry Weight Fraction Pyrite (SpectroLith WALK2 Model) {F11.4}
WQFM_WALK2.                                            :Dry Weight Fraction Quartz+Feldspar+Mica (QFM) (SpectroLith WALK2 Model) {F11.4}
WSID_WALK2.                                            :Dry Weight Fraction Siderite (SpectroLith WALK2 Model) {F11.4}
#-----------------------------------------------------------------------------
# 
#      DEPT      C1_OBMT    C2_OBMT      CDF        CTEM       DCAL       DEVI      DEVIM    DWAL_WALK2 DWCA_WALK2 DWFE_WALK2 DWGD_WALK2 DWSI_WALK2 DWSU_WALK2 DWTI_WALK2    ECST        ED     ESUF_WALK2  GR_EDTC      GTEM       HAZI      HAZIM        ND        P1AZ      QCPMT        RB     RHGE_WALK2    SDEV      SDEVM       STIT       TENS    WANH_WALK2 WCAR_WALK2 WCLA_WALK2 WCOA_WALK2 WEVA_WALK2 WPYR_WALK2 WQFM_WALK2 WSID_WALK2
#
~A  
# ...
   3410.5000     7.5705     7.4229  1044.8146   124.0472     0.7463     9.3963     8.3861     0.0650     0.1264     0.0378     4.7203     0.2048     0.0080     0.0021    48.3325   -14.7539     0.6588   140.7003   113.0761   196.4730   193.5409    27.0786    18.6820     0.0000   182.1771     2.7436     9.7578     8.6959     0.0000  2261.0000     0.0000     0.2651     0.3864     0.0000     0.0000     0.0149     0.3337     0.0000
   3411.0000     7.5715     7.4222  1020.2850   124.0472     0.7465     9.3659     8.3586     0.0628     0.1315     0.0361     4.6514     0.2031     0.0113     0.0016    48.3325   -14.7709     0.6102   147.2772   113.0827   196.3549   193.4841    27.0079    18.7055     0.0000   182.3168     2.7454     9.7259     8.6670     0.0000  2152.0000     0.0000     0.2788     0.3669     0.0000     0.0000     0.0211     0.3332     0.0000
   3411.5000     7.5636     7.3833  1049.4360   124.0472     0.7229     9.3251     8.3299     0.0594     0.1391     0.0332     4.8627     0.2011     0.0177     0.0016    48.3325   -14.7878     0.5977   152.0003   113.0893   196.2277   193.4474    26.9373    18.9558     0.0000   182.6893     2.7489     9.6824     8.6362     0.0000  2383.0000     0.0000     0.2992     0.3374     0.0000     0.0000     0.0332     0.3302     0.0000
   3412.0000     7.5665     7.3843  1030.2390   124.0472     0.7248     9.2811     8.3428     0.0577     0.1425     0.0320     6.8983     0.2004     0.0173     0.0022    48.3325   -14.8047     0.6264   150.9618   113.0959   196.0957   193.4307    26.8668    19.2281     0.2210   183.0882     2.7466     9.6365     8.6499     0.0000  2243.0000     0.0000     0.3084     0.3220     0.0000     0.0000     0.0324     0.3372     0.0000
   3412.5000     7.5665     7.3843  1025.2621   124.0472     0.7248     9.2604     8.3216     0.0576     0.1465     0.0325     8.5041     0.1955     0.0130     0.0024    48.3325   -14.8215     0.6706   148.5395   113.1025   196.0058   193.4092    26.7963    19.2907     0.5766   183.2389     2.7431     9.6148     8.6276     0.0000  2246.0000     0.0000     0.3190     0.3212     0.0000     0.0000     0.0244     0.3354     0.0000
   3413.0000     7.6434     7.4616  1049.4360   124.0472     0.8019     9.1957     8.2852     0.0592     0.1435     0.0343     9.7180     0.1953     0.0060     0.0027    48.3325   -14.8382     0.6451   148.1536   113.1091   195.8612   193.3554    26.7261    20.3637     0.3078   184.4403     2.7376     9.5536     8.5951     0.0000  2324.0000     0.0000     0.3109     0.3356     0.0000     0.0000     0.0111     0.3423     0.0000
   3413.5000     7.6470     7.4625  1015.6635   124.0472     0.8042     9.1659     8.3028     0.0590     0.1432     0.0348     9.5992     0.1954     0.0022     0.0024    48.3325   -14.8548     0.6302   145.4962   113.1157   195.7544   193.3454    26.6559    20.5299     0.2934   184.7100     2.7341     9.5225     8.6139     0.0000  2142.0000     0.0000     0.3101     0.3336     0.0000     0.0000     0.0040     0.3522     0.0000
   3414.0000     7.5665     7.4015  1025.2621   124.0472     0.7335     9.1464     8.2917     0.0570     0.1415     0.0337     8.9232     0.2010     0.0000     0.0028    48.3325   -14.8715     0.6542   142.0340   113.1224   195.6432   193.3031    26.5857    20.6023     0.5293   184.8915     2.7292     9.4950     8.5961     0.0000  2292.0000     0.0000     0.3055     0.3156     0.0000     0.0000     0.0000     0.3788     0.0000
   3414.5000     7.5647     7.3856  1044.8146   124.0472     0.7246     9.0861     8.2734     0.0584     0.1349     0.0342     7.4393     0.2063     0.0000     0.0038    48.3325   -14.8880     0.6349   140.4045   113.1290   195.5134   193.2443    26.5156    21.0041     0.5834   185.4169     2.7290     9.4316     8.5766     0.0000  2320.0000     0.0000     0.2879     0.3287     0.0000     0.0000     0.0000     0.3834     0.0000
   3415.0000     7.5577     7.3834  1020.2850   124.0472     0.7200     9.0603     8.2975     0.0619     0.1269     0.0357     6.0892     0.2100     0.0004     0.0052    48.3325   -14.9045     0.6534   141.8502   113.1356   195.3895   193.2322    26.4454    21.1281     0.3250   185.6620     2.7309     9.4038     8.6014     0.0000  2153.0000     0.0000     0.2662     0.3593     0.0000     0.0000     0.0008     0.3737     0.0000
   3415.5000     7.5803     7.3825  1039.8375   124.0472     0.7308     9.0289     8.2749     0.0644     0.1241     0.0364     5.3756     0.2095     0.0059     0.0054    48.3325   -14.9210     0.7039   142.3500   113.1422   195.2986   193.1826    26.3753    21.2925     0.0000   185.9145     2.7381     9.3728     8.5794     0.0000  2336.0000     0.0000     0.2589     0.3811     0.0000     0.0000     0.0110     0.3491     0.0000
   3416.0000     7.6434     7.4212  1025.2621   124.0472     0.7814     8.9726     8.2532     0.0599     0.1298     0.0337     5.9067     0.2109     0.0089     0.0044    48.3325   -14.9373     0.7209   145.3270   113.1488   195.1607   193.1440    26.3053    21.9002     0.0000   186.6513     2.7375     9.3189     8.5612     0.0000  2214.0000     0.0000     0.2741     0.3418     0.0000     0.0000     0.0166     0.3675     0.0000
   3416.5000     7.6435     7.4255  1010.6865   124.0472     0.7838     8.9537     8.2800     0.0550     0.1339     0.0307     6.6759     0.2150     0.0126     0.0030    48.3325   -14.9537     0.7406   140.6717   113.1554   195.0519   193.0987    26.2353    21.9807     0.0116   186.8385     2.7371     9.2991     8.5895     0.0000  2166.0000     0.0000     0.2851     0.2986     0.0000     0.0000     0.0235     0.3928     0.0000
   3417.0000     7.5717     7.4376  1034.8606   124.0472     0.7543     8.9040     8.2686     0.0541     0.1353     0.0296     6.0558     0.2155     0.0175     0.0025    48.3325   -14.9699     0.7783   145.2612   113.1620   194.9328   193.0640    26.1652    22.5447     0.0262   187.5142     2.7412     9.2408     8.5721     0.0000  2325.0000     0.0000     0.2890     0.2903     0.0000     0.0000     0.0327     0.3880     0.0000
   3417.5000     7.5584     7.4229  1015.6635   124.0472     0.7403     8.8752     8.2491     0.0567     0.1330     0.0313     5.7685     0.2134     0.0168     0.0025    49.1129   -14.9862     0.6751   138.7402   113.1686   194.8188   193.0223    26.0952    22.7285     0.0000   187.8090     2.7432     9.2094     8.5505     0.0000  2173.0000     0.0000     0.2826     0.3136     0.0000     0.0000     0.0314     0.3724     0.0000
   3418.0000     7.5214     7.3911  1020.2850   124.0472     0.7060     8.8544     8.2943     0.0614     0.1267     0.0337     6.8562     0.2127     0.0186     0.0031    49.5030   -15.0023     0.6568   144.4948   113.1752   194.7135   192.9934    26.0251    22.6982     0.0255   187.8836     2.7486     9.1844     8.5953     0.0000  2267.0000     0.0000     0.2660     0.3545     0.0000     0.0000     0.0347     0.3448     0.0000
   3418.5000     7.5224     7.4160  1034.8606   124.0472     0.7190     8.8045     8.2783     0.0623     0.1255     0.0352     9.6786     0.2116     0.0118     0.0031    50.6736   -15.0186     0.6566   141.3093   113.1818   194.6135   193.0009    25.9549    22.9662     0.4625   188.2483     2.7432     9.1321     8.5786     0.0000  2298.0000     0.0000     0.2626     0.3627     0.0000     0.0000     0.0221     0.3526     0.0000
   3419.0000     7.5214     7.3894  1005.7095   124.0472     0.7051     8.7802     8.2595     0.0673     0.1145     0.0380    10.2630     0.2157     0.0126     0.0035    49.8932   -15.0347     0.6552   144.8533   113.1884   194.5176   192.9789    25.8849    22.9500     0.6648   188.3277     2.7474     9.1064     8.5586     0.0000  2121.0000     0.0000     0.2329     0.4069     0.0000     0.0000     0.0236     0.3366     0.0000
   3419.5000     7.3288     7.2823  1020.2850   124.0472     0.5555     8.7759     8.3116     0.0668     0.1108     0.0379     7.9082     0.2207     0.0120     0.0030    48.3325   -15.0509     0.6533   147.8072   113.1950   194.4488   193.0326    25.8146    23.1367     0.0146   188.5805     2.7460     9.0862     8.5989     0.0000  2316.0000     0.0000     0.2230     0.4019     0.0000     0.0000     0.0225     0.3527     0.0000
