~VERSION INFORMATION
VERS.           1.2   :CWLS Log ASCII Standard - VERSION 1.2
WRAP.           NO    :One Line per depth step
PROD.  Schlumberger   :LAS Producer
PROG.  DLIS to ASCII 17C0-152                          :LAS Program name and version
CREA.        2011/10/27 17:25                          :LAS Creation date {YYYY/MM/DD hh:mm}
DLIS_CREA.  2011-Oct-27 07:30                          :DLIS Creation date and time {YYYY-MMM-DD hh:mm}
SOURCE.     9895fb31-02c7-4189-bf8e-52df0b775dd1       :DLIS File Name
#--------------------------------------------------
~WELL INFORMATION
#MNEM.UNIT      DATA             DESCRIPTION
#---- ------ --------------   -----------------------------
STRT .F      3344.0000       :START DEPTH     
STOP .F      3862.5000       :STOP DEPTH     
STEP .F       0.5000         :STEP       
NULL .          -999.25      :NULL VALUE
COMP .                 COMPANY:  SWEPI LP                           
WELL .                    WELL:  Harper Hill 2-29                   
FLD  .                   FIELD:  Swan                               
LOC  .                LOCATION:                                     
CNTY .                  COUNTY:  Moffat                             
STAT .                   STATE:  Colorado                           
CTRY .                 COUNTRY:                                     
SRVC .         SERVICE COMPANY:  Schlumberger                       
API  .              API NUMBER:  05-0081-07659                      
DATE .                LOG DATE:  26-Oct-2011
UWI  .          UNIQUE WELL ID:                                     
#-----------------------------------------------------------------------------
~PARAMETER INFORMATION
#MNEM.UNIT    VALUE                      DESCRIPTION
#---- -----   --------------------       ------------------------
CN   .        SWEPI LP                   :Company Name
WN   .        Harper Hill 2-29           :Well Name
FN   .        Swan                       :Field Name
FL   .                                   :Field Location
FL1  .                                   :Field Location Line 1
COUN .        Moffat                     :County or Rig Name
STAT .        Colorado                   :State or Province
NATI .                                   :Nation
DATE .        26-Oct-2011                :Date as Month-Day-Year
APIN .        05-0081-07659              :API Serial Number
SECT .        29                         :Section
TOWN .        5N                         :Township
RANG .        90W                        :Range
DMF  .        Kelly Bushing              :Drilling Measured From
LMF  .        Kelly Bushing              :Log Measured From
PDAT .        Ground Level               :Permanent Datum
ENGI .        Mark Kast                  :Engineer's Name
WITN .        Tony                       :Witness's Name
LATI .                                   :Latitude
LONG .                                   :Longitude
LUL  .        Rock Springs               :Logging Unit Location
LUN  .              2271                 :Logging Unit Number
RUN  .        Two                        :Run Number
SON  .                                   :Service Order Number
BHT  .DEGF     127.00000                 :Bottom Hole Temperature (used in calculations)
BS   .IN         6.75000                 :Bit Size
DFD  .LB/G       7.90000                 :Drilling Fluid Density
DFV  .S         44.00000                 :Drilling Fluid Viscosity
DFL  .C3        16.60000                 :Drilling Fluid Loss
RMFS .                                   :Resistivity of Mud Filtrate Sample
EKB  .F       6597.00000                 :Elevation of Kelly Bushing
EGL  .F       6585.00000                 :Elevation of Ground Level
BLI  .                                   :Bottom Log Interval
BSAL .PPM     44500.00000                :Borehole Salinity
FLEV .                                   :Fluid Level
MCST .                                   :Mud Cake Sample Temperature
MFST .                                   :Mud Filtrate Sample Temperature
MRT  .DEGF     127.00000                 :Maximum Recorded Temperature
MST  .                                   :Mud Sample Temperature
RMCS .                                   :Resistivity of Mud Cake Sample
RMS  .                                   :Resistivity of Mud Sample
RW   .OHMM       1.00000                 :Resistivity of Connate Water
TDD  .F       4480.00000                 :Total Depth - Driller
TDL  .F       4482.00000                 :Total Depth - Logger
TLI  .                                   :Top Log Interval
HIDE .                                   :Header Identifier
MATR .        SAND                       :Rock Matrix for Neutron Porosity Corrections
DFT  .        OBM                        :Drilling Fluid Type
DFPH .                                   :Drilling Fluid PH
MCSS .        N/A                        :Mud Cake Sample Source
MFSS .        N/A                        :Mud Filtrate Sample Source
MSS  .        N/A                        :Mud Sample Source
OS1  .                                   :Other Services Line 1
OS2  .                                   :Other Services Line 2
OS3  .                                   :Other Services Line 3
OS4  .                                   :Other Services Line 4
OS5  .                                   :Other Services Line 5
R1   .                                   :Remark Line 1
R2   .                                   :Remark Line 2
R3   .                                   :Remark Line 3
R4   .                                   :Remark Line 4
R5   .                                   :Remark Line 5
R6   .                                   :Remark Line 6
R7   .                                   :Remark Line 7
R8   .                                   :Remark Line 8
TCS  .        20 00                      :Time Circulation Stopped
TLAB .                                   :Time Logger At Bottom
EPD  .F         6585.000000              :Elevation of Permanent Datum above Mean Sea Level
APD  .F          12.000000               :Elevation of Depth Reference (LMF) above Permanent Datum
#-----------------------------------------------------------------------------
~CURVE INFORMATION
#MNEM.UNIT   API CODE                                  DESCRIPTION
#---- -----  --------                                  -----------------------
DEPT .F                                                :DEPTH (BOREHOLE) {F12.4}
C1_OBMT.IN                                             :OBMT Caliper 1 {F11.4}
C2_OBMT.IN                                             :OBMT Caliper 2 {F11.4}
CDF  .LBF                                              :Calibrated Downhole Force {F11.4}
CTEM .DEGF                                             :Cartridge Temperature {F11.4}
DCAL .IN                                               :Differential Caliper {F11.4}
DEVI .DEG                                              :Hole Deviation {F11.4}
DEVIM.DEG                                              :Memorized Deviation {F11.4}
DWAL_WALK2.                                            :Dry Weight Fraction Pseudo Aluminum (SpectroLith WALK2 Model) {F11.4}
DWCA_WALK2.                                            :Dry Weight Fraction Calcium (SpectroLith WALK2 Model) {F11.4}
DWFE_WALK2.                                            :Dry Weight Fraction Iron + 0.14 Aluminum (SpectroLith WALK2 Model) {F11.4}
DWGD_WALK2.PPM                                         :Dry Weight Fraction Gadolinium (SpectroLith WALK2 Model) {F11.4}
DWSI_WALK2.                                            :Dry Weight Fraction Silicon (SpectroLith WALK2 Model) {F11.4}
DWSU_WALK2.                                            :Dry Weight Fraction Sulfur (SpectroLith WALK2 Model) {F11.4}
DWTI_WALK2.                                            :Dry Weight Fraction Titanium (SpectroLith WALK2 Model) {F11.4}
ECST .DEGF                                             :ECS Temperature {F11.4}
ED   .F                                                :East Departure {F11.4}
ESUF_WALK2.                                            :Elemental Statistical Uncertainty Factor (SpectroLith WALK2 Model) {F11.4}
GR_EDTC.GAPI                                           :EDTC Gamma Ray {F11.4}
GTEM .DEGF                                             :Generalized Borehole Temperature {F11.4}
HAZI .DEG                                              :Hole Azimuth {F11.4}
HAZIM.DEG                                              :Hole Azimuth {F11.4}
ND   .F                                                :North Departure {F11.4}
P1AZ .DEG                                              :Pad 1 Azimuth {F11.4}
QCPMT.                                                 :Photomultiplier Tube Quality Control {F11.4}
RB   .DEG                                              :Relative Bearing {F11.4}
RHGE_WALK2.G/C3                                        :Matrix Density from Elemental Concentrations (SpectroLith WALK2 Model) {F11.4}
SDEV .DEG                                              :Sonde Deviation {F11.4}
SDEVM.DEG                                              :Sonde Deviation {F11.4}
STIT .F                                                :Stuck Tool Indicator, Total {F11.4}
TENS .LBF                                              :Cable Tension {F11.4}
WANH_WALK2.                                            :Dry Weight Fraction Anhydrite/Gypsum (SpectroLith WALK2 Model) {F11.4}
WCAR_WALK2.                                            :Dry Weight Fraction Carbonate (SpectroLith WALK2 Model) {F11.4}
WCLA_WALK2.                                            :Dry Weight Fraction Clay (SpectroLith WALK2 Model) {F11.4}
WCOA_WALK2.                                            :Dry Weight Fraction Coal (SpectroLith WALK2 Model) {F11.4}
WEVA_WALK2.                                            :Dry Weight Fraction Salt (SpectroLith WALK2 Model) {F11.4}
WPYR_WALK2.                                            :Dry Weight Fraction Pyrite (SpectroLith WALK2 Model) {F11.4}
WQFM_WALK2.                                            :Dry Weight Fraction Quartz+Feldspar+Mica (QFM) (SpectroLith WALK2 Model) {F11.4}
WSID_WALK2.                                            :Dry Weight Fraction Siderite (SpectroLith WALK2 Model) {F11.4}
#-----------------------------------------------------------------------------
# 
#      DEPT      C1_OBMT    C2_OBMT      CDF        CTEM       DCAL       DEVI      DEVIM    DWAL_WALK2 DWCA_WALK2 DWFE_WALK2 DWGD_WALK2 DWSI_WALK2 DWSU_WALK2 DWTI_WALK2    ECST        ED     ESUF_WALK2  GR_EDTC      GTEM       HAZI      HAZIM        ND        P1AZ      QCPMT        RB     RHGE_WALK2    SDEV      SDEVM       STIT       TENS    WANH_WALK2 WCAR_WALK2 WCLA_WALK2 WCOA_WALK2 WEVA_WALK2 WPYR_WALK2 WQFM_WALK2 WSID_WALK2
#
~A  
# ...
   3857.0000     6.4170     6.3404   947.4075   122.0707    -0.3714     7.0491     6.9883     0.0690     0.0000     0.0373     2.3962     0.3480     0.0000     0.0125    48.3325    -0.6632     1.3285   159.4809   118.9774    78.9837    78.7116    -0.1324   264.9085     1.9522   185.8783     2.7113     7.2185     7.1554     0.0000  2542.0000     0.0000     0.0000     0.4212     0.0000     0.0000     0.0000     0.5788     0.0000
   3857.5000     4.9882     4.9543   942.4305   122.0707    -1.7788     7.1155     7.0668     0.0690     0.0000     0.0373     2.3962     0.3480     0.0000     0.0125    48.3325    -0.6032     1.3285   159.4809   118.9840    78.9349    78.7116    -0.1204   264.3446     1.9522   185.3671     2.7113     7.2051     7.1554     0.0000  2559.0000     0.0000     0.0000     0.4212     0.0000     0.0000     0.0000     0.5788     0.0000
   3858.0000     4.9903     4.9487   947.4075   122.0707    -1.7805     7.1077     7.0667     0.0690     0.0000     0.0373     2.3962     0.3480     0.0000     0.0125    48.3325    -0.5429     1.3285   159.4809   118.9906    78.8992    78.7116    -0.1084   263.4475     1.9522   184.5126     2.7113     7.1973     7.1554     0.0000  2623.0000     0.0000     0.0000     0.4212     0.0000     0.0000     0.0000     0.5788     0.0000
   3858.5000     4.9867     4.9494   942.4305   122.0707    -1.7820     7.1069     7.0669     0.0690     0.0000     0.0373     2.3962     0.3480     0.0000     0.0125    48.3325    -0.4826     1.3285   159.4809   118.9973    78.8231    78.7116    -0.0963   262.5446     1.9522   183.6923     2.7113     7.1962     7.1554     0.0000  2591.0000     0.0000     0.0000     0.4212     0.0000     0.0000     0.0000     0.5788     0.0000
   3859.0000     4.9926     4.9482   932.8320   122.0707    -1.7796     7.0944     7.0665     0.0690     0.0000     0.0373     2.3962     0.3480     0.0000     0.0125    48.3325    -0.4222     1.3285   159.4809   119.0039    78.7962    78.7116    -0.0843   262.5676     1.9522   183.7420     2.7113     7.1838     7.1554     0.0000  2629.0000     0.0000     0.0000     0.4212     0.0000     0.0000     0.0000     0.5788     0.0000
   3859.5000     4.9926     4.9482   908.6580   122.0707    -1.7796     7.0917     7.0665     0.0690     0.0000     0.0373     2.3962     0.3480     0.0000     0.0125    48.3325    -0.3619     1.3285   159.4809   119.0105    78.7467    78.7116    -0.0722   262.5717     1.9522   183.7952     2.7113     7.1810     7.1554     0.0000  2512.0000     0.0000     0.0000     0.4212     0.0000     0.0000     0.0000     0.5788     0.0000
   3860.0000     4.9926     4.9482   874.5300   122.0707    -1.7796     7.0896     7.0665     0.0690     0.0000     0.0373     2.3962     0.3480     0.0000     0.0125    48.3325    -0.3016     1.3285   159.4809   119.0171    78.7203    78.7116    -0.0602   262.5729     1.9522   183.8225     2.7113     7.1789     7.1554     0.0000  2387.0000     0.0000     0.0000     0.4212     0.0000     0.0000     0.0000     0.5788     0.0000
   3860.5000     4.9926     4.9482   859.9545   122.0707    -1.7796     7.0804     7.0665     0.0690     0.0000     0.0373     2.3962     0.3480     0.0000     0.0125    48.3325    -0.2413     1.3285   159.4809   119.0237    78.7069    78.7116    -0.0482   262.5911     1.9522   183.8540     2.7113     7.1696     7.1554     0.0000  2208.0000     0.0000     0.0000     0.4212     0.0000     0.0000     0.0000     0.5788     0.0000
   3861.0000     4.9926     4.9482   854.9775   122.0707    -1.7796     7.0781     7.0665     0.0690     0.0000     0.0373     2.3962     0.3480     0.0000     0.0125    48.3325    -0.1810     1.3285   159.4809   119.0303    78.6780    78.7116    -0.0361   262.5960     1.9522   183.8875     2.7113     7.1671     7.1554     0.0000  2036.0000     0.0000     0.0000     0.4212     0.0000     0.0000     0.0000     0.5788     0.0000
   3861.5000     4.9926     4.9482   854.9775   122.0707    -1.7796     7.0755     7.0665     0.0690     0.0000     0.0373     2.3962     0.3480     0.0000     0.0125    48.3325    -0.1206     1.3285   159.4809   119.0369    78.6781    78.7116    -0.0241   262.5988     1.9522   183.8900     2.7113     7.1645     7.1554     0.0000  1864.0000     0.0000     0.0000     0.4212     0.0000     0.0000     0.0000     0.5788     0.0000
   3862.0000     4.9926     4.9482   854.9775   122.0707    -1.7796     7.0701     7.0665     0.0690     0.0000     0.0373     2.3962     0.3480     0.0000     0.0125    48.3325    -0.0603     1.3285   159.4809   119.0435    78.6826    78.7116    -0.0120   262.6086     1.9522   183.8955     2.7113     7.1590     7.1554     0.0000  1864.0000     0.0000     0.0000     0.4212     0.0000     0.0000     0.0000     0.5788     0.0000
   3862.5000     4.9926     4.9482   854.9775   122.0707    -1.7796     7.0665     7.0665     0.0690     0.0000     0.0373     2.3962     0.3480     0.0000     0.0125    48.3325     0.0000     1.3285   159.4809   119.0501    78.7116    78.7116     0.0000   262.6122     1.9522   183.8703     2.7113     7.1554     7.1554     0.0000  1864.0000     0.0000     0.0000     0.4212     0.0000     0.0000     0.0000     0.5788     0.0000
