~VERSION INFORMATION
VERS.           1.2   :CWLS Log ASCII Standard - VERSION 1.2
WRAP.           NO    :One Line per depth step
PROD.  Schlumberger   :LAS Producer
PROG.  DLIS to ASCII 17C0-152                          :LAS Program name and version
CREA.        2011/10/27 17:24                          :LAS Creation date {YYYY/MM/DD hh:mm}
DLIS_CREA.  2011-Oct-27 07:22                          :DLIS Creation date and time {YYYY-MMM-DD hh:mm}
SOURCE.     7e486f41-920f-449c-9fc4-a1d2576f3c93       :DLIS File Name
#--------------------------------------------------
~WELL INFORMATION
#MNEM.UNIT      DATA             DESCRIPTION
#---- ------ --------------   -----------------------------
STRT .F      3201.5000       :START DEPTH     
STOP .F      4055.0000       :STOP DEPTH     
STEP .F       0.5000         :STEP       
NULL .          -999.25      :NULL VALUE
COMP .                 COMPANY:  SWEPI LP                           
WELL .                    WELL:  Harper Hill 2-29                   
FLD  .                   FIELD:  Swan                               
LOC  .                LOCATION:                                     
CNTY .                  COUNTY:  Moffat                             
STAT .                   STATE:  Colorado                           
CTRY .                 COUNTRY:                                     
SRVC .         SERVICE COMPANY:  Schlumberger                       
API  .              API NUMBER:  05-0081-07659                      
DATE .                LOG DATE:  26-Oct-2011
UWI  .          UNIQUE WELL ID:                                     
#-----------------------------------------------------------------------------
~PARAMETER INFORMATION
#MNEM.UNIT    VALUE                      DESCRIPTION
#---- -----   --------------------       ------------------------
CN   .        SWEPI LP                   :Company Name
WN   .        Harper Hill 2-29           :Well Name
FN   .        Swan                       :Field Name
FL   .                                   :Field Location
FL1  .                                   :Field Location Line 1
COUN .        Moffat                     :County or Rig Name
STAT .        Colorado                   :State or Province
NATI .                                   :Nation
DATE .        26-Oct-2011                :Date as Month-Day-Year
APIN .        05-0081-07659              :API Serial Number
SECT .        29                         :Section
TOWN .        5N                         :Township
RANG .        90W                        :Range
DMF  .        Kelly Bushing              :Drilling Measured From
LMF  .        Kelly Bushing              :Log Measured From
PDAT .        Ground Level               :Permanent Datum
ENGI .        Mark Kast                  :Engineer's Name
WITN .        Tony                       :Witness's Name
LATI .                                   :Latitude
LONG .                                   :Longitude
LUL  .        Rock Springs               :Logging Unit Location
LUN  .              2271                 :Logging Unit Number
RUN  .        Two                        :Run Number
SON  .                                   :Service Order Number
BHT  .DEGF     127.00000                 :Bottom Hole Temperature (used in calculations)
BS   .IN         6.75000                 :Bit Size
DFD  .LB/G       7.90000                 :Drilling Fluid Density
DFV  .S         44.00000                 :Drilling Fluid Viscosity
DFL  .C3        16.60000                 :Drilling Fluid Loss
RMFS .                                   :Resistivity of Mud Filtrate Sample
EKB  .F       6597.00000                 :Elevation of Kelly Bushing
EGL  .F       6585.00000                 :Elevation of Ground Level
BLI  .                                   :Bottom Log Interval
BSAL .PPM     44500.00000                :Borehole Salinity
FLEV .                                   :Fluid Level
MCST .                                   :Mud Cake Sample Temperature
MFST .                                   :Mud Filtrate Sample Temperature
MRT  .DEGF     127.00000                 :Maximum Recorded Temperature
MST  .                                   :Mud Sample Temperature
RMCS .                                   :Resistivity of Mud Cake Sample
RMS  .                                   :Resistivity of Mud Sample
RW   .OHMM       1.00000                 :Resistivity of Connate Water
TDD  .F       4480.00000                 :Total Depth - Driller
TDL  .F       4482.00000                 :Total Depth - Logger
TLI  .                                   :Top Log Interval
HIDE .                                   :Header Identifier
MATR .        SAND                       :Rock Matrix for Neutron Porosity Corrections
DFT  .        OBM                        :Drilling Fluid Type
DFPH .                                   :Drilling Fluid PH
MCSS .        N/A                        :Mud Cake Sample Source
MFSS .        N/A                        :Mud Filtrate Sample Source
MSS  .        N/A                        :Mud Sample Source
OS1  .                                   :Other Services Line 1
OS2  .                                   :Other Services Line 2
OS3  .                                   :Other Services Line 3
OS4  .                                   :Other Services Line 4
OS5  .                                   :Other Services Line 5
R1   .                                   :Remark Line 1
R2   .                                   :Remark Line 2
R3   .                                   :Remark Line 3
R4   .                                   :Remark Line 4
R5   .                                   :Remark Line 5
R6   .                                   :Remark Line 6
R7   .                                   :Remark Line 7
R8   .                                   :Remark Line 8
TCS  .        20 00                      :Time Circulation Stopped
TLAB .                                   :Time Logger At Bottom
EPD  .F         6585.000000              :Elevation of Permanent Datum above Mean Sea Level
APD  .F          12.000000               :Elevation of Depth Reference (LMF) above Permanent Datum
#-----------------------------------------------------------------------------
~CURVE INFORMATION
#MNEM.UNIT   API CODE                                  DESCRIPTION
#---- -----  --------                                  -----------------------
DEPT .F                                                :DEPTH (BOREHOLE) {F12.4}
C1_OBMT.IN                                             :OBMT Caliper 1 {F11.4}
C2_OBMT.IN                                             :OBMT Caliper 2 {F11.4}
CDF  .LBF                                              :Calibrated Downhole Force {F11.4}
CTEM .DEGF                                             :Cartridge Temperature {F11.4}
DCAL .IN                                               :Differential Caliper {F11.4}
DEVI .DEG                                              :Hole Deviation {F11.4}
DEVIM.DEG                                              :Memorized Deviation {F11.4}
DWAL_WALK2.                                            :Dry Weight Fraction Pseudo Aluminum (SpectroLith WALK2 Model) {F11.4}
DWCA_WALK2.                                            :Dry Weight Fraction Calcium (SpectroLith WALK2 Model) {F11.4}
DWFE_WALK2.                                            :Dry Weight Fraction Iron + 0.14 Aluminum (SpectroLith WALK2 Model) {F11.4}
DWGD_WALK2.PPM                                         :Dry Weight Fraction Gadolinium (SpectroLith WALK2 Model) {F11.4}
DWSI_WALK2.                                            :Dry Weight Fraction Silicon (SpectroLith WALK2 Model) {F11.4}
DWSU_WALK2.                                            :Dry Weight Fraction Sulfur (SpectroLith WALK2 Model) {F11.4}
DWTI_WALK2.                                            :Dry Weight Fraction Titanium (SpectroLith WALK2 Model) {F11.4}
ECST .DEGF                                             :ECS Temperature {F11.4}
ED   .F                                                :East Departure {F11.4}
ESUF_WALK2.                                            :Elemental Statistical Uncertainty Factor (SpectroLith WALK2 Model) {F11.4}
GR_EDTC.GAPI                                           :EDTC Gamma Ray {F11.4}
GTEM .DEGF                                             :Generalized Borehole Temperature {F11.4}
HAZI .DEG                                              :Hole Azimuth {F11.4}
HAZIM.DEG                                              :Hole Azimuth {F11.4}
ND   .F                                                :North Departure {F11.4}
P1AZ .DEG                                              :Pad 1 Azimuth {F11.4}
QCPMT.                                                 :Photomultiplier Tube Quality Control {F11.4}
RB   .DEG                                              :Relative Bearing {F11.4}
RHGE_WALK2.G/C3                                        :Matrix Density from Elemental Concentrations (SpectroLith WALK2 Model) {F11.4}
SDEV .DEG                                              :Sonde Deviation {F11.4}
SDEVM.DEG                                              :Sonde Deviation {F11.4}
STIT .F                                                :Stuck Tool Indicator, Total {F11.4}
TENS .LBF                                              :Cable Tension {F11.4}
WANH_WALK2.                                            :Dry Weight Fraction Anhydrite/Gypsum (SpectroLith WALK2 Model) {F11.4}
WCAR_WALK2.                                            :Dry Weight Fraction Carbonate (SpectroLith WALK2 Model) {F11.4}
WCLA_WALK2.                                            :Dry Weight Fraction Clay (SpectroLith WALK2 Model) {F11.4}
WCOA_WALK2.                                            :Dry Weight Fraction Coal (SpectroLith WALK2 Model) {F11.4}
WEVA_WALK2.                                            :Dry Weight Fraction Salt (SpectroLith WALK2 Model) {F11.4}
WPYR_WALK2.                                            :Dry Weight Fraction Pyrite (SpectroLith WALK2 Model) {F11.4}
WQFM_WALK2.                                            :Dry Weight Fraction Quartz+Feldspar+Mica (QFM) (SpectroLith WALK2 Model) {F11.4}
WSID_WALK2.                                            :Dry Weight Fraction Siderite (SpectroLith WALK2 Model) {F11.4}
#-----------------------------------------------------------------------------
# 
#      DEPT      C1_OBMT    C2_OBMT      CDF        CTEM       DCAL       DEVI      DEVIM    DWAL_WALK2 DWCA_WALK2 DWFE_WALK2 DWGD_WALK2 DWSI_WALK2 DWSU_WALK2 DWTI_WALK2    ECST        ED     ESUF_WALK2  GR_EDTC      GTEM       HAZI      HAZIM        ND        P1AZ      QCPMT        RB     RHGE_WALK2    SDEV      SDEVM       STIT       TENS    WANH_WALK2 WCAR_WALK2 WCLA_WALK2 WCOA_WALK2 WEVA_WALK2 WPYR_WALK2 WQFM_WALK2 WSID_WALK2
#
~A  
# ...
   3819.0000     7.1545     7.1795  1020.2850   126.0236     0.4170     6.8185     7.4943     0.0602     0.1025     0.0352     7.2472     0.2411     0.0007     0.0038    45.9914   -25.3694     0.6691   131.8627   118.4752    85.2418    82.1675    -9.2122   348.7801     0.1237   263.4900     2.7261     7.0211     7.7303     0.0000  2515.0000     0.0000     0.2006     0.3439     0.0000     0.0000     0.0013     0.4541     0.0000
   3819.5000     7.1458     7.1753   981.5355   126.0236     0.4105     6.8505     7.4760     0.0627     0.0866     0.0346     5.1312     0.2572     0.0155     0.0040    47.1620   -25.3049     0.6825   134.7954   118.4818    85.0937    82.1391    -9.2033   348.6829     0.0000   263.5406     2.7397     7.0544     7.7108     0.0000  2411.0000     0.0000     0.1579     0.3657     0.0000     0.0000     0.0290     0.4474     0.0000
   3820.0000     7.1441     7.1830  1015.6635   126.0236     0.4135     6.8870     7.4750     0.0680     0.0839     0.0370     4.7418     0.2516     0.0212     0.0041    47.1620   -25.2405     0.6647   132.7985   118.4884    84.9799    82.0500    -9.1944   348.5740     0.3492   263.5450     2.7504     7.0932     7.7102     0.0000  2579.0000     0.0000     0.1506     0.4124     0.0000     0.0000     0.0397     0.3973     0.0000
   3820.5000     7.1493     7.1873  1030.2390   126.0236     0.4183     6.9381     7.4766     0.0679     0.0807     0.0375     5.0760     0.2549     0.0158     0.0046    45.9914   -25.1760     0.6664   133.5349   118.4950    84.7881    81.9374    -9.1853   347.8177     0.1625   262.9755     2.7444     7.1470     7.7122     0.0000  2524.0000     0.0000     0.1422     0.4116     0.0000     0.0000     0.0296     0.4166     0.0000
   3821.0000     7.1528     7.1881   991.1340   126.0236     0.4204     6.9715     7.4453     0.0678     0.0777     0.0388     6.5204     0.2572     0.0050     0.0051    47.1620   -25.1118     0.7226   136.3058   118.5016    84.6738    81.9177    -9.1762   347.3010     0.2053   262.5695     2.7335     7.1821     7.6794     0.0000  2426.0000     0.0000     0.1341     0.4113     0.0000     0.0000     0.0094     0.4452     0.0000
   3821.5000     7.1597     7.1813  1020.2850   126.0236     0.4205     7.0050     7.4375     0.0659     0.0714     0.0382     5.5568     0.2676     0.0008     0.0049    48.3325   -25.0477     0.7313   141.8400   118.5082    84.5624    81.8282    -9.1670   346.9075     0.4463   262.2847     2.7264     7.2169     7.6708     0.0000  2556.0000     0.0000     0.1170     0.3939     0.0000     0.0000     0.0015     0.4876     0.0000
   3822.0000     7.1207     7.1795  1025.2621   126.0236     0.4001     7.0590     7.4359     0.0641     0.0764     0.0375     5.5591     0.2646     0.0000     0.0042    47.7472   -24.9836     0.6917   142.6415   118.5148    84.4393    81.7153    -9.1578   345.6726     0.1046   261.1632     2.7251     7.2734     7.6688     0.0000  2530.0000     0.0000     0.1304     0.3784     0.0000     0.0000     0.0000     0.4912     0.0000
   3822.5000     7.1111     7.1778   986.5125   126.0236     0.3944     7.0860     7.4085     0.0619     0.0800     0.0363     4.6566     0.2642     0.0018     0.0032    47.1620   -24.9197     0.6313   139.5040   118.5214    84.3461    81.6569    -9.1484   345.1803     0.3545   260.7605     2.7256     7.3016     7.6400     0.0000  2416.0000     0.0000     0.1402     0.3590     0.0000     0.0000     0.0033     0.4975     0.0000
   3823.0000     7.1051     7.2208  1010.6865   126.0236     0.4127     7.1113     7.3857     0.0592     0.0823     0.0352     5.1208     0.2659     0.0000     0.0026    47.1620   -24.8560     0.6733   135.2204   118.5281    84.2635    81.5991    -9.1390   344.7110     0.0000   260.3701     2.7218     7.3306     7.6186     0.0000  2563.0000     0.0000     0.1464     0.3355     0.0000     0.0000     0.0000     0.5181     0.0000
   3823.5000     7.1172     7.2260  1025.2621   126.0236     0.4214     7.1583     7.3789     0.0537     0.0912     0.0322     5.7550     0.2651     0.0000     0.0016    47.1620   -24.7925     0.7215   133.9578   118.5347    84.1640    81.5049    -9.1296   343.0518     0.2415   258.7973     2.7178     7.3802     7.6118     0.0000  2548.0000     0.0000     0.1702     0.2867     0.0000     0.0000     0.0000     0.5431     0.0000
   3824.0000     7.1519     7.1830   986.5125   126.0236     0.4174     7.1905     7.3578     0.0505     0.1184     0.0305     4.7029     0.2388     0.0000     0.0009    45.9914   -24.7290     0.7444   136.7657   118.5413    84.0984    81.4388    -9.1201   342.3832     0.2797   258.1889     2.7194     7.4117     7.5871     0.0000  2426.0000     0.0000     0.2436     0.2585     0.0000     0.0000     0.0000     0.4980     0.0000
   3824.5000     7.1545     7.1787  1001.0880   126.0236     0.4166     7.2048     7.3340     0.0469     0.1477     0.0283     4.5348     0.2111     0.0000     0.0009    45.9914   -24.6658     0.6963   142.8469   118.5479    84.0665    81.3825    -9.1105   341.9263     0.1205   257.7602     2.7203     7.4264     7.5619     0.0000  2512.0000     0.0000     0.3224     0.2270     0.0000     0.0000     0.0000     0.4506     0.0000
   3825.0000     7.1285     7.1735   991.1340   126.0236     0.4010     7.2453     7.3137     0.0495     0.1560     0.0286     3.9508     0.1979     0.0048     0.0024    45.9914   -24.6028     0.7001   150.5221   118.5545    83.9688    81.3235    -9.1010   341.2692     0.1832   257.1953     2.7279     7.4686     7.5401     0.0000  2492.0000     0.0000     0.3446     0.2500     0.0000     0.0000     0.0090     0.3964     0.0000
   3825.5000     7.1485     7.1804   952.3845   126.0236     0.4144     7.2749     7.2948     0.0508     0.1502     0.0280     5.6861     0.2036     0.0110     0.0038    45.9914   -24.5400     0.7149   150.1777   118.5611    83.8832    81.2544    -9.0913   340.7832     0.1217   256.7908     2.7331     7.5001     7.5208     0.0000  2359.0000     0.0000     0.3291     0.2611     0.0000     0.0000     0.0206     0.3891     0.0000
   3826.0000     7.1441     7.1839   996.1110   126.0236     0.4139     7.2868     7.2778     0.0516     0.1431     0.0277     6.0340     0.2111     0.0161     0.0041    45.9914   -24.4773     0.7286   145.2439   118.5677    83.8632    81.2027    -9.0817   339.9946     0.1975   256.0161     2.7374     7.5127     7.5031     0.0000  2527.0000     0.0000     0.3100     0.2687     0.0000     0.0000     0.0302     0.3911     0.0000
   3826.5000     7.1502     7.2088  1034.8606   126.0236     0.4294     7.3161     7.2540     0.0487     0.1447     0.0269     6.7933     0.2136     0.0128     0.0029    45.9914   -24.4148     0.6994   143.6176   118.5743    83.7665    81.1302    -9.0720   337.2801     0.0000   253.3776     2.7322     7.5448     7.4793     0.0000  2569.0000     0.0000     0.3143     0.2434     0.0000     0.0000     0.0239     0.4184     0.0000
   3827.0000     7.1259     7.2010   986.5125   126.0236     0.4134     7.3485     7.2282     0.0463     0.1468     0.0261     6.9488     0.2149     0.0090     0.0024    45.9914   -24.3526     0.6677   144.5687   118.5809    83.6930    81.0673    -9.0622   335.3683     0.0000   251.5248     2.7266     7.5782     7.4516     0.0000  2457.0000     0.0000     0.3198     0.2219     0.0000     0.0000     0.0168     0.4415     0.0000
   3827.5000     7.1181     7.1770   961.9830   126.0236     0.3975     7.3474     7.2221     0.0446     0.1442     0.0258     6.0683     0.2202     0.0036     0.0023    45.9914   -24.2904     0.6637   160.1337   118.5875    83.6603    80.9651    -9.0524   335.1536     0.2874   251.3416     2.7194     7.5756     7.4436     0.0000  2398.0000     0.0000     0.3129     0.2071     0.0000     0.0000     0.0068     0.4732     0.0000
   3828.0000     7.1363     7.1778  1010.6865   126.0236     0.4070     7.3723     7.2058     0.0458     0.1400     0.0261     4.7492     0.2235     0.0056     0.0029    45.9914   -24.2284     0.7044   159.2405   118.5941    83.5945    80.9179    -9.0425   333.1263     0.0501   249.3656     2.7215     7.6019     7.4269     0.0000  2585.0000     0.0000     0.3016     0.2177     0.0000     0.0000     0.0106     0.4702     0.0000
