~VERSION INFORMATION
VERS.           1.2   :CWLS Log ASCII Standard - VERSION 1.2
WRAP.           NO    :One Line per depth step
PROD.  Schlumberger   :LAS Producer
PROG.  DLIS to ASCII 17C0-152                          :LAS Program name and version
CREA.        2011/10/27 17:25                          :LAS Creation date {YYYY/MM/DD hh:mm}
DLIS_CREA.  2011-Oct-27 07:17                          :DLIS Creation date and time {YYYY-MMM-DD hh:mm}
SOURCE.     79519d1b-f2ac-4620-a9ab-fbce0bbece67       :DLIS File Name
#--------------------------------------------------
~WELL INFORMATION
#MNEM.UNIT      DATA             DESCRIPTION
#---- ------ --------------   -----------------------------
STRT .F      3722.5000       :START DEPTH     
STOP .F      4490.0000       :STOP DEPTH     
STEP .F       0.5000         :STEP       
NULL .          -999.25      :NULL VALUE
COMP .                 COMPANY:  SWEPI LP                           
WELL .                    WELL:  Harper Hill 2-29                   
FLD  .                   FIELD:  Swan                               
LOC  .                LOCATION:                                     
CNTY .                  COUNTY:  Moffat                             
STAT .                   STATE:  Colorado                           
CTRY .                 COUNTRY:                                     
SRVC .         SERVICE COMPANY:  Schlumberger                       
API  .              API NUMBER:  05-0081-07659                      
DATE .                LOG DATE:  26-Oct-2011
UWI  .          UNIQUE WELL ID:                                     
#-----------------------------------------------------------------------------
~PARAMETER INFORMATION
#MNEM.UNIT    VALUE                      DESCRIPTION
#---- -----   --------------------       ------------------------
CN   .        SWEPI LP                   :Company Name
WN   .        Harper Hill 2-29           :Well Name
FN   .        Swan                       :Field Name
FL   .                                   :Field Location
FL1  .                                   :Field Location Line 1
COUN .        Moffat                     :County or Rig Name
STAT .        Colorado                   :State or Province
NATI .                                   :Nation
DATE .        26-Oct-2011                :Date as Month-Day-Year
APIN .        05-0081-07659              :API Serial Number
SECT .        29                         :Section
TOWN .        5N                         :Township
RANG .        90W                        :Range
DMF  .        Kelly Bushing              :Drilling Measured From
LMF  .        Kelly Bushing              :Log Measured From
PDAT .        Ground Level               :Permanent Datum
ENGI .        Mark Kast                  :Engineer's Name
WITN .        Tony                       :Witness's Name
LATI .                                   :Latitude
LONG .                                   :Longitude
LUL  .        Rock Springs               :Logging Unit Location
LUN  .              2271                 :Logging Unit Number
RUN  .        Two                        :Run Number
SON  .                                   :Service Order Number
BHT  .DEGF     127.00000                 :Bottom Hole Temperature (used in calculations)
BS   .IN         6.75000                 :Bit Size
DFD  .LB/G       7.90000                 :Drilling Fluid Density
DFV  .S         44.00000                 :Drilling Fluid Viscosity
DFL  .C3        16.60000                 :Drilling Fluid Loss
RMFS .                                   :Resistivity of Mud Filtrate Sample
EKB  .F       6597.00000                 :Elevation of Kelly Bushing
EGL  .F       6585.00000                 :Elevation of Ground Level
BLI  .                                   :Bottom Log Interval
BSAL .PPM     44500.00000                :Borehole Salinity
FLEV .                                   :Fluid Level
MCST .                                   :Mud Cake Sample Temperature
MFST .                                   :Mud Filtrate Sample Temperature
MRT  .DEGF     127.00000                 :Maximum Recorded Temperature
MST  .                                   :Mud Sample Temperature
RMCS .                                   :Resistivity of Mud Cake Sample
RMS  .                                   :Resistivity of Mud Sample
RW   .OHMM       1.00000                 :Resistivity of Connate Water
TDD  .F       4480.00000                 :Total Depth - Driller
TDL  .F       4482.00000                 :Total Depth - Logger
TLI  .                                   :Top Log Interval
HIDE .                                   :Header Identifier
MATR .        SAND                       :Rock Matrix for Neutron Porosity Corrections
DFT  .        OBM                        :Drilling Fluid Type
DFPH .                                   :Drilling Fluid PH
MCSS .        N/A                        :Mud Cake Sample Source
MFSS .        N/A                        :Mud Filtrate Sample Source
MSS  .        N/A                        :Mud Sample Source
OS1  .                                   :Other Services Line 1
OS2  .                                   :Other Services Line 2
OS3  .                                   :Other Services Line 3
OS4  .                                   :Other Services Line 4
OS5  .                                   :Other Services Line 5
R1   .                                   :Remark Line 1
R2   .                                   :Remark Line 2
R3   .                                   :Remark Line 3
R4   .                                   :Remark Line 4
R5   .                                   :Remark Line 5
R6   .                                   :Remark Line 6
R7   .                                   :Remark Line 7
R8   .                                   :Remark Line 8
TCS  .        20 00                      :Time Circulation Stopped
TLAB .                                   :Time Logger At Bottom
EPD  .F         6585.000000              :Elevation of Permanent Datum above Mean Sea Level
APD  .F          12.000000               :Elevation of Depth Reference (LMF) above Permanent Datum
#-----------------------------------------------------------------------------
~CURVE INFORMATION
#MNEM.UNIT   API CODE                                  DESCRIPTION
#---- -----  --------                                  -----------------------
DEPT .F                                                :DEPTH (BOREHOLE) {F12.4}
C1_OBMT.IN                                             :OBMT Caliper 1 {F11.4}
C2_OBMT.IN                                             :OBMT Caliper 2 {F11.4}
CDF  .LBF                                              :Calibrated Downhole Force {F11.4}
CTEM .DEGF                                             :Cartridge Temperature {F11.4}
DCAL .IN                                               :Differential Caliper {F11.4}
DEVI .DEG                                              :Hole Deviation {F11.4}
DEVIM.DEG                                              :Memorized Deviation {F11.4}
DWAL_WALK2.                                            :Dry Weight Fraction Pseudo Aluminum (SpectroLith WALK2 Model) {F11.4}
DWCA_WALK2.                                            :Dry Weight Fraction Calcium (SpectroLith WALK2 Model) {F11.4}
DWFE_WALK2.                                            :Dry Weight Fraction Iron + 0.14 Aluminum (SpectroLith WALK2 Model) {F11.4}
DWGD_WALK2.PPM                                         :Dry Weight Fraction Gadolinium (SpectroLith WALK2 Model) {F11.4}
DWSI_WALK2.                                            :Dry Weight Fraction Silicon (SpectroLith WALK2 Model) {F11.4}
DWSU_WALK2.                                            :Dry Weight Fraction Sulfur (SpectroLith WALK2 Model) {F11.4}
DWTI_WALK2.                                            :Dry Weight Fraction Titanium (SpectroLith WALK2 Model) {F11.4}
ECST .DEGF                                             :ECS Temperature {F11.4}
ED   .F                                                :East Departure {F11.4}
ESUF_WALK2.                                            :Elemental Statistical Uncertainty Factor (SpectroLith WALK2 Model) {F11.4}
GR_EDTC.GAPI                                           :EDTC Gamma Ray {F11.4}
GTEM .DEGF                                             :Generalized Borehole Temperature {F11.4}
HAZI .DEG                                              :Hole Azimuth {F11.4}
HAZIM.DEG                                              :Hole Azimuth {F11.4}
ND   .F                                                :North Departure {F11.4}
P1AZ .DEG                                              :Pad 1 Azimuth {F11.4}
QCPMT.                                                 :Photomultiplier Tube Quality Control {F11.4}
RB   .DEG                                              :Relative Bearing {F11.4}
RHGE_WALK2.G/C3                                        :Matrix Density from Elemental Concentrations (SpectroLith WALK2 Model) {F11.4}
SDEV .DEG                                              :Sonde Deviation {F11.4}
SDEVM.DEG                                              :Sonde Deviation {F11.4}
STIT .F                                                :Stuck Tool Indicator, Total {F11.4}
TENS .LBF                                              :Cable Tension {F11.4}
WANH_WALK2.                                            :Dry Weight Fraction Anhydrite/Gypsum (SpectroLith WALK2 Model) {F11.4}
WCAR_WALK2.                                            :Dry Weight Fraction Carbonate (SpectroLith WALK2 Model) {F11.4}
WCLA_WALK2.                                            :Dry Weight Fraction Clay (SpectroLith WALK2 Model) {F11.4}
WCOA_WALK2.                                            :Dry Weight Fraction Coal (SpectroLith WALK2 Model) {F11.4}
WEVA_WALK2.                                            :Dry Weight Fraction Salt (SpectroLith WALK2 Model) {F11.4}
WPYR_WALK2.                                            :Dry Weight Fraction Pyrite (SpectroLith WALK2 Model) {F11.4}
WQFM_WALK2.                                            :Dry Weight Fraction Quartz+Feldspar+Mica (QFM) (SpectroLith WALK2 Model) {F11.4}
WSID_WALK2.                                            :Dry Weight Fraction Siderite (SpectroLith WALK2 Model) {F11.4}
#-----------------------------------------------------------------------------
# 
#      DEPT      C1_OBMT    C2_OBMT      CDF        CTEM       DCAL       DEVI      DEVIM    DWAL_WALK2 DWCA_WALK2 DWFE_WALK2 DWGD_WALK2 DWSI_WALK2 DWSU_WALK2 DWTI_WALK2    ECST        ED     ESUF_WALK2  GR_EDTC      GTEM       HAZI      HAZIM        ND        P1AZ      QCPMT        RB     RHGE_WALK2    SDEV      SDEVM       STIT       TENS    WANH_WALK2 WCAR_WALK2 WCLA_WALK2 WCOA_WALK2 WEVA_WALK2 WPYR_WALK2 WQFM_WALK2 WSID_WALK2
#
~A  
# ...
   3827.0000     7.1884     7.2604   986.5125   124.0472     0.4743     7.3323     7.2359     0.0538     0.1295     0.0304     7.4319     0.2218     0.0064     0.0041    45.9914   -64.7944     0.7690   148.6671   118.5809    83.3945    80.4607   -36.4838   338.0468     0.0887   254.5240     2.7285     7.5651     7.4633     0.0000  2477.0000     0.0000     0.2735     0.2879     0.0000     0.0000     0.0120     0.4266     0.0000
   3827.5000     7.1909     7.2664  1054.4131   124.0472     0.4785     7.3378     7.2163     0.0506     0.1296     0.0293     5.9336     0.2267     0.0000     0.0042    45.9914   -64.7324     0.7214   151.2333   118.5875    83.3438    80.4142   -36.4733   334.7300     0.1974   251.2339     2.7189     7.5711     7.4430     0.0000  2666.0000     0.0000     0.2737     0.2597     0.0000     0.0000     0.0000     0.4666     0.0000
   3828.0000     7.1926     7.2630  1039.8375   124.0472     0.4777     7.3445     7.1912     0.0525     0.1170     0.0286     2.8627     0.2398     0.0130     0.0043    45.9914   -64.6706     0.7379   151.4505   118.5941    83.2877    80.3439   -36.4629   332.2553     0.2379   248.7988     2.7308     7.5778     7.4164     0.0000  2572.0000     0.0000     0.2396     0.2764     0.0000     0.0000     0.0243     0.4597     0.0000
   3828.5000     7.2351     7.2887   996.1110   124.0472     0.5119     7.3747     7.1810     0.0580     0.1081     0.0302     0.2526     0.2419     0.0245     0.0047    45.9914   -64.6089     0.7580   150.2949   118.6007    83.1711    80.2800   -36.4523   331.9532     0.1567   248.6104     2.7458     7.6113     7.4074     0.0000  2430.0000     0.0000     0.2158     0.3246     0.0000     0.0000     0.0458     0.4138     0.0000
   3829.0000     7.2326     7.2862  1015.6635   124.0472     0.5093     7.3933     7.1703     0.0670     0.1098     0.0343     0.0000     0.2250     0.0370     0.0039    45.4062   -64.5474     0.7534   145.8958   118.6074    83.0661    80.1956   -36.4417   331.0298     0.4135   247.7859     2.7685     7.6306     7.3958     0.0000  2556.0000     0.0000     0.2202     0.4042     0.0000     0.0000     0.0692     0.3064     0.0000
   3829.5000     7.2273     7.3042  1049.4360   124.0472     0.5157     7.3914     7.1495     0.0660     0.1232     0.0358     0.0000     0.2091     0.0237     0.0031    44.8209   -64.4860     0.7152   142.1963   118.6140    83.0350    80.1126   -36.4311   327.6647     0.6484   244.4319     2.7579     7.6294     7.3744     0.0000  2667.0000     0.0000     0.2565     0.3952     0.0000     0.0000     0.0443     0.3040     0.0000
   3830.0000     7.2352     7.2656  1015.6635   124.0472     0.5004     7.4032     7.1537     0.0602     0.1359     0.0352     2.6737     0.2021     0.0043     0.0024    44.8209   -64.4247     0.6808   155.5974   118.6206    82.9596    80.0468   -36.4204   325.5116     0.1000   242.3425     2.7362     7.6398     7.3775     0.0000  2539.0000     0.0000     0.2905     0.3440     0.0000     0.0000     0.0081     0.3574     0.0000
   3830.5000     7.2351     7.2604   981.5355   124.0472     0.4977     7.4311     7.1376     0.0556     0.1329     0.0330     6.9116     0.2132     0.0000     0.0026    44.8209   -64.3634     0.6730   166.0665   118.6272    82.7842    79.9760   -36.4096   325.2007     0.5511   242.2047     2.7264     7.6688     7.3602     0.0000  2436.0000     0.0000     0.2826     0.3039     0.0000     0.0000     0.0000     0.4135     0.0000
   3831.0000     7.2273     7.2604  1039.8375   124.0472     0.4938     7.4348     7.1198     0.0563     0.1231     0.0332     7.8759     0.2237     0.0000     0.0031    44.8209   -64.3023     0.7395   174.8285   118.6338    82.7439    79.9304   -36.3988   323.0931     0.3883   240.1272     2.7251     7.6725     7.3412     0.0000  2643.0000     0.0000     0.2561     0.3099     0.0000     0.0000     0.0000     0.4340     0.0000
   3831.5000     7.2282     7.2681  1039.8375   124.0472     0.4982     7.4290     7.1270     0.0619     0.1091     0.0359     8.0320     0.2306     0.0029     0.0037    44.8209   -64.2413     0.7579   170.0628   118.6404    82.6671    79.8109   -36.3878   318.5074     0.0000   235.6010     2.7312     7.6667     7.3491     0.0000  2624.0000     0.0000     0.2185     0.3587     0.0000     0.0000     0.0054     0.4174     0.0000
   3832.0000     7.1918     7.2449  1005.7095   124.0472     0.4683     7.4551     7.1160     0.0651     0.1060     0.0374     5.8553     0.2289     0.0063     0.0039    47.1620   -64.1803     0.7234   162.4691   118.6470    82.5956    79.7404   -36.3768   316.9946     0.0000   234.1535     2.7374     7.6923     7.3356     0.0000  2481.0000     0.0000     0.2102     0.3872     0.0000     0.0000     0.0118     0.3907     0.0000
   3832.5000     7.2387     7.2681  1005.7095   124.0472     0.5034     7.4662     7.0963     0.0649     0.1020     0.0379     4.0764     0.2333     0.0020     0.0038    46.7718   -64.1194     0.6778   161.4034   118.6536    82.4580    79.6710   -36.3658   315.8789     0.0000   233.1718     2.7326     7.7059     7.3169     0.0000  2550.0000     0.0000     0.1994     0.3857     0.0000     0.0000     0.0038     0.4111     0.0000
   3833.0000     7.2144     7.2630  1030.2390   124.0472     0.4886     7.4657     7.1052     0.0609     0.0990     0.0357     2.3553     0.2438     0.0000     0.0038    45.9914   -64.0586     0.7426   157.8419   118.6602    82.3696    79.5620   -36.3546   311.7599     0.0684   229.1334     2.7256     7.7044     7.3251     0.0000  2651.0000     0.0000     0.1913     0.3505     0.0000     0.0000     0.0000     0.4583     0.0000
   3833.5000     7.1910     7.2398  1001.0880   124.0472     0.4653     7.4623     7.0970     0.0560     0.1020     0.0328     2.8520     0.2490     0.0007     0.0033    45.9914   -63.9978     0.7872   160.3731   118.6668    82.2848    79.4980   -36.3434   308.6301     0.0000   226.0862     2.7216     7.6992     7.3151     0.0000  2545.0000     0.0000     0.1994     0.3071     0.0000     0.0000     0.0013     0.4922     0.0000
   3834.0000     7.2273     7.2630   966.9600   124.0472     0.4951     7.4878     7.0798     0.0524     0.1204     0.0301     4.7940     0.2345     0.0064     0.0026    45.9914   -63.9372     0.7705   162.0220   118.6734    82.1354    79.4482   -36.3321   308.0524     0.0000   225.6559     2.7266     7.7278     7.2987     0.0000  2447.0000     0.0000     0.2488     0.2759     0.0000     0.0000     0.0121     0.4633     0.0000
   3834.5000     7.2273     7.2664  1034.8606   124.0472     0.4968     7.4845     7.0819     0.0549     0.1369     0.0307     8.0389     0.2116     0.0143     0.0021    45.4062   -63.8766     0.7050   163.5805   118.6800    82.0757    79.3278   -36.3208   305.0573     0.2962   222.7212     2.7399     7.7243     7.3008     0.0000  2618.0000     0.0000     0.2932     0.2975     0.0000     0.0000     0.0268     0.3825     0.0000
   3835.0000     7.2387     7.2630  1025.2621   124.0472     0.5008     7.4788     7.0795     0.0616     0.1355     0.0344     8.9375     0.2016     0.0167     0.0024    44.8209   -63.8160     0.6681   160.5339   118.6867    81.9620    79.2409   -36.3093   299.2835     0.2150   217.0703     2.7491     7.7185     7.2988     0.0000  2600.0000     0.0000     0.2896     0.3562     0.0000     0.0000     0.0312     0.3229     0.0000
   3835.5000     7.2195     7.2561  1001.0880   124.0472     0.4878     7.4901     7.0736     0.0666     0.1216     0.0377    10.6385     0.2086     0.0141     0.0025    44.8209   -63.7555     0.6803   158.3929   118.6933    81.8636    79.1578   -36.2978   298.3278     0.0380   216.2146     2.7499     7.7293     7.2915     0.0000  2459.0000     0.0000     0.2521     0.4001     0.0000     0.0000     0.0264     0.3214     0.0000
   3836.0000     7.1909     7.2561  1010.6865   124.0472     0.4734     7.5032     7.0710     0.0679     0.1040     0.0403    11.1218     0.2251     0.0018     0.0024    44.8209   -63.6951     0.7159   163.1455   118.6999    81.7671    79.0743   -36.2862   297.3613     0.0558   215.3462     2.7371     7.7418     7.2873     0.0000  2486.0000     0.0000     0.2048     0.4121     0.0000     0.0000     0.0034     0.3797     0.0000
