~VERSION INFORMATION 
VERS  .    2.0                                     :CWLS Log ASCII Standard - VERSION 2.0
WRAP  .    NO                                      :One Line per Depth step
PROD  .    Schlumberger Technology Corp.           :LAS Producer
PROG  .    Horizon LASWriter 3.1.9755.0            :LAS Program name and version
SOURCE.    Composite 1 (2-Log[4]/Up + 2-Repeat[3]/Up):Run&Pass Information
CREA  .    10/26/2012                              :LAS Creation date {MM/DD/YYYY}
#--------------------------------------------------
~WELL INFORMATION 
#MNEM           .UNIT                      DATA            :DESCRIPTION
#----            ------          --------------            -----------------------------
STRT            .ft                  6000.00000            :START DEPTH
STOP            .ft                  8700.50000            :STOP DEPTH
STEP            .ft                         0.5            :STEP
NULL            .                       -999.25            :NULL VALUE
COMP            .                         SHELL            :COMPANY
WELL            .                DAWSON CREEK 1 25         :WELL NAME
FLD             .                WILLIAMS FORK UNIT        :FIELD NAME
RIGN            .                    SAVANA 650            :Rig Name
RIGTYP          .                          LAND            :Rig Type
SON             .                    BXV3-00069            :Service Order Number
SRVC            .                  Schlumberger            :SERVICE COMPANY
DATE            .                    10/26/2012            :LOG DATE(Composite Date for Composite LAP) (MM/DD/YYYY)
CLAB            .                       County:            :County Label
CNTY            .                         ROUTT            :COUNTY
SLAB            .                        State:            :State/Province Label
STAT            .                      COLORADO            :STATE or PROVINCE
PROV            .                      COLORADO            :STATE or PROVINCE
CTRY            .                           USA            :COUNTRY
CONT_REGION     .                    N. America            :Continent Region
SECT            .                            25            :Section
TOWN            .                            4N            :Township
RANG            .                           88W            :Range
API             .                  051076242000            :API NUMBER
UWI             .                                          :UNIQUE WELL ID
LUL             .                        VERNAL            :Logging Unit Location
LUN             .                          2379            :Logging Unit Number
LOC             .                SHL: 2032' FNL & 1639' FWL:FIELD LOCATION
FL1             .                BHL: 971' FNL & 2022' FEL :Field Location Line 1
FL2             .                                          :Field Location Line 2
LATI            .deg                  40.450486            :LATITUDE
LONG            .deg                 -107.21337            :LONGITUDE
PDAT            .                            GL            :Local Permanent Datum
LMF             .                            KB            :Logging Measured From
APD             .ft                    14.30000            :Elevation of Depth Reference (LMF) Above Permanent Datum
EPD             .ft                  6658.19984            :Elevation of Permanent Datum (PDAT) above Mean Sea Level
EKB             .ft                    14.30000            :Elevation of Kelly Bushing Above Permanent Datum
EDF             .ft                    14.30000            :Elevation of Drill Floor Above Permanent Datum
EGL             .ft                     0.00000            :Elevation of Ground Level Above Permanent Datum
ECF             .ft                     -999.25            :Elevation of Casing Flange above Permanent Datum
#--------------------------------------------------
~CURVE INFORMATION
#MNEM           .UNIT                  API CODE            :DESCRIPTION
#----            ------          --------------            -----------------------------
DEPT            .ft                                        :                                                        Depth Index
DWAL_WALK2      .lbf/lbf                                   :        (ECS-A[1])              (6in)                   Dry Weight Fraction Pseudo Aluminum (SpectroLith WALK2 Model)
DWCA_WALK2      .lbf/lbf                                   :        (ECS-A[1])              (6in)                   Dry Weight Fraction Calcium (SpectroLith WALK2 Model)
DWFE_WALK2      .lbf/lbf                                   :        (ECS-A[1])              (6in)                   Dry Weight Fraction Iron + 0.14 Aluminum (SpectroLith WALK2 Model)
DWGD_WALK2      .ppm                                       :        (ECS-A[1])              (6in)                   Dry Weight Fraction Gadolinium (SpectroLith WALK2 Model)
DWHY_WALK2      .lbf/lbf                                   :        (ECS-A[1])              (6in)                   Dry Weight Fraction Hydrogen Associated with Coal (SpectroLith WALK2 Model)
DWSI_WALK2      .lbf/lbf                                   :        (ECS-A[1])              (6in)                   Dry Weight Fraction Silicon (SpectroLith WALK2 Model)
DWSU_WALK2      .lbf/lbf                                   :        (ECS-A[1])              (6in)                   Dry Weight Fraction Sulfur (SpectroLith WALK2 Model)
DWTI_WALK2      .lbf/lbf                                   :        (ECS-A[1])              (6in)                   Dry Weight Fraction Titanium (SpectroLith WALK2 Model)
DXFE_WALK2      .lbf/lbf                                   :        (ECS-A[1])              (6in)                   Dry Weight Fraction Excess Iron (SpectroLith WALK2 Model)
WANH_WALK2      .lbf/lbf                                   :        (ECS-A[1])              (6in)                   Dry Weight Fraction Anhydrite/Gypsum (SpectroLith WALK2 Model)
WCAR_WALK2      .lbf/lbf                                   :        (ECS-A[1])              (6in)                   Dry Weight Fraction Carbonate (SpectroLith WALK2 Model)
WCLA_WALK2      .lbf/lbf                                   :        (ECS-A[1])              (6in)                   Dry Weight Fraction Clay (SpectroLith WALK2 Model)
WCOA_WALK2      .lbf/lbf                                   :        (ECS-A[1])              (6in)                   Dry Weight Fraction Coal (SpectroLith WALK2 Model)
WEVA_WALK2      .lbf/lbf                                   :        (ECS-A[1])              (6in)                   Dry Weight Fraction Salt (SpectroLith WALK2 Model)
WPYR_WALK2      .lbf/lbf                                   :        (ECS-A[1])              (6in)                   Dry Weight Fraction Pyrite (SpectroLith WALK2 Model)
WQFM_WALK2      .lbf/lbf                                   :        (ECS-A[1])              (6in)                   Dry Weight Fraction Quartz+Feldspar+Mica (QFM) (SpectroLith WALK2 Model)
WSID_WALK2      .lbf/lbf                                   :        (ECS-A[1])              (6in)                   Dry Weight Fraction Siderite (SpectroLith WALK2 Model)
#-------------------------------------------------------------
#            DEPT   DWAL_WALK2   DWCA_WALK2   DWFE_WALK2   DWGD_WALK2   DWHY_WALK2   DWSI_WALK2   DWSU_WALK2   DWTI_WALK2   DXFE_WALK2   WANH_WALK2   WCAR_WALK2   WCLA_WALK2   WCOA_WALK2   WEVA_WALK2   WPYR_WALK2   WQFM_WALK2   WSID_WALK2 
#                   (ECS-A[1])   (ECS-A[1])   (ECS-A[1])   (ECS-A[1])   (ECS-A[1])   (ECS-A[1])   (ECS-A[1])   (ECS-A[1])   (ECS-A[1])   (ECS-A[1])   (ECS-A[1])   (ECS-A[1])   (ECS-A[1])   (ECS-A[1])   (ECS-A[1])   (ECS-A[1])   (ECS-A[1]) 
#                                                                                                                                                                                                                                              
#                        (6in)        (6in)        (6in)        (6in)        (6in)        (6in)        (6in)        (6in)        (6in)        (6in)        (6in)        (6in)        (6in)        (6in)        (6in)        (6in)        (6in) 
~ASCII
# ...
       8499.00000      0.07748      0.02275      0.04613      6.92327      0.00000      0.30271      0.00000      0.00305      0.00000      0.00000      0.00000      0.49599      0.00000      0.00000      0.00000      0.50401      0.00000
       8499.50000      0.08155      0.01640      0.04843      5.90518      0.00000      0.30298      0.00000      0.00351      0.00000      0.00000      0.00000      0.53174      0.00000      0.00000      0.00000      0.46826      0.00000
       8500.00000      0.08533      0.00340      0.05050      8.13539      0.00000      0.31157      0.00000      0.00414      0.00000      0.00000      0.00000      0.56504      0.00000      0.00000      0.00000      0.43496      0.00000
       8500.50000      0.08390      0.00000      0.04954      8.70689      0.00019      0.31820      0.00000      0.00436      0.00000      0.00000      0.00000      0.55241      0.00000      0.00000      0.00000      0.44759      0.00000
       8501.00000      0.07905      0.00000      0.04676     10.41406      0.00043      0.32675      0.00000      0.00389      0.00000      0.00000      0.00000      0.50981      0.00000      0.00000      0.00000      0.49019      0.00000
       8501.50000      0.07234      0.00512      0.04300      9.21102      0.00083      0.33253      0.00000      0.00301      0.00000      0.00000      0.00000      0.45081      0.00000      0.00000      0.00000      0.54919      0.00000
       8502.00000      0.06868      0.01709      0.04102     10.27786      0.00093      0.32489      0.00000      0.00237      0.00000      0.00000      0.00000      0.41870      0.00000      0.00000      0.00000      0.58130      0.00000
       8502.50000      0.07403      0.01827      0.04415     10.13565      0.00077      0.31402      0.00000      0.00272      0.00000      0.00000      0.00000      0.46571      0.00000      0.00000      0.00000      0.53429      0.00000
       8503.00000      0.07964      0.01627      0.04735     10.66381      0.00069      0.30649      0.00000      0.00330      0.00000      0.00000      0.00000      0.51497      0.00000      0.00000      0.00000      0.48503      0.00000
       8503.50000      0.08084      0.02276      0.04672      8.84274      0.00067      0.29801      0.00903      0.00361      0.00000      0.00000      0.00000      0.52556      0.00000      0.00000      0.01690      0.45755      0.00000
       8504.00000      0.07912      0.02328      0.04546      8.01636      0.00106      0.30070      0.00991      0.00384      0.00000      0.00000      0.00000      0.51045      0.00000      0.00000      0.01855      0.47100      0.00000
       8504.50000      0.08301      0.01341      0.04749      6.32798      0.00120      0.30554      0.01154      0.00427      0.00000      0.00000      0.00000      0.54463      0.00000      0.00000      0.02160      0.43378      0.00000
       8505.00000      0.08956      0.00000      0.05267      5.07548      0.00122      0.30832      0.01193      0.00475      0.00000      0.00000      0.00000      0.60222      0.00000      0.00000      0.02232      0.37546      0.00000
       8505.50000      0.09552      0.00000      0.05635      3.30450      0.00088      0.29758      0.01133      0.00466      0.00000      0.00000      0.00000      0.65453      0.00000      0.00000      0.02120      0.32427      0.00000
       8506.00000      0.09754      0.00000      0.05771      4.67260      0.00035      0.29382      0.00704      0.00451      0.00000      0.00000      0.00000      0.67232      0.00000      0.00000      0.01317      0.31451      0.00000
       8506.50000      0.09608      0.00000      0.05686      5.13538      0.00000      0.29641      0.00252      0.00455      0.00000      0.00000      0.00000      0.65945      0.00000      0.00000      0.00471      0.33584      0.00000
       8507.00000      0.09201      0.00000      0.05447      5.94849      0.00000      0.30364      0.00315      0.00429      0.00000      0.00000      0.00000      0.62370      0.00000      0.00000      0.00589      0.37041      0.00000
       8507.50000      0.08506      0.00975      0.05062      4.49368      0.00000      0.30438      0.00009      0.00338      0.00000      0.00000      0.00000      0.56265      0.00000      0.00000      0.00017      0.43719      0.00000
       8508.00000      0.07553      0.03913      0.04535      5.28547      0.00001      0.28672      0.00000      0.00198      0.00000      0.00000      0.03025      0.47888      0.00000      0.00000      0.00000      0.49087      0.00000
       8508.50000      0.06985      0.05038      0.04216      6.03010      0.00041      0.28354      0.00000      0.00125      0.00000      0.00000      0.06051      0.42893      0.00000      0.00000      0.00000      0.51055      0.00000
       8509.00000      0.06945      0.04562      0.04177      7.02544      0.00036      0.28994      0.00000      0.00165      0.00000      0.00000      0.04773      0.42545      0.00000      0.00000      0.00000      0.52682      0.00000
       8509.50000      0.07381      0.02742      0.04380      7.16918      0.00016      0.30394      0.00000      0.00327      0.00000      0.00000      0.00000      0.46375      0.00000      0.00000      0.00000      0.53625      0.00000
       8510.00000      0.08367      0.01458      0.04827      7.14759      0.00000      0.30263      0.00627      0.00504      0.00000      0.00000      0.00000      0.55045      0.00000      0.00000      0.01173      0.43782      0.00000
       8510.50000      0.09079      0.01771      0.05102      7.63862      0.00000      0.28767      0.01874      0.00554      0.00000      0.00000      0.00000      0.61300      0.00000      0.00000      0.03506      0.35194      0.00000
       8511.00000      0.08911      0.02825      0.05054      6.86839      0.00000      0.27788      0.01479      0.00471      0.00000      0.00000      0.00099      0.59822      0.00000      0.00000      0.02767      0.37311      0.00000
       8511.50000      0.08120      0.03416      0.04794      6.61417      0.00000      0.28312      0.00100      0.00388      0.00000      0.00000      0.01690      0.52874      0.00000      0.00000      0.00188      0.45248      0.00000
       8512.00000      0.07701      0.03182      0.04565      5.82829      0.00000      0.29315      0.00000      0.00355      0.00000      0.00000      0.01060      0.49186      0.00000      0.00000      0.00000      0.49754      0.00000
       8512.50000      0.07502      0.03622      0.04447      5.96838      0.00000      0.29155      0.00000      0.00345      0.00000      0.00000      0.02244      0.47437      0.00000      0.00000      0.00000      0.50318      0.00000
       8513.00000      0.07370      0.04374      0.04382      5.33577      0.00000      0.28501      0.00000      0.00306      0.00000      0.00000      0.04265      0.46282      0.00000      0.00000      0.00000      0.49453      0.00000
       8513.50000      0.07115      0.04854      0.04242      5.93109      0.00000      0.28384      0.00000      0.00265      0.00000      0.00000      0.05558      0.44041      0.00000      0.00000      0.00000      0.50401      0.00000
       8514.00000      0.07166      0.03498      0.04261      7.42821      0.00000      0.29886      0.00000      0.00296      0.00000      0.00000      0.01910      0.44489      0.00000      0.00000      0.00000      0.53601      0.00000
       8514.50000      0.07354      0.01735      0.04334      8.44563      0.00054      0.31646      0.00000      0.00402      0.00000      0.00000      0.00000      0.46134      0.00000      0.00000      0.00000      0.53866      0.00000
       8515.00000      0.07884      0.00860      0.04620      7.92988      0.00123      0.31749      0.00000      0.00500      0.00000      0.00000      0.00000      0.50794      0.00000      0.00000      0.00000      0.49206      0.00000
       8515.50000      0.07906      0.01961      0.04647      5.41762      0.00172      0.30412      0.00000      0.00465      0.00000      0.00000      0.00000      0.50988      0.00000      0.00000      0.00000      0.49012      0.00000
