~VERSION INFORMATION 
VERS  .    2.0                                     :CWLS Log ASCII Standard - VERSION 2.0
WRAP  .    NO                                      :One Line per Depth step
PROD  .    Schlumberger Technology Corp.           :LAS Producer
PROG  .    Horizon LASWriter 3.1.9755.0            :LAS Program name and version
SOURCE.    Composite 1 (2-Log[4]/Up + 2-Repeat[3]/Up):Run&Pass Information
CREA  .    10/26/2012                              :LAS Creation date {MM/DD/YYYY}
#--------------------------------------------------
~WELL INFORMATION 
#MNEM           .UNIT                      DATA            :DESCRIPTION
#----            ------          --------------            -----------------------------
STRT            .ft                  6000.00000            :START DEPTH
STOP            .ft                  8700.50000            :STOP DEPTH
STEP            .ft                         0.5            :STEP
NULL            .                       -999.25            :NULL VALUE
COMP            .                         SHELL            :COMPANY
WELL            .                DAWSON CREEK 1 25         :WELL NAME
FLD             .                WILLIAMS FORK UNIT        :FIELD NAME
RIGN            .                    SAVANA 650            :Rig Name
RIGTYP          .                          LAND            :Rig Type
SON             .                    BXV3-00069            :Service Order Number
SRVC            .                  Schlumberger            :SERVICE COMPANY
DATE            .                    10/26/2012            :LOG DATE(Composite Date for Composite LAP) (MM/DD/YYYY)
CLAB            .                       County:            :County Label
CNTY            .                         ROUTT            :COUNTY
SLAB            .                        State:            :State/Province Label
STAT            .                      COLORADO            :STATE or PROVINCE
PROV            .                      COLORADO            :STATE or PROVINCE
CTRY            .                           USA            :COUNTRY
CONT_REGION     .                    N. America            :Continent Region
SECT            .                            25            :Section
TOWN            .                            4N            :Township
RANG            .                           88W            :Range
API             .                  051076242000            :API NUMBER
UWI             .                                          :UNIQUE WELL ID
LUL             .                        VERNAL            :Logging Unit Location
LUN             .                          2379            :Logging Unit Number
LOC             .                SHL: 2032' FNL & 1639' FWL:FIELD LOCATION
FL1             .                BHL: 971' FNL & 2022' FEL :Field Location Line 1
FL2             .                                          :Field Location Line 2
LATI            .deg                  40.450486            :LATITUDE
LONG            .deg                 -107.21337            :LONGITUDE
PDAT            .                            GL            :Local Permanent Datum
LMF             .                            KB            :Logging Measured From
APD             .ft                    14.30000            :Elevation of Depth Reference (LMF) Above Permanent Datum
EPD             .ft                  6658.19984            :Elevation of Permanent Datum (PDAT) above Mean Sea Level
EKB             .ft                    14.30000            :Elevation of Kelly Bushing Above Permanent Datum
EDF             .ft                    14.30000            :Elevation of Drill Floor Above Permanent Datum
EGL             .ft                     0.00000            :Elevation of Ground Level Above Permanent Datum
ECF             .ft                     -999.25            :Elevation of Casing Flange above Permanent Datum
#--------------------------------------------------
~CURVE INFORMATION
#MNEM           .UNIT                  API CODE            :DESCRIPTION
#----            ------          --------------            -----------------------------
DEPT            .ft                                        :                                                        Depth Index
DWAL_WALK2      .lbf/lbf                                   :        (ECS-A[1])              (6in)                   Dry Weight Fraction Pseudo Aluminum (SpectroLith WALK2 Model)
DWCA_WALK2      .lbf/lbf                                   :        (ECS-A[1])              (6in)                   Dry Weight Fraction Calcium (SpectroLith WALK2 Model)
DWFE_WALK2      .lbf/lbf                                   :        (ECS-A[1])              (6in)                   Dry Weight Fraction Iron + 0.14 Aluminum (SpectroLith WALK2 Model)
DWGD_WALK2      .ppm                                       :        (ECS-A[1])              (6in)                   Dry Weight Fraction Gadolinium (SpectroLith WALK2 Model)
DWHY_WALK2      .lbf/lbf                                   :        (ECS-A[1])              (6in)                   Dry Weight Fraction Hydrogen Associated with Coal (SpectroLith WALK2 Model)
DWSI_WALK2      .lbf/lbf                                   :        (ECS-A[1])              (6in)                   Dry Weight Fraction Silicon (SpectroLith WALK2 Model)
DWSU_WALK2      .lbf/lbf                                   :        (ECS-A[1])              (6in)                   Dry Weight Fraction Sulfur (SpectroLith WALK2 Model)
DWTI_WALK2      .lbf/lbf                                   :        (ECS-A[1])              (6in)                   Dry Weight Fraction Titanium (SpectroLith WALK2 Model)
DXFE_WALK2      .lbf/lbf                                   :        (ECS-A[1])              (6in)                   Dry Weight Fraction Excess Iron (SpectroLith WALK2 Model)
WANH_WALK2      .lbf/lbf                                   :        (ECS-A[1])              (6in)                   Dry Weight Fraction Anhydrite/Gypsum (SpectroLith WALK2 Model)
WCAR_WALK2      .lbf/lbf                                   :        (ECS-A[1])              (6in)                   Dry Weight Fraction Carbonate (SpectroLith WALK2 Model)
WCLA_WALK2      .lbf/lbf                                   :        (ECS-A[1])              (6in)                   Dry Weight Fraction Clay (SpectroLith WALK2 Model)
WCOA_WALK2      .lbf/lbf                                   :        (ECS-A[1])              (6in)                   Dry Weight Fraction Coal (SpectroLith WALK2 Model)
WEVA_WALK2      .lbf/lbf                                   :        (ECS-A[1])              (6in)                   Dry Weight Fraction Salt (SpectroLith WALK2 Model)
WPYR_WALK2      .lbf/lbf                                   :        (ECS-A[1])              (6in)                   Dry Weight Fraction Pyrite (SpectroLith WALK2 Model)
WQFM_WALK2      .lbf/lbf                                   :        (ECS-A[1])              (6in)                   Dry Weight Fraction Quartz+Feldspar+Mica (QFM) (SpectroLith WALK2 Model)
WSID_WALK2      .lbf/lbf                                   :        (ECS-A[1])              (6in)                   Dry Weight Fraction Siderite (SpectroLith WALK2 Model)
#-------------------------------------------------------------
#            DEPT   DWAL_WALK2   DWCA_WALK2   DWFE_WALK2   DWGD_WALK2   DWHY_WALK2   DWSI_WALK2   DWSU_WALK2   DWTI_WALK2   DXFE_WALK2   WANH_WALK2   WCAR_WALK2   WCLA_WALK2   WCOA_WALK2   WEVA_WALK2   WPYR_WALK2   WQFM_WALK2   WSID_WALK2 
#                   (ECS-A[1])   (ECS-A[1])   (ECS-A[1])   (ECS-A[1])   (ECS-A[1])   (ECS-A[1])   (ECS-A[1])   (ECS-A[1])   (ECS-A[1])   (ECS-A[1])   (ECS-A[1])   (ECS-A[1])   (ECS-A[1])   (ECS-A[1])   (ECS-A[1])   (ECS-A[1])   (ECS-A[1]) 
#                                                                                                                                                                                                                                              
#                        (6in)        (6in)        (6in)        (6in)        (6in)        (6in)        (6in)        (6in)        (6in)        (6in)        (6in)        (6in)        (6in)        (6in)        (6in)        (6in)        (6in) 
~ASCII
# ...
       6901.00000      0.06031      0.05016      0.03587      7.31653      0.00019      0.30139      0.00000      0.00245      0.00000      0.00000      0.05992      0.34505      0.00000      0.00000      0.00000      0.59502      0.00000
       6901.50000      0.06428      0.04855      0.03760      9.30763      0.00000      0.29677      0.00268      0.00331      0.00000      0.00000      0.05560      0.38000      0.00000      0.00000      0.00501      0.55939      0.00000
       6902.00000      0.07392      0.04959      0.04130      9.17136      0.00000      0.28026      0.01565      0.00433      0.00000      0.00000      0.05839      0.46471      0.00000      0.00000      0.02929      0.44761      0.00000
       6902.50000      0.07858      0.04656      0.04337      9.49038      0.00000      0.27614      0.01813      0.00544      0.00000      0.00000      0.05023      0.50565      0.00000      0.00000      0.03391      0.41020      0.00000
       6903.00000      0.08159      0.03411      0.04510      9.29003      0.00000      0.28536      0.01785      0.00582      0.00000      0.00000      0.01675      0.53210      0.00000      0.00000      0.03339      0.41775      0.00000
       6903.50000      0.07870      0.01936      0.04480     11.49830      0.00000      0.30641      0.00735      0.00578      0.00000      0.00000      0.00000      0.50669      0.00000      0.00000      0.01375      0.47956      0.00000
       6904.00000      0.07738      0.01401      0.04392     10.22334      0.00000      0.31510      0.00937      0.00524      0.00000      0.00000      0.00000      0.49509      0.00000      0.00000      0.01754      0.48738      0.00000
       6904.50000      0.07538      0.02597      0.04272      8.68080      0.00000      0.30470      0.01161      0.00441      0.00000      0.00000      0.00000      0.47759      0.00000      0.00000      0.02172      0.50069      0.00000
       6905.00000      0.07222      0.04439      0.04055      5.98179      0.00000      0.28912      0.01592      0.00350      0.00000      0.00000      0.04440      0.44980      0.00000      0.00000      0.02979      0.47601      0.00000
       6905.50000      0.07073      0.05529      0.04068      6.58823      0.00000      0.27811      0.01000      0.00292      0.00000      0.00000      0.07372      0.43668      0.00000      0.00000      0.01871      0.47089      0.00000
       6906.00000      0.06873      0.05708      0.04053      6.88069      0.00000      0.27860      0.00181      0.00306      0.00000      0.00000      0.07856      0.41912      0.00000      0.00000      0.00339      0.49893      0.00000
       6906.50000      0.07253      0.04245      0.04276      6.55818      0.00017      0.28894      0.00000      0.00394      0.00000      0.00000      0.03919      0.45252      0.00000      0.00000      0.00000      0.50829      0.00000
       6907.00000      0.07240      0.03824      0.04258      4.75538      0.00001      0.29417      0.00000      0.00420      0.00000      0.00000      0.02787      0.45140      0.00000      0.00000      0.00000      0.52073      0.00000
       6907.50000      0.07300      0.02919      0.04293      2.86603      0.00010      0.30368      0.00000      0.00423      0.00000      0.00000      0.00353      0.45661      0.00000      0.00000      0.00000      0.53986      0.00000
       6908.00000      0.06925      0.03320      0.04108      2.10841      0.00050      0.30534      0.00000      0.00310      0.00000      0.00000      0.01432      0.42363      0.00000      0.00000      0.00000      0.56205      0.00000
       6908.50000      0.07248      0.01459      0.04266      1.80232      0.00110      0.32162      0.00303      0.00304      0.00000      0.00000      0.00000      0.45204      0.00000      0.00000      0.00567      0.54229      0.00000
       6909.00000      0.07528      0.00557      0.04416      3.19565      0.00100      0.32731      0.00613      0.00280      0.00000      0.00000      0.00000      0.47667      0.00000      0.00000      0.01146      0.51187      0.00000
       6909.50000      0.07672      0.00000      0.04544      5.34142      0.00092      0.33085      0.00707      0.00334      0.00000      0.00000      0.00000      0.48929      0.00000      0.00000      0.01322      0.49749      0.00000
       6910.00000      0.07290      0.01380      0.04300      9.60499      0.00080      0.32170      0.00055      0.00372      0.00000      0.00000      0.00000      0.45579      0.00000      0.00000      0.00102      0.54319      0.00000
       6910.50000      0.07135      0.02065      0.04191     12.95208      0.00116      0.31663      0.00000      0.00427      0.00000      0.00000      0.00000      0.44210      0.00000      0.00000      0.00000      0.55790      0.00000
       6911.00000      0.07266      0.02134      0.04272     14.18937      0.00115      0.31346      0.00000      0.00425      0.00000      0.00000      0.00000      0.45361      0.00000      0.00000      0.00000      0.54639      0.00000
       6911.50000      0.07567      0.01879      0.04473     11.88498      0.00100      0.31087      0.00000      0.00382      0.00000      0.00000      0.00000      0.48012      0.00000      0.00000      0.00000      0.51988      0.00000
       6912.00000      0.07440      0.03220      0.04420      9.00736      0.00061      0.29725      0.00000      0.00317      0.00000      0.00000      0.01163      0.46897      0.00000      0.00000      0.00000      0.51940      0.00000
       6912.50000      0.07481      0.03433      0.04428      8.09413      0.00044      0.29421      0.00000      0.00361      0.00000      0.00000      0.01734      0.47252      0.00000      0.00000      0.00000      0.51014      0.00000
       6913.00000      0.07836      0.03914      0.04620      8.66932      0.00031      0.28243      0.00000      0.00427      0.00000      0.00000      0.03029      0.50378      0.00000      0.00000      0.00000      0.46593      0.00000
       6913.50000      0.08471      0.02971      0.04981      8.94825      0.00039      0.28227      0.00000      0.00493      0.00000      0.00000      0.00492      0.55953      0.00000      0.00000      0.00000      0.43555      0.00000
       6914.00000      0.08567      0.03852      0.05080      7.07223      0.00052      0.26988      0.00000      0.00391      0.00000      0.00000      0.02862      0.56804      0.00000      0.00000      0.00000      0.40335      0.00000
       6914.50000      0.08356      0.04043      0.04998      5.18272      0.00068      0.27102      0.00000      0.00268      0.00000      0.00000      0.03375      0.54942      0.00000      0.00000      0.00000      0.41682      0.00000
       6915.00000      0.08316      0.03580      0.04997      3.18069      0.00088      0.27691      0.00000      0.00209      0.00000      0.00000      0.02130      0.54597      0.00000      0.00000      0.00000      0.43273      0.00000
       6915.50000      0.08478      0.02449      0.05069      4.37860      0.00080      0.28746      0.00000      0.00279      0.00000      0.00000      0.00000      0.56016      0.00000      0.00000      0.00000      0.43984      0.00000
       6916.00000      0.08791      0.01600      0.05210      5.08158      0.00101      0.29220      0.00000      0.00407      0.00000      0.00000      0.00000      0.58770      0.00000      0.00000      0.00000      0.41230      0.00000
       6916.50000      0.08894      0.02031      0.05244      7.37617      0.00078      0.28560      0.00000      0.00482      0.00000      0.00000      0.00000      0.59672      0.00000      0.00000      0.00000      0.40328      0.00000
       6917.00000      0.09004      0.02172      0.05302      6.31377      0.00095      0.28206      0.00000      0.00504      0.00000      0.00000      0.00000      0.60637      0.00000      0.00000      0.00000      0.39363      0.00000
       6917.50000      0.08794      0.01733      0.05193      6.27113      0.00072      0.29077      0.00000      0.00456      0.00000      0.00000      0.00000      0.58794      0.00000      0.00000      0.00000      0.41206      0.00000
