~VERSION INFORMATION 
VERS  .    2.0                                     :CWLS Log ASCII Standard - VERSION 2.0
WRAP  .    NO                                      :One Line per Depth step
PROD  .    Schlumberger Technology Corp.           :LAS Producer
PROG  .    Horizon LASWriter 3.1.9755.0            :LAS Program name and version
SOURCE.    Composite 1 (2-Log[4]/Up + 2-Repeat[3]/Up):Run&Pass Information
CREA  .    10/26/2012                              :LAS Creation date {MM/DD/YYYY}
#--------------------------------------------------
~WELL INFORMATION 
#MNEM           .UNIT                      DATA            :DESCRIPTION
#----            ------          --------------            -----------------------------
STRT            .ft                  6000.00000            :START DEPTH
STOP            .ft                  8700.50000            :STOP DEPTH
STEP            .ft                         0.5            :STEP
NULL            .                       -999.25            :NULL VALUE
COMP            .                         SHELL            :COMPANY
WELL            .                DAWSON CREEK 1 25         :WELL NAME
FLD             .                WILLIAMS FORK UNIT        :FIELD NAME
RIGN            .                    SAVANA 650            :Rig Name
RIGTYP          .                          LAND            :Rig Type
SON             .                    BXV3-00069            :Service Order Number
SRVC            .                  Schlumberger            :SERVICE COMPANY
DATE            .                    10/26/2012            :LOG DATE(Composite Date for Composite LAP) (MM/DD/YYYY)
CLAB            .                       County:            :County Label
CNTY            .                         ROUTT            :COUNTY
SLAB            .                        State:            :State/Province Label
STAT            .                      COLORADO            :STATE or PROVINCE
PROV            .                      COLORADO            :STATE or PROVINCE
CTRY            .                           USA            :COUNTRY
CONT_REGION     .                    N. America            :Continent Region
SECT            .                            25            :Section
TOWN            .                            4N            :Township
RANG            .                           88W            :Range
API             .                  051076242000            :API NUMBER
UWI             .                                          :UNIQUE WELL ID
LUL             .                        VERNAL            :Logging Unit Location
LUN             .                          2379            :Logging Unit Number
LOC             .                SHL: 2032' FNL & 1639' FWL:FIELD LOCATION
FL1             .                BHL: 971' FNL & 2022' FEL :Field Location Line 1
FL2             .                                          :Field Location Line 2
LATI            .deg                  40.450486            :LATITUDE
LONG            .deg                 -107.21337            :LONGITUDE
PDAT            .                            GL            :Local Permanent Datum
LMF             .                            KB            :Logging Measured From
APD             .ft                    14.30000            :Elevation of Depth Reference (LMF) Above Permanent Datum
EPD             .ft                  6658.19984            :Elevation of Permanent Datum (PDAT) above Mean Sea Level
EKB             .ft                    14.30000            :Elevation of Kelly Bushing Above Permanent Datum
EDF             .ft                    14.30000            :Elevation of Drill Floor Above Permanent Datum
EGL             .ft                     0.00000            :Elevation of Ground Level Above Permanent Datum
ECF             .ft                     -999.25            :Elevation of Casing Flange above Permanent Datum
#--------------------------------------------------
~CURVE INFORMATION
#MNEM           .UNIT                  API CODE            :DESCRIPTION
#----            ------          --------------            -----------------------------
DEPT            .ft                                        :                                                        Depth Index
DWAL_WALK2      .lbf/lbf                                   :        (ECS-A[1])              (6in)                   Dry Weight Fraction Pseudo Aluminum (SpectroLith WALK2 Model)
DWCA_WALK2      .lbf/lbf                                   :        (ECS-A[1])              (6in)                   Dry Weight Fraction Calcium (SpectroLith WALK2 Model)
DWFE_WALK2      .lbf/lbf                                   :        (ECS-A[1])              (6in)                   Dry Weight Fraction Iron + 0.14 Aluminum (SpectroLith WALK2 Model)
DWGD_WALK2      .ppm                                       :        (ECS-A[1])              (6in)                   Dry Weight Fraction Gadolinium (SpectroLith WALK2 Model)
DWHY_WALK2      .lbf/lbf                                   :        (ECS-A[1])              (6in)                   Dry Weight Fraction Hydrogen Associated with Coal (SpectroLith WALK2 Model)
DWSI_WALK2      .lbf/lbf                                   :        (ECS-A[1])              (6in)                   Dry Weight Fraction Silicon (SpectroLith WALK2 Model)
DWSU_WALK2      .lbf/lbf                                   :        (ECS-A[1])              (6in)                   Dry Weight Fraction Sulfur (SpectroLith WALK2 Model)
DWTI_WALK2      .lbf/lbf                                   :        (ECS-A[1])              (6in)                   Dry Weight Fraction Titanium (SpectroLith WALK2 Model)
DXFE_WALK2      .lbf/lbf                                   :        (ECS-A[1])              (6in)                   Dry Weight Fraction Excess Iron (SpectroLith WALK2 Model)
WANH_WALK2      .lbf/lbf                                   :        (ECS-A[1])              (6in)                   Dry Weight Fraction Anhydrite/Gypsum (SpectroLith WALK2 Model)
WCAR_WALK2      .lbf/lbf                                   :        (ECS-A[1])              (6in)                   Dry Weight Fraction Carbonate (SpectroLith WALK2 Model)
WCLA_WALK2      .lbf/lbf                                   :        (ECS-A[1])              (6in)                   Dry Weight Fraction Clay (SpectroLith WALK2 Model)
WCOA_WALK2      .lbf/lbf                                   :        (ECS-A[1])              (6in)                   Dry Weight Fraction Coal (SpectroLith WALK2 Model)
WEVA_WALK2      .lbf/lbf                                   :        (ECS-A[1])              (6in)                   Dry Weight Fraction Salt (SpectroLith WALK2 Model)
WPYR_WALK2      .lbf/lbf                                   :        (ECS-A[1])              (6in)                   Dry Weight Fraction Pyrite (SpectroLith WALK2 Model)
WQFM_WALK2      .lbf/lbf                                   :        (ECS-A[1])              (6in)                   Dry Weight Fraction Quartz+Feldspar+Mica (QFM) (SpectroLith WALK2 Model)
WSID_WALK2      .lbf/lbf                                   :        (ECS-A[1])              (6in)                   Dry Weight Fraction Siderite (SpectroLith WALK2 Model)
#-------------------------------------------------------------
#            DEPT   DWAL_WALK2   DWCA_WALK2   DWFE_WALK2   DWGD_WALK2   DWHY_WALK2   DWSI_WALK2   DWSU_WALK2   DWTI_WALK2   DXFE_WALK2   WANH_WALK2   WCAR_WALK2   WCLA_WALK2   WCOA_WALK2   WEVA_WALK2   WPYR_WALK2   WQFM_WALK2   WSID_WALK2 
#                   (ECS-A[1])   (ECS-A[1])   (ECS-A[1])   (ECS-A[1])   (ECS-A[1])   (ECS-A[1])   (ECS-A[1])   (ECS-A[1])   (ECS-A[1])   (ECS-A[1])   (ECS-A[1])   (ECS-A[1])   (ECS-A[1])   (ECS-A[1])   (ECS-A[1])   (ECS-A[1])   (ECS-A[1]) 
#                                                                                                                                                                                                                                              
#                        (6in)        (6in)        (6in)        (6in)        (6in)        (6in)        (6in)        (6in)        (6in)        (6in)        (6in)        (6in)        (6in)        (6in)        (6in)        (6in)        (6in) 
~ASCII
# ...
       7428.00000      0.06965      0.02846      0.04099      3.74137      0.00109      0.31046      0.00000      0.00396      0.00000      0.00000      0.00156      0.42715      0.00000      0.00000      0.00000      0.57129      0.00000
       7428.50000      0.07434      0.00557      0.04344      3.55316      0.00109      0.32913      0.00002      0.00503      0.00000      0.00000      0.00000      0.46842      0.00000      0.00000      0.00003      0.53155      0.00000
       7429.00000      0.07495      0.00000      0.04358      2.61491      0.00117      0.33476      0.00466      0.00546      0.00000      0.00000      0.00000      0.47373      0.00000      0.00000      0.00873      0.51755      0.00000
       7429.50000      0.07396      0.00000      0.04303      2.64902      0.00132      0.33648      0.00644      0.00524      0.00000      0.00000      0.00000      0.46507      0.00000      0.00000      0.01205      0.52288      0.00000
       7430.00000      0.07573      0.00116      0.04428      2.90194      0.00119      0.33178      0.00857      0.00419      0.00000      0.00000      0.00000      0.48063      0.00000      0.00000      0.01603      0.50334      0.00000
       7430.50000      0.07335      0.01328      0.04227      4.33354      0.00103      0.32245      0.00837      0.00351      0.00000      0.00000      0.00000      0.45967      0.00000      0.00000      0.01565      0.52468      0.00000
       7431.00000      0.07048      0.01898      0.04074      5.54856      0.00064      0.32074      0.00725      0.00334      0.00000      0.00000      0.00000      0.43446      0.00000      0.00000      0.01357      0.55197      0.00000
       7431.50000      0.06958      0.02034      0.04009      6.46110      0.00022      0.32086      0.00539      0.00425      0.00000      0.00000      0.00000      0.42654      0.00000      0.00000      0.01009      0.56337      0.00000
       7432.00000      0.07139      0.02533      0.04104      6.29108      0.00000      0.31192      0.00551      0.00462      0.00000      0.00000      0.00000      0.44250      0.00000      0.00000      0.01031      0.54719      0.00000
       7432.50000      0.07700      0.01846      0.04393      7.07916      0.00000      0.31036      0.00856      0.00494      0.00000      0.00000      0.00000      0.49182      0.00000      0.00000      0.01601      0.49217      0.00000
       7433.00000      0.08050      0.01787      0.04615      7.03576      0.00000      0.30468      0.00951      0.00437      0.00000      0.00000      0.00000      0.52251      0.00000      0.00000      0.01779      0.45970      0.00000
       7433.50000      0.07810      0.02323      0.04542      8.41750      0.00000      0.30205      0.00462      0.00421      0.00000      0.00000      0.00000      0.50148      0.00000      0.00000      0.00863      0.48989      0.00000
       7434.00000      0.07256      0.04237      0.04282      8.66102      0.00000      0.28894      0.00000      0.00384      0.00000      0.00000      0.03898      0.45276      0.00000      0.00000      0.00000      0.50826      0.00000
       7434.50000      0.06481      0.05261      0.03824     11.44198      0.00000      0.29080      0.00000      0.00345      0.00000      0.00000      0.06651      0.38461      0.00000      0.00000      0.00000      0.54888      0.00000
       7435.00000      0.06181      0.04968      0.03660     11.75771      0.00000      0.29941      0.00000      0.00294      0.00000      0.00000      0.05865      0.35828      0.00000      0.00000      0.00000      0.58308      0.00000
       7435.50000      0.05985      0.03488      0.03501     11.81827      0.00000      0.32059      0.00383      0.00260      0.00000      0.00000      0.01882      0.34104      0.00000      0.00000      0.00716      0.63297      0.00000
       7436.00000      0.06091      0.02894      0.03457      8.39320      0.00000      0.32663      0.01236      0.00236      0.00000      0.00000      0.00285      0.35034      0.00000      0.00000      0.02313      0.62367      0.00000
       7436.50000      0.06153      0.02559      0.03491      6.07864      0.00000      0.32946      0.01263      0.00238      0.00000      0.00000      0.00000      0.35582      0.00000      0.00000      0.02363      0.62055      0.00000
       7437.00000      0.06277      0.02871      0.03566      4.08160      0.00000      0.32359      0.01270      0.00237      0.00000      0.00000      0.00224      0.36670      0.00000      0.00000      0.02375      0.60730      0.00000
       7437.50000      0.06209      0.01924      0.03612      4.05360      0.00015      0.33506      0.00557      0.00265      0.00000      0.00000      0.00000      0.36073      0.00000      0.00000      0.01041      0.62886      0.00000
       7438.00000      0.06007      0.01519      0.03527      4.79341      0.00000      0.34306      0.00174      0.00302      0.00000      0.00000      0.00000      0.34301      0.00000      0.00000      0.00325      0.65374      0.00000
       7438.50000      0.05516      0.01458      0.03250      5.15004      0.00000      0.35239      0.00000      0.00303      0.00000      0.00000      0.00000      0.29980      0.00000      0.00000      0.00000      0.70020      0.00000
       7439.00000      0.05340      0.02165      0.03147      5.39259      0.00000      0.34727      0.00000      0.00294      0.00000      0.00000      0.00000      0.28434      0.00000      0.00000      0.00000      0.71566      0.00000
       7439.50000      0.05101      0.02165      0.03020      5.18255      0.00002      0.35139      0.00000      0.00245      0.00000      0.00000      0.00000      0.26335      0.00000      0.00000      0.00000      0.73665      0.00000
       7440.00000      0.05430      0.01243      0.03209      6.04923      0.00008      0.35634      0.00000      0.00274      0.00000      0.00000      0.00000      0.29223      0.00000      0.00000      0.00000      0.70777      0.00000
       7440.50000      0.05897      0.00430      0.03422      7.07731      0.00013      0.35811      0.00557      0.00304      0.00000      0.00000      0.00000      0.33328      0.00000      0.00000      0.01042      0.65631      0.00000
       7441.00000      0.06282      0.00887      0.03559      9.27096      0.00000      0.34675      0.01495      0.00350      0.00000      0.00000      0.00000      0.36715      0.00000      0.00000      0.02796      0.60488      0.00000
       7441.50000      0.06201      0.01869      0.03427     10.14507      0.00000      0.33750      0.01844      0.00331      0.00000      0.00000      0.00000      0.36006      0.00000      0.00000      0.03451      0.60543      0.00000
       7442.00000      0.05454      0.03032      0.03014     10.41165      0.00000      0.33698      0.01453      0.00298      0.00000      0.00000      0.00655      0.29434      0.00000      0.00000      0.02719      0.67193      0.00000
       7442.50000      0.05009      0.03254      0.02792      8.24495      0.00005      0.34192      0.01116      0.00290      0.00000      0.00000      0.01254      0.25527      0.00000      0.00000      0.02088      0.71132      0.00000
       7443.00000      0.05106      0.03230      0.02837      6.85399      0.00011      0.34059      0.00957      0.00384      0.00000      0.00000      0.01190      0.26377      0.00000      0.00000      0.01790      0.70643      0.00000
       7443.50000      0.05696      0.03094      0.03166      6.64303      0.00016      0.33186      0.00971      0.00459      0.00000      0.00000      0.00824      0.31561      0.00000      0.00000      0.01817      0.65798      0.00000
       7444.00000      0.05998      0.03240      0.03352      7.68449      0.00042      0.32472      0.00866      0.00493      0.00000      0.00000      0.01215      0.34217      0.00000      0.00000      0.01620      0.62949      0.00000
       7444.50000      0.05866      0.03199      0.03299      7.21600      0.00058      0.32730      0.00903      0.00409      0.00000      0.00000      0.01105      0.33061      0.00000      0.00000      0.01690      0.64144      0.00000
