~VERSION INFORMATION 
VERS  .    2.0                                     :CWLS Log ASCII Standard - VERSION 2.0
WRAP  .    NO                                      :One Line per Depth step
PROD  .    Schlumberger Technology Corp.           :LAS Producer
PROG  .    Horizon LASWriter 3.1.9755.0            :LAS Program name and version
SOURCE.    Composite 1 (2-Log[4]/Up + 2-Repeat[3]/Up):Run&Pass Information
CREA  .    10/26/2012                              :LAS Creation date {MM/DD/YYYY}
#--------------------------------------------------
~WELL INFORMATION 
#MNEM           .UNIT                      DATA            :DESCRIPTION
#----            ------          --------------            -----------------------------
STRT            .ft                  6000.00000            :START DEPTH
STOP            .ft                  8700.50000            :STOP DEPTH
STEP            .ft                         0.5            :STEP
NULL            .                       -999.25            :NULL VALUE
COMP            .                         SHELL            :COMPANY
WELL            .                DAWSON CREEK 1 25         :WELL NAME
FLD             .                WILLIAMS FORK UNIT        :FIELD NAME
RIGN            .                    SAVANA 650            :Rig Name
RIGTYP          .                          LAND            :Rig Type
SON             .                    BXV3-00069            :Service Order Number
SRVC            .                  Schlumberger            :SERVICE COMPANY
DATE            .                    10/26/2012            :LOG DATE(Composite Date for Composite LAP) (MM/DD/YYYY)
CLAB            .                       County:            :County Label
CNTY            .                         ROUTT            :COUNTY
SLAB            .                        State:            :State/Province Label
STAT            .                      COLORADO            :STATE or PROVINCE
PROV            .                      COLORADO            :STATE or PROVINCE
CTRY            .                           USA            :COUNTRY
CONT_REGION     .                    N. America            :Continent Region
SECT            .                            25            :Section
TOWN            .                            4N            :Township
RANG            .                           88W            :Range
API             .                  051076242000            :API NUMBER
UWI             .                                          :UNIQUE WELL ID
LUL             .                        VERNAL            :Logging Unit Location
LUN             .                          2379            :Logging Unit Number
LOC             .                SHL: 2032' FNL & 1639' FWL:FIELD LOCATION
FL1             .                BHL: 971' FNL & 2022' FEL :Field Location Line 1
FL2             .                                          :Field Location Line 2
LATI            .deg                  40.450486            :LATITUDE
LONG            .deg                 -107.21337            :LONGITUDE
PDAT            .                            GL            :Local Permanent Datum
LMF             .                            KB            :Logging Measured From
APD             .ft                    14.30000            :Elevation of Depth Reference (LMF) Above Permanent Datum
EPD             .ft                  6658.19984            :Elevation of Permanent Datum (PDAT) above Mean Sea Level
EKB             .ft                    14.30000            :Elevation of Kelly Bushing Above Permanent Datum
EDF             .ft                    14.30000            :Elevation of Drill Floor Above Permanent Datum
EGL             .ft                     0.00000            :Elevation of Ground Level Above Permanent Datum
ECF             .ft                     -999.25            :Elevation of Casing Flange above Permanent Datum
#--------------------------------------------------
~CURVE INFORMATION
#MNEM           .UNIT                  API CODE            :DESCRIPTION
#----            ------          --------------            -----------------------------
DEPT            .ft                                        :                                                        Depth Index
DWAL_WALK2      .lbf/lbf                                   :        (ECS-A[1])              (6in)                   Dry Weight Fraction Pseudo Aluminum (SpectroLith WALK2 Model)
DWCA_WALK2      .lbf/lbf                                   :        (ECS-A[1])              (6in)                   Dry Weight Fraction Calcium (SpectroLith WALK2 Model)
DWFE_WALK2      .lbf/lbf                                   :        (ECS-A[1])              (6in)                   Dry Weight Fraction Iron + 0.14 Aluminum (SpectroLith WALK2 Model)
DWGD_WALK2      .ppm                                       :        (ECS-A[1])              (6in)                   Dry Weight Fraction Gadolinium (SpectroLith WALK2 Model)
DWHY_WALK2      .lbf/lbf                                   :        (ECS-A[1])              (6in)                   Dry Weight Fraction Hydrogen Associated with Coal (SpectroLith WALK2 Model)
DWSI_WALK2      .lbf/lbf                                   :        (ECS-A[1])              (6in)                   Dry Weight Fraction Silicon (SpectroLith WALK2 Model)
DWSU_WALK2      .lbf/lbf                                   :        (ECS-A[1])              (6in)                   Dry Weight Fraction Sulfur (SpectroLith WALK2 Model)
DWTI_WALK2      .lbf/lbf                                   :        (ECS-A[1])              (6in)                   Dry Weight Fraction Titanium (SpectroLith WALK2 Model)
DXFE_WALK2      .lbf/lbf                                   :        (ECS-A[1])              (6in)                   Dry Weight Fraction Excess Iron (SpectroLith WALK2 Model)
WANH_WALK2      .lbf/lbf                                   :        (ECS-A[1])              (6in)                   Dry Weight Fraction Anhydrite/Gypsum (SpectroLith WALK2 Model)
WCAR_WALK2      .lbf/lbf                                   :        (ECS-A[1])              (6in)                   Dry Weight Fraction Carbonate (SpectroLith WALK2 Model)
WCLA_WALK2      .lbf/lbf                                   :        (ECS-A[1])              (6in)                   Dry Weight Fraction Clay (SpectroLith WALK2 Model)
WCOA_WALK2      .lbf/lbf                                   :        (ECS-A[1])              (6in)                   Dry Weight Fraction Coal (SpectroLith WALK2 Model)
WEVA_WALK2      .lbf/lbf                                   :        (ECS-A[1])              (6in)                   Dry Weight Fraction Salt (SpectroLith WALK2 Model)
WPYR_WALK2      .lbf/lbf                                   :        (ECS-A[1])              (6in)                   Dry Weight Fraction Pyrite (SpectroLith WALK2 Model)
WQFM_WALK2      .lbf/lbf                                   :        (ECS-A[1])              (6in)                   Dry Weight Fraction Quartz+Feldspar+Mica (QFM) (SpectroLith WALK2 Model)
WSID_WALK2      .lbf/lbf                                   :        (ECS-A[1])              (6in)                   Dry Weight Fraction Siderite (SpectroLith WALK2 Model)
#-------------------------------------------------------------
#            DEPT   DWAL_WALK2   DWCA_WALK2   DWFE_WALK2   DWGD_WALK2   DWHY_WALK2   DWSI_WALK2   DWSU_WALK2   DWTI_WALK2   DXFE_WALK2   WANH_WALK2   WCAR_WALK2   WCLA_WALK2   WCOA_WALK2   WEVA_WALK2   WPYR_WALK2   WQFM_WALK2   WSID_WALK2 
#                   (ECS-A[1])   (ECS-A[1])   (ECS-A[1])   (ECS-A[1])   (ECS-A[1])   (ECS-A[1])   (ECS-A[1])   (ECS-A[1])   (ECS-A[1])   (ECS-A[1])   (ECS-A[1])   (ECS-A[1])   (ECS-A[1])   (ECS-A[1])   (ECS-A[1])   (ECS-A[1])   (ECS-A[1]) 
#                                                                                                                                                                                                                                              
#                        (6in)        (6in)        (6in)        (6in)        (6in)        (6in)        (6in)        (6in)        (6in)        (6in)        (6in)        (6in)        (6in)        (6in)        (6in)        (6in)        (6in) 
~ASCII
# ...
       8686.00000      0.08406      0.00000      0.04912      5.21508      0.00000      0.31839      0.00000      0.00570      0.00000      0.00000      0.00000      0.55383      0.00000      0.00000      0.00000      0.44617      0.00000
       8686.50000      0.08149      0.00754      0.04771      4.22646      0.00000      0.31406      0.00000      0.00528      0.00000      0.00000      0.00000      0.53128      0.00000      0.00000      0.00000      0.46872      0.00000
       8687.00000      0.07773      0.00630      0.04561      4.23492      0.00004      0.32209      0.00000      0.00479      0.00000      0.00000      0.00000      0.49822      0.00000      0.00000      0.00000      0.50178      0.00000
       8687.50000      0.07456      0.00000      0.04359      7.36065      0.00041      0.33522      0.00000      0.00499      0.00000      0.00000      0.00000      0.47036      0.00000      0.00000      0.00000      0.52964      0.00000
       8688.00000      0.07498      0.00000      0.04353      9.75248      0.00107      0.33477      0.00000      0.00581      0.00000      0.00000      0.00000      0.47399      0.00000      0.00000      0.00000      0.52601      0.00000
       8688.50000      0.07875      0.00000      0.04562     10.88760      0.00090      0.32818      0.00000      0.00636      0.00000      0.00000      0.00000      0.50714      0.00000      0.00000      0.00000      0.49286      0.00000
       8689.00000      0.08169      0.01546      0.04623      8.36750      0.00061      0.30595      0.00979      0.00594      0.00000      0.00000      0.00000      0.53304      0.00000      0.00000      0.01832      0.44863      0.00000
       8689.50000      0.08186      0.01416      0.04605      5.12037      0.00025      0.30743      0.01566      0.00537      0.00000      0.00000      0.00000      0.53449      0.00000      0.00000      0.02931      0.43620      0.00000
       8690.00000      0.07744      0.01012      0.04447      4.19257      0.00027      0.31906      0.00600      0.00514      0.00000      0.00000      0.00000      0.49564      0.00000      0.00000      0.01122      0.49314      0.00000
       8690.50000      0.07441      0.00278      0.04342      6.50069      0.00025      0.33232      0.00000      0.00519      0.00000      0.00000      0.00000      0.46903      0.00000      0.00000      0.00000      0.53097      0.00000
       8691.00000      0.07474      0.01541      0.04349      9.98395      0.00016      0.31711      0.00000      0.00553      0.00000      0.00000      0.00000      0.47190      0.00000      0.00000      0.00000      0.52810      0.00000
       8691.50000      0.08017      0.02309      0.04664     10.21186      0.00010      0.29853      0.00000      0.00597      0.00000      0.00000      0.00000      0.51964      0.00000      0.00000      0.00000      0.48036      0.00000
       8692.00000      0.08145      0.03387      0.04745      7.83097      0.00007      0.28362      0.00000      0.00589      0.00000      0.00000      0.01611      0.53090      0.00000      0.00000      0.00000      0.45299      0.00000
       8692.50000      0.07951      0.04014      0.04650      6.15334      0.00004      0.27957      0.00000      0.00528      0.00000      0.00000      0.03297      0.51385      0.00000      0.00000      0.00000      0.45318      0.00000
       8693.00000      0.07217      0.05668      0.04247      5.80229      0.00018      0.27305      0.00000      0.00412      0.00000      0.00000      0.07747      0.44930      0.00000      0.00000      0.00000      0.47323      0.00000
       8693.50000      0.07135      0.06544      0.04232      4.85685      0.00046      0.26397      0.00009      0.00318      0.00000      0.00000      0.10102      0.44212      0.00000      0.00000      0.00016      0.45669      0.00000
       8694.00000      0.07283      0.07478      0.04203      3.60369      0.00058      0.25151      0.01078      0.00246      0.00000      0.00000      0.12615      0.45512      0.00000      0.00000      0.02017      0.39855      0.00000
       8694.50000      0.07948      0.06248      0.04389      3.67272      0.00026      0.25596      0.02568      0.00284      0.00000      0.00000      0.09306      0.51359      0.00000      0.00000      0.04805      0.34530      0.00000
       8695.00000      0.07722      0.05281      0.04261      6.05429      0.00000      0.27121      0.02305      0.00350      0.00000      0.00000      0.06707      0.49372      0.00000      0.00000      0.04312      0.39609      0.00000
       8695.50000      0.07657      0.03905      0.04220      8.80217      0.00000      0.28845      0.02167      0.00404      0.00000      0.00000      0.03005      0.48805      0.00000      0.00000      0.04053      0.44137      0.00000
       8696.00000      0.07129      0.04162      0.04014      8.80403      0.00000      0.29388      0.01560      0.00320      0.00000      0.00000      0.03696      0.44159      0.00000      0.00000      0.02919      0.49226      0.00000
       8696.50000      0.07288      0.03750      0.04084      8.47658      0.00000      0.29608      0.01861      0.00282      0.00000      0.00000      0.02589      0.45554      0.00000      0.00000      0.03482      0.48376      0.00000
       8697.00000      0.07366      0.03071      0.04180      8.08627      0.00000      0.30215      0.01507      0.00283      0.00000      0.00000      0.00760      0.46245      0.00000      0.00000      0.02820      0.50174      0.00000
       8697.50000      0.07936      0.01678      0.04489      9.49090      0.00000      0.30852      0.01576      0.00402      0.00000      0.00000      0.00000      0.51258      0.00000      0.00000      0.02948      0.45795      0.00000
       8698.00000      0.07942      0.01113      0.04542      8.70015      0.00028      0.31455      0.01233      0.00417      0.00000      0.00000      0.00000      0.51304      0.00000      0.00000      0.02307      0.46389      0.00000
       8698.50000      0.07898      0.00676      0.04535      7.46661      0.00057      0.32025      0.01403      0.00440      0.00000      0.00000      0.00000      0.50923      0.00000      0.00000      0.02624      0.46453      0.00000
       8699.00000      0.07578      0.01549      0.04329      5.60482      0.00079      0.31592      0.01040      0.00400      0.00000      0.00000      0.00000      0.48109      0.00000      0.00000      0.01946      0.49945      0.00000
       8699.50000      0.07501      0.01755      0.04299      5.41735      0.00076      0.31474      0.00818      0.00435      0.00000      0.00000      0.00000      0.47432      0.00000      0.00000      0.01531      0.51037      0.00000
       8700.00000      0.07507      0.02663      0.04351      4.60331      0.00060      0.30359      0.00589      0.00391      0.00000      0.00000      0.00000      0.47483      0.00000      0.00000      0.01102      0.51415      0.00000
       8700.50000      0.07681      0.02748      0.04471      4.18791      0.00045      0.29934      0.00561      0.00365      0.00000      0.00000      0.00000      0.49009      0.00000      0.00000      0.01050      0.49941      0.00000
