~VERSION INFORMATION 
VERS  .    2.0                                     :CWLS Log ASCII Standard - VERSION 2.0
WRAP  .    NO                                      :One Line per Depth step
PROD  .    Schlumberger Technology Corp.           :LAS Producer
PROG  .    Horizon LASWriter 3.1.9755.0            :LAS Program name and version
SOURCE.    Composite 1 (2-Log[4]/Up + 2-Repeat[3]/Up):Run&Pass Information
CREA  .    10/26/2012                              :LAS Creation date {MM/DD/YYYY}
#--------------------------------------------------
~WELL INFORMATION 
#MNEM           .UNIT                      DATA            :DESCRIPTION
#----            ------          --------------            -----------------------------
STRT            .ft                  6000.00000            :START DEPTH
STOP            .ft                  8700.50000            :STOP DEPTH
STEP            .ft                         0.5            :STEP
NULL            .                       -999.25            :NULL VALUE
COMP            .                         SHELL            :COMPANY
WELL            .                DAWSON CREEK 1 25         :WELL NAME
FLD             .                WILLIAMS FORK UNIT        :FIELD NAME
RIGN            .                    SAVANA 650            :Rig Name
RIGTYP          .                          LAND            :Rig Type
SON             .                    BXV3-00069            :Service Order Number
SRVC            .                  Schlumberger            :SERVICE COMPANY
DATE            .                    10/26/2012            :LOG DATE(Composite Date for Composite LAP) (MM/DD/YYYY)
CLAB            .                       County:            :County Label
CNTY            .                         ROUTT            :COUNTY
SLAB            .                        State:            :State/Province Label
STAT            .                      COLORADO            :STATE or PROVINCE
PROV            .                      COLORADO            :STATE or PROVINCE
CTRY            .                           USA            :COUNTRY
CONT_REGION     .                    N. America            :Continent Region
SECT            .                            25            :Section
TOWN            .                            4N            :Township
RANG            .                           88W            :Range
API             .                  051076242000            :API NUMBER
UWI             .                                          :UNIQUE WELL ID
LUL             .                        VERNAL            :Logging Unit Location
LUN             .                          2379            :Logging Unit Number
LOC             .                SHL: 2032' FNL & 1639' FWL:FIELD LOCATION
FL1             .                BHL: 971' FNL & 2022' FEL :Field Location Line 1
FL2             .                                          :Field Location Line 2
LATI            .deg                  40.450486            :LATITUDE
LONG            .deg                 -107.21337            :LONGITUDE
PDAT            .                            GL            :Local Permanent Datum
LMF             .                            KB            :Logging Measured From
APD             .ft                    14.30000            :Elevation of Depth Reference (LMF) Above Permanent Datum
EPD             .ft                  6658.19984            :Elevation of Permanent Datum (PDAT) above Mean Sea Level
EKB             .ft                    14.30000            :Elevation of Kelly Bushing Above Permanent Datum
EDF             .ft                    14.30000            :Elevation of Drill Floor Above Permanent Datum
EGL             .ft                     0.00000            :Elevation of Ground Level Above Permanent Datum
ECF             .ft                     -999.25            :Elevation of Casing Flange above Permanent Datum
#--------------------------------------------------
~CURVE INFORMATION
#MNEM           .UNIT                  API CODE            :DESCRIPTION
#----            ------          --------------            -----------------------------
DEPT            .ft                                        :                                                        Depth Index
DWAL_WALK2      .lbf/lbf                                   :        (ECS-A[1])              (6in)                   Dry Weight Fraction Pseudo Aluminum (SpectroLith WALK2 Model)
DWCA_WALK2      .lbf/lbf                                   :        (ECS-A[1])              (6in)                   Dry Weight Fraction Calcium (SpectroLith WALK2 Model)
DWFE_WALK2      .lbf/lbf                                   :        (ECS-A[1])              (6in)                   Dry Weight Fraction Iron + 0.14 Aluminum (SpectroLith WALK2 Model)
DWGD_WALK2      .ppm                                       :        (ECS-A[1])              (6in)                   Dry Weight Fraction Gadolinium (SpectroLith WALK2 Model)
DWHY_WALK2      .lbf/lbf                                   :        (ECS-A[1])              (6in)                   Dry Weight Fraction Hydrogen Associated with Coal (SpectroLith WALK2 Model)
DWSI_WALK2      .lbf/lbf                                   :        (ECS-A[1])              (6in)                   Dry Weight Fraction Silicon (SpectroLith WALK2 Model)
DWSU_WALK2      .lbf/lbf                                   :        (ECS-A[1])              (6in)                   Dry Weight Fraction Sulfur (SpectroLith WALK2 Model)
DWTI_WALK2      .lbf/lbf                                   :        (ECS-A[1])              (6in)                   Dry Weight Fraction Titanium (SpectroLith WALK2 Model)
DXFE_WALK2      .lbf/lbf                                   :        (ECS-A[1])              (6in)                   Dry Weight Fraction Excess Iron (SpectroLith WALK2 Model)
WANH_WALK2      .lbf/lbf                                   :        (ECS-A[1])              (6in)                   Dry Weight Fraction Anhydrite/Gypsum (SpectroLith WALK2 Model)
WCAR_WALK2      .lbf/lbf                                   :        (ECS-A[1])              (6in)                   Dry Weight Fraction Carbonate (SpectroLith WALK2 Model)
WCLA_WALK2      .lbf/lbf                                   :        (ECS-A[1])              (6in)                   Dry Weight Fraction Clay (SpectroLith WALK2 Model)
WCOA_WALK2      .lbf/lbf                                   :        (ECS-A[1])              (6in)                   Dry Weight Fraction Coal (SpectroLith WALK2 Model)
WEVA_WALK2      .lbf/lbf                                   :        (ECS-A[1])              (6in)                   Dry Weight Fraction Salt (SpectroLith WALK2 Model)
WPYR_WALK2      .lbf/lbf                                   :        (ECS-A[1])              (6in)                   Dry Weight Fraction Pyrite (SpectroLith WALK2 Model)
WQFM_WALK2      .lbf/lbf                                   :        (ECS-A[1])              (6in)                   Dry Weight Fraction Quartz+Feldspar+Mica (QFM) (SpectroLith WALK2 Model)
WSID_WALK2      .lbf/lbf                                   :        (ECS-A[1])              (6in)                   Dry Weight Fraction Siderite (SpectroLith WALK2 Model)
#-------------------------------------------------------------
#            DEPT   DWAL_WALK2   DWCA_WALK2   DWFE_WALK2   DWGD_WALK2   DWHY_WALK2   DWSI_WALK2   DWSU_WALK2   DWTI_WALK2   DXFE_WALK2   WANH_WALK2   WCAR_WALK2   WCLA_WALK2   WCOA_WALK2   WEVA_WALK2   WPYR_WALK2   WQFM_WALK2   WSID_WALK2 
#                   (ECS-A[1])   (ECS-A[1])   (ECS-A[1])   (ECS-A[1])   (ECS-A[1])   (ECS-A[1])   (ECS-A[1])   (ECS-A[1])   (ECS-A[1])   (ECS-A[1])   (ECS-A[1])   (ECS-A[1])   (ECS-A[1])   (ECS-A[1])   (ECS-A[1])   (ECS-A[1])   (ECS-A[1]) 
#                                                                                                                                                                                                                                              
#                        (6in)        (6in)        (6in)        (6in)        (6in)        (6in)        (6in)        (6in)        (6in)        (6in)        (6in)        (6in)        (6in)        (6in)        (6in)        (6in)        (6in) 
~ASCII
       6000.00000      0.10590      0.00000      0.07999     14.18336      0.00092      0.26281      0.01261      0.00868      0.01542      0.00000      0.00000      0.74577      0.00000      0.00000      0.02359      0.22139      0.00925
       6000.50000      0.10839      0.00000      0.09682     11.69321      0.00125      0.24408      0.01879      0.00679      0.03072      0.00000      0.00000      0.76771      0.00000      0.00000      0.03516      0.16722      0.02992
       6001.00000      0.11676      0.00000      0.09914      8.25161      0.00117      0.23163      0.00585      0.00539      0.02794      0.00000      0.00000      0.84125      0.00000      0.00000      0.01094      0.10021      0.04761
       6001.50000      0.12147      0.00000      0.08316      5.42282      0.00131      0.24070      0.00000      0.00432      0.00909      0.00000      0.00000      0.88270      0.00000      0.00000      0.00000      0.09837      0.01893
       6002.00000      0.11824      0.00000      0.07056      8.68014      0.00054      0.25640      0.00000      0.00431      0.00000      0.00000      0.00000      0.85422      0.00000      0.00000      0.00000      0.14578      0.00000
       6002.50000      0.10589      0.00000      0.06298     12.12230      0.00033      0.27863      0.00000      0.00432      0.00000      0.00000      0.00000      0.74575      0.00000      0.00000      0.00000      0.25425      0.00000
       6003.00000      0.11036      0.00000      0.06054     12.16526      0.00033      0.27542      0.00000      0.00554      0.00000      0.00000      0.00000      0.78497      0.00000      0.00000      0.00000      0.21503      0.00000
       6003.50000      0.10873      0.00000      0.06255     12.09887      0.00077      0.27555      0.00000      0.00685      0.00000      0.00000      0.00000      0.77065      0.00000      0.00000      0.00000      0.22935      0.00000
       6004.00000      0.10585      0.00000      0.06383     15.52453      0.00082      0.27790      0.00000      0.00857      0.00000      0.00000      0.00000      0.74534      0.00000      0.00000      0.00000      0.25466      0.00000
       6004.50000      0.10714      0.02438      0.06723     20.32100      0.00026      0.24469      0.00000      0.00805      0.00190      0.00000      0.00000      0.75666      0.00000      0.00000      0.00000      0.23937      0.00397
       6005.00000      0.10971      0.03187      0.07172     22.74336      0.00000      0.22861      0.00000      0.00742      0.00483      0.00000      0.01073      0.77926      0.00000      0.00000      0.00000      0.19996      0.01005
       6005.50000      0.11513      0.00000      0.08388     20.16197      0.00000      0.24782      0.00394      0.00628      0.01368      0.00000      0.00000      0.82696      0.00000      0.00000      0.00737      0.14432      0.02135
       6006.00000      0.11059      0.00000      0.07290     11.84830      0.00000      0.26363      0.01483      0.00526      0.00547      0.00000      0.00000      0.78704      0.00000      0.00000      0.02775      0.18521      0.00000
       6006.50000      0.11030      0.00000      0.06622      8.49920      0.00051      0.27020      0.00930      0.00525      0.00000      0.00000      0.00000      0.78450      0.00000      0.00000      0.01741      0.19810      0.00000
       6007.00000      0.11185      0.00000      0.06791      6.95336      0.00092      0.26672      0.00000      0.00661      0.00000      0.00000      0.00000      0.79809      0.00000      0.00000      0.00000      0.20191      0.00000
       6007.50000      0.11023      0.00000      0.07268      9.34464      0.00077      0.26428      0.00000      0.00814      0.00547      0.00000      0.00000      0.78385      0.00000      0.00000      0.00000      0.20476      0.01139
       6008.00000      0.11040      0.00000      0.07415      7.90881      0.00028      0.26270      0.00162      0.00796      0.00683      0.00000      0.00000      0.78537      0.00000      0.00000      0.00303      0.20031      0.01129
       6008.50000      0.11018      0.00000      0.06559      8.87812      0.00010      0.27094      0.00524      0.00592      0.00000      0.00000      0.00000      0.78343      0.00000      0.00000      0.00981      0.20676      0.00000
       6009.00000      0.09832      0.00000      0.05829      9.65704      0.00032      0.29232      0.01002      0.00412      0.00000      0.00000      0.00000      0.67917      0.00000      0.00000      0.01874      0.30208      0.00000
       6009.50000      0.09423      0.00000      0.05592     12.08359      0.00032      0.29956      0.00986      0.00381      0.00000      0.00000      0.00000      0.64324      0.00000      0.00000      0.01845      0.33830      0.00000
       6010.00000      0.09894      0.00025      0.05814     14.28720      0.00000      0.29141      0.00252      0.00566      0.00000      0.00000      0.00000      0.68462      0.00000      0.00000      0.00472      0.31066      0.00000
       6010.50000      0.10608      0.00000      0.06425     14.59382      0.00000      0.27722      0.00000      0.00855      0.00000      0.00000      0.00000      0.74740      0.00000      0.00000      0.00000      0.25260      0.00000
       6011.00000      0.10328      0.00000      0.07067     11.59713      0.00000      0.27470      0.00000      0.01125      0.00769      0.00000      0.00000      0.72279      0.00000      0.00000      0.00000      0.26118      0.01602
       6011.50000      0.09932      0.00000      0.06954      6.47004      0.00079      0.28062      0.00815      0.01162      0.00897      0.00000      0.00000      0.68799      0.00000      0.00000      0.01525      0.29285      0.00391
       6012.00000      0.09347      0.00000      0.06169      2.88164      0.00068      0.29511      0.02379      0.01021      0.00470      0.00000      0.00000      0.63659      0.00000      0.00000      0.04450      0.31891      0.00000
       6012.50000      0.09233      0.00000      0.05540      7.17087      0.00004      0.30238      0.02647      0.00832      0.00000      0.00000      0.00000      0.62649      0.00000      0.00000      0.04953      0.32398      0.00000
       6013.00000      0.09915      0.00000      0.05407     12.07688      0.00000      0.29522      0.01669      0.00577      0.00000      0.00000      0.00000      0.68646      0.00000      0.00000      0.03122      0.28232      0.00000
       6013.50000      0.08213      0.02829      0.04852     15.68214      0.00000      0.28830      0.00000      0.00419      0.00000      0.00000      0.00110      0.53688      0.00000      0.00000      0.00000      0.46202      0.00000
       6014.00000      0.07275      0.03529      0.04307     12.17955      0.00015      0.29673      0.00000      0.00348      0.00000      0.00000      0.01994      0.45446      0.00000      0.00000      0.00000      0.52561      0.00000
       6014.50000      0.07761      0.00530      0.04524      9.24416      0.00085      0.32375      0.00000      0.00554      0.00000      0.00000      0.00000      0.49712      0.00000      0.00000      0.00000      0.50288      0.00000
       6015.00000      0.09122      0.00000      0.05269      8.41087      0.00020      0.30626      0.00000      0.00776      0.00000      0.00000      0.00000      0.61676      0.00000      0.00000      0.00000      0.38324      0.00000
       6015.50000      0.09924      0.00000      0.06104     14.10232      0.00000      0.28862      0.00000      0.01130      0.00053      0.00000      0.00000      0.68731      0.00000      0.00000      0.00000      0.31159      0.00110
       6016.00000      0.09887      0.00000      0.06283     19.40873      0.00000      0.28741      0.00000      0.01199      0.00255      0.00000      0.00000      0.68402      0.00000      0.00000      0.00000      0.31067      0.00531
       6016.50000      0.09969      0.00000      0.05835     21.08464      0.00000      0.29058      0.00000      0.01023      0.00000      0.00000      0.00000      0.69122      0.00000      0.00000      0.00000      0.30878      0.00000
