~VERSION INFORMATION 
VERS  .    2.0                                     :CWLS Log ASCII Standard - VERSION 2.0
WRAP  .    NO                                      :One Line per Depth step
PROD  .    Schlumberger Technology Corp.           :LAS Producer
PROG  .    Horizon LASWriter 3.1.9755.0            :LAS Program name and version
SOURCE.    Composite 1 (2-Log[4]/Up + 2-Repeat[3]/Up):Run&Pass Information
CREA  .    10/26/2012                              :LAS Creation date {MM/DD/YYYY}
#--------------------------------------------------
~WELL INFORMATION 
#MNEM           .UNIT                      DATA            :DESCRIPTION
#----            ------          --------------            -----------------------------
STRT            .ft                  6000.00000            :START DEPTH
STOP            .ft                  8700.50000            :STOP DEPTH
STEP            .ft                         0.5            :STEP
NULL            .                       -999.25            :NULL VALUE
COMP            .                         SHELL            :COMPANY
WELL            .                DAWSON CREEK 1 25         :WELL NAME
FLD             .                WILLIAMS FORK UNIT        :FIELD NAME
RIGN            .                    SAVANA 650            :Rig Name
RIGTYP          .                          LAND            :Rig Type
SON             .                    BXV3-00069            :Service Order Number
SRVC            .                  Schlumberger            :SERVICE COMPANY
DATE            .                    10/26/2012            :LOG DATE(Composite Date for Composite LAP) (MM/DD/YYYY)
CLAB            .                       County:            :County Label
CNTY            .                         ROUTT            :COUNTY
SLAB            .                        State:            :State/Province Label
STAT            .                      COLORADO            :STATE or PROVINCE
PROV            .                      COLORADO            :STATE or PROVINCE
CTRY            .                           USA            :COUNTRY
CONT_REGION     .                    N. America            :Continent Region
SECT            .                            25            :Section
TOWN            .                            4N            :Township
RANG            .                           88W            :Range
API             .                  051076242000            :API NUMBER
UWI             .                                          :UNIQUE WELL ID
LUL             .                        VERNAL            :Logging Unit Location
LUN             .                          2379            :Logging Unit Number
LOC             .                SHL: 2032' FNL & 1639' FWL:FIELD LOCATION
FL1             .                BHL: 971' FNL & 2022' FEL :Field Location Line 1
FL2             .                                          :Field Location Line 2
LATI            .deg                  40.450486            :LATITUDE
LONG            .deg                 -107.21337            :LONGITUDE
PDAT            .                            GL            :Local Permanent Datum
LMF             .                            KB            :Logging Measured From
APD             .ft                    14.30000            :Elevation of Depth Reference (LMF) Above Permanent Datum
EPD             .ft                  6658.19984            :Elevation of Permanent Datum (PDAT) above Mean Sea Level
EKB             .ft                    14.30000            :Elevation of Kelly Bushing Above Permanent Datum
EDF             .ft                    14.30000            :Elevation of Drill Floor Above Permanent Datum
EGL             .ft                     0.00000            :Elevation of Ground Level Above Permanent Datum
ECF             .ft                     -999.25            :Elevation of Casing Flange above Permanent Datum
#--------------------------------------------------
~CURVE INFORMATION
#MNEM           .UNIT                  API CODE            :DESCRIPTION
#----            ------          --------------            -----------------------------
DEPT            .ft                                        :                                                        Depth Index
DWAL_WALK2      .lbf/lbf                                   :        (ECS-A[1])              (6in)                   Dry Weight Fraction Pseudo Aluminum (SpectroLith WALK2 Model)
DWCA_WALK2      .lbf/lbf                                   :        (ECS-A[1])              (6in)                   Dry Weight Fraction Calcium (SpectroLith WALK2 Model)
DWFE_WALK2      .lbf/lbf                                   :        (ECS-A[1])              (6in)                   Dry Weight Fraction Iron + 0.14 Aluminum (SpectroLith WALK2 Model)
DWGD_WALK2      .ppm                                       :        (ECS-A[1])              (6in)                   Dry Weight Fraction Gadolinium (SpectroLith WALK2 Model)
DWHY_WALK2      .lbf/lbf                                   :        (ECS-A[1])              (6in)                   Dry Weight Fraction Hydrogen Associated with Coal (SpectroLith WALK2 Model)
DWSI_WALK2      .lbf/lbf                                   :        (ECS-A[1])              (6in)                   Dry Weight Fraction Silicon (SpectroLith WALK2 Model)
DWSU_WALK2      .lbf/lbf                                   :        (ECS-A[1])              (6in)                   Dry Weight Fraction Sulfur (SpectroLith WALK2 Model)
DWTI_WALK2      .lbf/lbf                                   :        (ECS-A[1])              (6in)                   Dry Weight Fraction Titanium (SpectroLith WALK2 Model)
DXFE_WALK2      .lbf/lbf                                   :        (ECS-A[1])              (6in)                   Dry Weight Fraction Excess Iron (SpectroLith WALK2 Model)
WANH_WALK2      .lbf/lbf                                   :        (ECS-A[1])              (6in)                   Dry Weight Fraction Anhydrite/Gypsum (SpectroLith WALK2 Model)
WCAR_WALK2      .lbf/lbf                                   :        (ECS-A[1])              (6in)                   Dry Weight Fraction Carbonate (SpectroLith WALK2 Model)
WCLA_WALK2      .lbf/lbf                                   :        (ECS-A[1])              (6in)                   Dry Weight Fraction Clay (SpectroLith WALK2 Model)
WCOA_WALK2      .lbf/lbf                                   :        (ECS-A[1])              (6in)                   Dry Weight Fraction Coal (SpectroLith WALK2 Model)
WEVA_WALK2      .lbf/lbf                                   :        (ECS-A[1])              (6in)                   Dry Weight Fraction Salt (SpectroLith WALK2 Model)
WPYR_WALK2      .lbf/lbf                                   :        (ECS-A[1])              (6in)                   Dry Weight Fraction Pyrite (SpectroLith WALK2 Model)
WQFM_WALK2      .lbf/lbf                                   :        (ECS-A[1])              (6in)                   Dry Weight Fraction Quartz+Feldspar+Mica (QFM) (SpectroLith WALK2 Model)
WSID_WALK2      .lbf/lbf                                   :        (ECS-A[1])              (6in)                   Dry Weight Fraction Siderite (SpectroLith WALK2 Model)
#-------------------------------------------------------------
#            DEPT   DWAL_WALK2   DWCA_WALK2   DWFE_WALK2   DWGD_WALK2   DWHY_WALK2   DWSI_WALK2   DWSU_WALK2   DWTI_WALK2   DXFE_WALK2   WANH_WALK2   WCAR_WALK2   WCLA_WALK2   WCOA_WALK2   WEVA_WALK2   WPYR_WALK2   WQFM_WALK2   WSID_WALK2 
#                   (ECS-A[1])   (ECS-A[1])   (ECS-A[1])   (ECS-A[1])   (ECS-A[1])   (ECS-A[1])   (ECS-A[1])   (ECS-A[1])   (ECS-A[1])   (ECS-A[1])   (ECS-A[1])   (ECS-A[1])   (ECS-A[1])   (ECS-A[1])   (ECS-A[1])   (ECS-A[1])   (ECS-A[1]) 
#                                                                                                                                                                                                                                              
#                        (6in)        (6in)        (6in)        (6in)        (6in)        (6in)        (6in)        (6in)        (6in)        (6in)        (6in)        (6in)        (6in)        (6in)        (6in)        (6in)        (6in) 
~ASCII
# ...
       6714.00000      0.07902      0.00301      0.04610     11.65543      0.00000      0.32389      0.00000      0.00556      0.00000      0.00000      0.00000      0.50954      0.00000      0.00000      0.00000      0.49046      0.00000
       6714.50000      0.07866      0.00727      0.04599      8.14019      0.00000      0.31947      0.00000      0.00527      0.00000      0.00000      0.00000      0.50635      0.00000      0.00000      0.00000      0.49365      0.00000
       6715.00000      0.07900      0.01705      0.04609      8.68603      0.00000      0.30754      0.00000      0.00555      0.00000      0.00000      0.00000      0.50934      0.00000      0.00000      0.00000      0.49066      0.00000
       6715.50000      0.07871      0.02640      0.04606      9.66356      0.00000      0.29701      0.00000      0.00517      0.00000      0.00000      0.00000      0.50680      0.00000      0.00000      0.00000      0.49320      0.00000
       6716.00000      0.07714      0.03287      0.04514     12.96922      0.00000      0.29224      0.00000      0.00505      0.00000      0.00000      0.01343      0.49298      0.00000      0.00000      0.00000      0.49359      0.00000
       6716.50000      0.07451      0.03436      0.04384     13.25257      0.00008      0.29493      0.00000      0.00428      0.00000      0.00000      0.01744      0.46993      0.00000      0.00000      0.00000      0.51263      0.00000
       6717.00000      0.07068      0.04147      0.04178     10.59058      0.00041      0.29327      0.00000      0.00355      0.00000      0.00000      0.03656      0.43625      0.00000      0.00000      0.00000      0.52719      0.00000
       6717.50000      0.07127      0.03306      0.04220      6.27055      0.00060      0.30197      0.00000      0.00341      0.00000      0.00000      0.01393      0.44145      0.00000      0.00000      0.00000      0.54462      0.00000
       6718.00000      0.07333      0.01965      0.04330      4.46895      0.00067      0.31406      0.00000      0.00380      0.00000      0.00000      0.00000      0.45956      0.00000      0.00000      0.00000      0.54044      0.00000
       6718.50000      0.07716      0.00714      0.04545      8.22137      0.00013      0.32195      0.00000      0.00428      0.00000      0.00000      0.00000      0.49319      0.00000      0.00000      0.00000      0.50681      0.00000
       6719.00000      0.07645      0.01083      0.04504     14.05724      0.00000      0.31890      0.00000      0.00423      0.00000      0.00000      0.00000      0.48695      0.00000      0.00000      0.00000      0.51305      0.00000
       6719.50000      0.07707      0.01049      0.04547     15.92838      0.00000      0.31813      0.00040      0.00395      0.00000      0.00000      0.00000      0.49241      0.00000      0.00000      0.00074      0.50685      0.00000
       6720.00000      0.07350      0.01130      0.04336     13.53898      0.00000      0.32356      0.00080      0.00364      0.00000      0.00000      0.00000      0.46101      0.00000      0.00000      0.00150      0.53749      0.00000
       6720.50000      0.07459      0.00583      0.04389     11.28373      0.00000      0.32810      0.00221      0.00349      0.00000      0.00000      0.00000      0.47060      0.00000      0.00000      0.00414      0.52526      0.00000
       6721.00000      0.07491      0.01391      0.04434     10.15234      0.00008      0.31786      0.00000      0.00360      0.00000      0.00000      0.00000      0.47342      0.00000      0.00000      0.00000      0.52658      0.00000
       6721.50000      0.08022      0.02157      0.04760     10.23403      0.00021      0.29936      0.00000      0.00357      0.00000      0.00000      0.00000      0.52008      0.00000      0.00000      0.00000      0.47992      0.00000
       6722.00000      0.08284      0.03758      0.04923      9.63622      0.00053      0.27591      0.00000      0.00349      0.00000      0.00000      0.02609      0.54316      0.00000      0.00000      0.00000      0.43075      0.00000
       6722.50000      0.08364      0.03851      0.04958     10.40563      0.00050      0.27353      0.00000      0.00384      0.00000      0.00000      0.02858      0.55012      0.00000      0.00000      0.00000      0.42130      0.00000
       6723.00000      0.08408      0.02740      0.04890     10.09185      0.00038      0.28660      0.00460      0.00465      0.00000      0.00000      0.00000      0.55399      0.00000      0.00000      0.00861      0.43740      0.00000
       6723.50000      0.08166      0.00406      0.04706      9.40540      0.00000      0.31852      0.01086      0.00522      0.00000      0.00000      0.00000      0.53275      0.00000      0.00000      0.02032      0.44694      0.00000
       6724.00000      0.07500      0.00000      0.04377      7.81299      0.00000      0.33451      0.00832      0.00492      0.00000      0.00000      0.00000      0.47425      0.00000      0.00000      0.01556      0.51020      0.00000
       6724.50000      0.07037      0.00000      0.04127      7.33895      0.00000      0.34253      0.00810      0.00408      0.00000      0.00000      0.00000      0.43356      0.00000      0.00000      0.01515      0.55130      0.00000
       6725.00000      0.07106      0.00121      0.04146      9.02164      0.00000      0.34010      0.00983      0.00404      0.00000      0.00000      0.00000      0.43959      0.00000      0.00000      0.01839      0.54202      0.00000
       6725.50000      0.07142      0.01290      0.04052      9.94234      0.00000      0.32688      0.01481      0.00355      0.00000      0.00000      0.00000      0.44276      0.00000      0.00000      0.02771      0.52953      0.00000
       6726.00000      0.07081      0.01249      0.04002      9.62988      0.00000      0.32858      0.01449      0.00400      0.00000      0.00000      0.00000      0.43739      0.00000      0.00000      0.02710      0.53551      0.00000
       6726.50000      0.06708      0.00878      0.03833      7.90461      0.00000      0.33907      0.00978      0.00380      0.00000      0.00000      0.00000      0.40459      0.00000      0.00000      0.01830      0.57712      0.00000
       6727.00000      0.06645      0.01771      0.03856      5.56385      0.00059      0.32921      0.00313      0.00408      0.00000      0.00000      0.00000      0.39905      0.00000      0.00000      0.00585      0.59510      0.00000
       6727.50000      0.06242      0.03984      0.03701      5.29920      0.00121      0.30977      0.00000      0.00285      0.00000      0.00000      0.03217      0.36365      0.00000      0.00000      0.00000      0.60418      0.00000
       6728.00000      0.06397      0.05336      0.03813      4.88745      0.00142      0.29105      0.00000      0.00239      0.00000      0.00000      0.06853      0.37723      0.00000      0.00000      0.00000      0.55424      0.00000
       6728.50000      0.06390      0.04894      0.03823      4.61953      0.00162      0.29619      0.00000      0.00202      0.00000      0.00000      0.05666      0.37666      0.00000      0.00000      0.00000      0.56668      0.00000
       6729.00000      0.07289      0.03244      0.04254      4.88782      0.00164      0.30039      0.00475      0.00338      0.00000      0.00000      0.01226      0.45567      0.00000      0.00000      0.00889      0.52318      0.00000
       6729.50000      0.07794      0.02439      0.04441      6.34111      0.00112      0.30184      0.01152      0.00411      0.00000      0.00000      0.00000      0.50003      0.00000      0.00000      0.02155      0.47842      0.00000
       6730.00000      0.08064      0.03236      0.04624     10.19675      0.00029      0.28750      0.00936      0.00442      0.00000      0.00000      0.01205      0.52382      0.00000      0.00000      0.01751      0.44662      0.00000
       6730.50000      0.07884      0.04733      0.04609     12.51567      0.00000      0.27238      0.00380      0.00393      0.00000      0.00000      0.05232      0.50796      0.00000      0.00000      0.00712      0.43260      0.00000
