~VERSION INFORMATION 
VERS  .    2.0                                     :CWLS Log ASCII Standard - VERSION 2.0
WRAP  .    NO                                      :One Line per Depth step
PROD  .    Schlumberger Technology Corp.           :LAS Producer
PROG  .    Horizon LASWriter 3.1.9755.0            :LAS Program name and version
SOURCE.    Composite 1 (2-Log[4]/Up + 2-Repeat[3]/Up):Run&Pass Information
CREA  .    10/26/2012                              :LAS Creation date {MM/DD/YYYY}
#--------------------------------------------------
~WELL INFORMATION 
#MNEM           .UNIT                      DATA            :DESCRIPTION
#----            ------          --------------            -----------------------------
STRT            .ft                  6000.00000            :START DEPTH
STOP            .ft                  8700.50000            :STOP DEPTH
STEP            .ft                         0.5            :STEP
NULL            .                       -999.25            :NULL VALUE
COMP            .                         SHELL            :COMPANY
WELL            .                DAWSON CREEK 1 25         :WELL NAME
FLD             .                WILLIAMS FORK UNIT        :FIELD NAME
RIGN            .                    SAVANA 650            :Rig Name
RIGTYP          .                          LAND            :Rig Type
SON             .                    BXV3-00069            :Service Order Number
SRVC            .                  Schlumberger            :SERVICE COMPANY
DATE            .                    10/26/2012            :LOG DATE(Composite Date for Composite LAP) (MM/DD/YYYY)
CLAB            .                       County:            :County Label
CNTY            .                         ROUTT            :COUNTY
SLAB            .                        State:            :State/Province Label
STAT            .                      COLORADO            :STATE or PROVINCE
PROV            .                      COLORADO            :STATE or PROVINCE
CTRY            .                           USA            :COUNTRY
CONT_REGION     .                    N. America            :Continent Region
SECT            .                            25            :Section
TOWN            .                            4N            :Township
RANG            .                           88W            :Range
API             .                  051076242000            :API NUMBER
UWI             .                                          :UNIQUE WELL ID
LUL             .                        VERNAL            :Logging Unit Location
LUN             .                          2379            :Logging Unit Number
LOC             .                SHL: 2032' FNL & 1639' FWL:FIELD LOCATION
FL1             .                BHL: 971' FNL & 2022' FEL :Field Location Line 1
FL2             .                                          :Field Location Line 2
LATI            .deg                  40.450486            :LATITUDE
LONG            .deg                 -107.21337            :LONGITUDE
PDAT            .                            GL            :Local Permanent Datum
LMF             .                            KB            :Logging Measured From
APD             .ft                    14.30000            :Elevation of Depth Reference (LMF) Above Permanent Datum
EPD             .ft                  6658.19984            :Elevation of Permanent Datum (PDAT) above Mean Sea Level
EKB             .ft                    14.30000            :Elevation of Kelly Bushing Above Permanent Datum
EDF             .ft                    14.30000            :Elevation of Drill Floor Above Permanent Datum
EGL             .ft                     0.00000            :Elevation of Ground Level Above Permanent Datum
ECF             .ft                     -999.25            :Elevation of Casing Flange above Permanent Datum
#--------------------------------------------------
~CURVE INFORMATION
#MNEM           .UNIT                  API CODE            :DESCRIPTION
#----            ------          --------------            -----------------------------
DEPT            .ft                                        :                                                        Depth Index
DWAL_WALK2      .lbf/lbf                                   :        (ECS-A[1])              (6in)                   Dry Weight Fraction Pseudo Aluminum (SpectroLith WALK2 Model)
DWCA_WALK2      .lbf/lbf                                   :        (ECS-A[1])              (6in)                   Dry Weight Fraction Calcium (SpectroLith WALK2 Model)
DWFE_WALK2      .lbf/lbf                                   :        (ECS-A[1])              (6in)                   Dry Weight Fraction Iron + 0.14 Aluminum (SpectroLith WALK2 Model)
DWGD_WALK2      .ppm                                       :        (ECS-A[1])              (6in)                   Dry Weight Fraction Gadolinium (SpectroLith WALK2 Model)
DWHY_WALK2      .lbf/lbf                                   :        (ECS-A[1])              (6in)                   Dry Weight Fraction Hydrogen Associated with Coal (SpectroLith WALK2 Model)
DWSI_WALK2      .lbf/lbf                                   :        (ECS-A[1])              (6in)                   Dry Weight Fraction Silicon (SpectroLith WALK2 Model)
DWSU_WALK2      .lbf/lbf                                   :        (ECS-A[1])              (6in)                   Dry Weight Fraction Sulfur (SpectroLith WALK2 Model)
DWTI_WALK2      .lbf/lbf                                   :        (ECS-A[1])              (6in)                   Dry Weight Fraction Titanium (SpectroLith WALK2 Model)
DXFE_WALK2      .lbf/lbf                                   :        (ECS-A[1])              (6in)                   Dry Weight Fraction Excess Iron (SpectroLith WALK2 Model)
WANH_WALK2      .lbf/lbf                                   :        (ECS-A[1])              (6in)                   Dry Weight Fraction Anhydrite/Gypsum (SpectroLith WALK2 Model)
WCAR_WALK2      .lbf/lbf                                   :        (ECS-A[1])              (6in)                   Dry Weight Fraction Carbonate (SpectroLith WALK2 Model)
WCLA_WALK2      .lbf/lbf                                   :        (ECS-A[1])              (6in)                   Dry Weight Fraction Clay (SpectroLith WALK2 Model)
WCOA_WALK2      .lbf/lbf                                   :        (ECS-A[1])              (6in)                   Dry Weight Fraction Coal (SpectroLith WALK2 Model)
WEVA_WALK2      .lbf/lbf                                   :        (ECS-A[1])              (6in)                   Dry Weight Fraction Salt (SpectroLith WALK2 Model)
WPYR_WALK2      .lbf/lbf                                   :        (ECS-A[1])              (6in)                   Dry Weight Fraction Pyrite (SpectroLith WALK2 Model)
WQFM_WALK2      .lbf/lbf                                   :        (ECS-A[1])              (6in)                   Dry Weight Fraction Quartz+Feldspar+Mica (QFM) (SpectroLith WALK2 Model)
WSID_WALK2      .lbf/lbf                                   :        (ECS-A[1])              (6in)                   Dry Weight Fraction Siderite (SpectroLith WALK2 Model)
#-------------------------------------------------------------
#            DEPT   DWAL_WALK2   DWCA_WALK2   DWFE_WALK2   DWGD_WALK2   DWHY_WALK2   DWSI_WALK2   DWSU_WALK2   DWTI_WALK2   DXFE_WALK2   WANH_WALK2   WCAR_WALK2   WCLA_WALK2   WCOA_WALK2   WEVA_WALK2   WPYR_WALK2   WQFM_WALK2   WSID_WALK2 
#                   (ECS-A[1])   (ECS-A[1])   (ECS-A[1])   (ECS-A[1])   (ECS-A[1])   (ECS-A[1])   (ECS-A[1])   (ECS-A[1])   (ECS-A[1])   (ECS-A[1])   (ECS-A[1])   (ECS-A[1])   (ECS-A[1])   (ECS-A[1])   (ECS-A[1])   (ECS-A[1])   (ECS-A[1]) 
#                                                                                                                                                                                                                                              
#                        (6in)        (6in)        (6in)        (6in)        (6in)        (6in)        (6in)        (6in)        (6in)        (6in)        (6in)        (6in)        (6in)        (6in)        (6in)        (6in)        (6in) 
~ASCII
# ...
       6357.00000      0.06358      0.02275      0.03643      6.27874      0.00045      0.32884      0.00637      0.00390      0.00000      0.00000      0.00000      0.37380      0.00000      0.00000      0.01193      0.61428      0.00000
       6357.50000      0.06627      0.02201      0.03852      5.21361      0.00098      0.32445      0.00325      0.00387      0.00000      0.00000      0.00000      0.39748      0.00000      0.00000      0.00607      0.59645      0.00000
       6358.00000      0.06715      0.02619      0.03928      3.43054      0.00085      0.31778      0.00301      0.00338      0.00000      0.00000      0.00000      0.40524      0.00000      0.00000      0.00564      0.58912      0.00000
       6358.50000      0.06656      0.03323      0.03922      5.46949      0.00072      0.31035      0.00000      0.00367      0.00000      0.00000      0.01438      0.40002      0.00000      0.00000      0.00000      0.58560      0.00000
       6359.00000      0.06631      0.03693      0.03906      6.38262      0.00070      0.30648      0.00000      0.00370      0.00000      0.00000      0.02435      0.39782      0.00000      0.00000      0.00000      0.57783      0.00000
       6359.50000      0.06489      0.03517      0.03806      9.14651      0.00090      0.31121      0.00000      0.00402      0.00000      0.00000      0.01960      0.38534      0.00000      0.00000      0.00000      0.59506      0.00000
       6360.00000      0.06533      0.03368      0.03819      8.04364      0.00089      0.31230      0.00174      0.00377      0.00000      0.00000      0.01559      0.38918      0.00000      0.00000      0.00326      0.59197      0.00000
       6360.50000      0.06590      0.03434      0.03812      7.83930      0.00069      0.31088      0.00578      0.00340      0.00000      0.00000      0.01737      0.39422      0.00000      0.00000      0.01082      0.57759      0.00000
       6361.00000      0.07069      0.03514      0.04038      5.98198      0.00051      0.30194      0.01151      0.00309      0.00000      0.00000      0.01954      0.43635      0.00000      0.00000      0.02153      0.52258      0.00000
       6361.50000      0.07106      0.03524      0.04087      6.39729      0.00019      0.30092      0.01106      0.00256      0.00000      0.00000      0.01980      0.43958      0.00000      0.00000      0.02070      0.51992      0.00000
       6362.00000      0.07098      0.03607      0.04077      7.38826      0.00000      0.30014      0.01186      0.00241      0.00000      0.00000      0.02203      0.43889      0.00000      0.00000      0.02220      0.51689      0.00000
       6362.50000      0.06860      0.03377      0.03921      8.31817      0.00000      0.30721      0.01233      0.00252      0.00000      0.00000      0.01584      0.41794      0.00000      0.00000      0.02307      0.54314      0.00000
       6363.00000      0.07150      0.02252      0.03970      8.17383      0.00000      0.31632      0.02222      0.00303      0.00000      0.00000      0.00000      0.44344      0.00000      0.00000      0.04158      0.51498      0.00000
       6363.50000      0.07602      0.00743      0.04355      6.90526      0.00012      0.32480      0.02865      0.00317      0.00000      0.00000      0.00000      0.48316      0.00000      0.00000      0.05360      0.46324      0.00000
       6364.00000      0.07924      0.00108      0.04658      6.04206      0.00055      0.32543      0.02802      0.00304      0.00000      0.00000      0.00000      0.51147      0.00000      0.00000      0.05242      0.43611      0.00000
       6364.50000      0.08202      0.01511      0.04707      6.10610      0.00089      0.30517      0.01655      0.00269      0.00000      0.00000      0.00000      0.53588      0.00000      0.00000      0.03096      0.43315      0.00000
       6365.00000      0.07880      0.02614      0.04602      5.52646      0.00116      0.29723      0.00774      0.00264      0.00000      0.00000      0.00000      0.50763      0.00000      0.00000      0.01447      0.47790      0.00000
       6365.50000      0.07698      0.02976      0.04551      5.92679      0.00122      0.29573      0.00294      0.00280      0.00000      0.00000      0.00505      0.49158      0.00000      0.00000      0.00550      0.49787      0.00000
       6366.00000      0.07750      0.01820      0.04572      5.43314      0.00116      0.30837      0.00312      0.00303      0.00000      0.00000      0.00000      0.49623      0.00000      0.00000      0.00584      0.49793      0.00000
       6366.50000      0.07505      0.01826      0.04446      7.57718      0.00092      0.31250      0.00231      0.00272      0.00000      0.00000      0.00000      0.47467      0.00000      0.00000      0.00433      0.52100      0.00000
       6367.00000      0.07634      0.02284      0.04512      9.44967      0.00103      0.30495      0.00445      0.00227      0.00000      0.00000      0.00000      0.48598      0.00000      0.00000      0.00833      0.50569      0.00000
       6367.50000      0.07884      0.03726      0.04700     11.39237      0.00143      0.28329      0.00323      0.00178      0.00000      0.00000      0.02524      0.50795      0.00000      0.00000      0.00605      0.46077      0.00000
       6368.00000      0.09033      0.03525      0.05329     11.87689      0.00163      0.26566      0.00661      0.00245      0.00000      0.00000      0.01981      0.60893      0.00000      0.00000      0.01237      0.35889      0.00000
       6368.50000      0.10003      0.02906      0.05902     10.37971      0.00149      0.25560      0.00660      0.00296      0.00000      0.00000      0.00317      0.69425      0.00000      0.00000      0.01235      0.29022      0.00000
       6369.00000      0.11306      0.01372      0.06250      9.67510      0.00089      0.25425      0.00872      0.00384      0.00000      0.00000      0.00000      0.80873      0.00000      0.00000      0.01632      0.17495      0.00000
       6369.50000      0.11208      0.00615      0.06212      8.20404      0.00054      0.26464      0.00945      0.00400      0.00000      0.00000      0.00000      0.80011      0.00000      0.00000      0.01768      0.18221      0.00000
       6370.00000      0.10813      0.00330      0.05934      8.92034      0.00019      0.27542      0.01363      0.00411      0.00000      0.00000      0.00000      0.76541      0.00000      0.00000      0.02550      0.20909      0.00000
       6370.50000      0.09849      0.01279      0.05667      8.00325      0.00027      0.27869      0.01912      0.00398      0.00000      0.00000      0.00000      0.68066      0.00000      0.00000      0.03577      0.28357      0.00000
       6371.00000      0.09860      0.02031      0.05588      7.66409      0.00051      0.27052      0.02210      0.00436      0.00000      0.00000      0.00000      0.68161      0.00000      0.00000      0.04134      0.27705      0.00000
       6371.50000      0.10528      0.02564      0.05703      6.73322      0.00090      0.25500      0.01843      0.00493      0.00000      0.00000      0.00000      0.74034      0.00000      0.00000      0.03448      0.22518      0.00000
       6372.00000      0.10616      0.02930      0.05713      7.87472      0.00094      0.24955      0.01306      0.00478      0.00000      0.00000      0.00382      0.74810      0.00000      0.00000      0.02443      0.22365      0.00000
       6372.50000      0.09723      0.03930      0.05595     10.08027      0.00046      0.24996      0.01309      0.00416      0.00000      0.00000      0.03073      0.66956      0.00000      0.00000      0.02448      0.27523      0.00000
       6373.00000      0.08992      0.03937      0.05099     10.82820      0.00005      0.26348      0.01780      0.00378      0.00000      0.00000      0.03092      0.60537      0.00000      0.00000      0.03329      0.33042      0.00000
       6373.50000      0.08541      0.03267      0.04775      9.39072      0.00000      0.27986      0.02103      0.00388      0.00000      0.00000      0.01289      0.56572      0.00000      0.00000      0.03934      0.38204      0.00000
