~VERSION INFORMATION 
VERS  .    2.0                                     :CWLS Log ASCII Standard - VERSION 2.0
WRAP  .    NO                                      :One Line per Depth step
PROD  .    Schlumberger Technology Corp.           :LAS Producer
PROG  .    Horizon LASWriter 3.1.9755.0            :LAS Program name and version
SOURCE.    Composite 1 (2-Log[4]/Up + 2-Repeat[3]/Up):Run&Pass Information
CREA  .    10/26/2012                              :LAS Creation date {MM/DD/YYYY}
#--------------------------------------------------
~WELL INFORMATION 
#MNEM           .UNIT                      DATA            :DESCRIPTION
#----            ------          --------------            -----------------------------
STRT            .ft                  6000.00000            :START DEPTH
STOP            .ft                  8700.50000            :STOP DEPTH
STEP            .ft                         0.5            :STEP
NULL            .                       -999.25            :NULL VALUE
COMP            .                         SHELL            :COMPANY
WELL            .                DAWSON CREEK 1 25         :WELL NAME
FLD             .                WILLIAMS FORK UNIT        :FIELD NAME
RIGN            .                    SAVANA 650            :Rig Name
RIGTYP          .                          LAND            :Rig Type
SON             .                    BXV3-00069            :Service Order Number
SRVC            .                  Schlumberger            :SERVICE COMPANY
DATE            .                    10/26/2012            :LOG DATE(Composite Date for Composite LAP) (MM/DD/YYYY)
CLAB            .                       County:            :County Label
CNTY            .                         ROUTT            :COUNTY
SLAB            .                        State:            :State/Province Label
STAT            .                      COLORADO            :STATE or PROVINCE
PROV            .                      COLORADO            :STATE or PROVINCE
CTRY            .                           USA            :COUNTRY
CONT_REGION     .                    N. America            :Continent Region
SECT            .                            25            :Section
TOWN            .                            4N            :Township
RANG            .                           88W            :Range
API             .                  051076242000            :API NUMBER
UWI             .                                          :UNIQUE WELL ID
LUL             .                        VERNAL            :Logging Unit Location
LUN             .                          2379            :Logging Unit Number
LOC             .                SHL: 2032' FNL & 1639' FWL:FIELD LOCATION
FL1             .                BHL: 971' FNL & 2022' FEL :Field Location Line 1
FL2             .                                          :Field Location Line 2
LATI            .deg                  40.450486            :LATITUDE
LONG            .deg                 -107.21337            :LONGITUDE
PDAT            .                            GL            :Local Permanent Datum
LMF             .                            KB            :Logging Measured From
APD             .ft                    14.30000            :Elevation of Depth Reference (LMF) Above Permanent Datum
EPD             .ft                  6658.19984            :Elevation of Permanent Datum (PDAT) above Mean Sea Level
EKB             .ft                    14.30000            :Elevation of Kelly Bushing Above Permanent Datum
EDF             .ft                    14.30000            :Elevation of Drill Floor Above Permanent Datum
EGL             .ft                     0.00000            :Elevation of Ground Level Above Permanent Datum
ECF             .ft                     -999.25            :Elevation of Casing Flange above Permanent Datum
#--------------------------------------------------
~CURVE INFORMATION
#MNEM           .UNIT                  API CODE            :DESCRIPTION
#----            ------          --------------            -----------------------------
DEPT            .ft                                        :                                                        Depth Index
DWAL_WALK2      .lbf/lbf                                   :        (ECS-A[1])              (6in)                   Dry Weight Fraction Pseudo Aluminum (SpectroLith WALK2 Model)
DWCA_WALK2      .lbf/lbf                                   :        (ECS-A[1])              (6in)                   Dry Weight Fraction Calcium (SpectroLith WALK2 Model)
DWFE_WALK2      .lbf/lbf                                   :        (ECS-A[1])              (6in)                   Dry Weight Fraction Iron + 0.14 Aluminum (SpectroLith WALK2 Model)
DWGD_WALK2      .ppm                                       :        (ECS-A[1])              (6in)                   Dry Weight Fraction Gadolinium (SpectroLith WALK2 Model)
DWHY_WALK2      .lbf/lbf                                   :        (ECS-A[1])              (6in)                   Dry Weight Fraction Hydrogen Associated with Coal (SpectroLith WALK2 Model)
DWSI_WALK2      .lbf/lbf                                   :        (ECS-A[1])              (6in)                   Dry Weight Fraction Silicon (SpectroLith WALK2 Model)
DWSU_WALK2      .lbf/lbf                                   :        (ECS-A[1])              (6in)                   Dry Weight Fraction Sulfur (SpectroLith WALK2 Model)
DWTI_WALK2      .lbf/lbf                                   :        (ECS-A[1])              (6in)                   Dry Weight Fraction Titanium (SpectroLith WALK2 Model)
DXFE_WALK2      .lbf/lbf                                   :        (ECS-A[1])              (6in)                   Dry Weight Fraction Excess Iron (SpectroLith WALK2 Model)
WANH_WALK2      .lbf/lbf                                   :        (ECS-A[1])              (6in)                   Dry Weight Fraction Anhydrite/Gypsum (SpectroLith WALK2 Model)
WCAR_WALK2      .lbf/lbf                                   :        (ECS-A[1])              (6in)                   Dry Weight Fraction Carbonate (SpectroLith WALK2 Model)
WCLA_WALK2      .lbf/lbf                                   :        (ECS-A[1])              (6in)                   Dry Weight Fraction Clay (SpectroLith WALK2 Model)
WCOA_WALK2      .lbf/lbf                                   :        (ECS-A[1])              (6in)                   Dry Weight Fraction Coal (SpectroLith WALK2 Model)
WEVA_WALK2      .lbf/lbf                                   :        (ECS-A[1])              (6in)                   Dry Weight Fraction Salt (SpectroLith WALK2 Model)
WPYR_WALK2      .lbf/lbf                                   :        (ECS-A[1])              (6in)                   Dry Weight Fraction Pyrite (SpectroLith WALK2 Model)
WQFM_WALK2      .lbf/lbf                                   :        (ECS-A[1])              (6in)                   Dry Weight Fraction Quartz+Feldspar+Mica (QFM) (SpectroLith WALK2 Model)
WSID_WALK2      .lbf/lbf                                   :        (ECS-A[1])              (6in)                   Dry Weight Fraction Siderite (SpectroLith WALK2 Model)
#-------------------------------------------------------------
#            DEPT   DWAL_WALK2   DWCA_WALK2   DWFE_WALK2   DWGD_WALK2   DWHY_WALK2   DWSI_WALK2   DWSU_WALK2   DWTI_WALK2   DXFE_WALK2   WANH_WALK2   WCAR_WALK2   WCLA_WALK2   WCOA_WALK2   WEVA_WALK2   WPYR_WALK2   WQFM_WALK2   WSID_WALK2 
#                   (ECS-A[1])   (ECS-A[1])   (ECS-A[1])   (ECS-A[1])   (ECS-A[1])   (ECS-A[1])   (ECS-A[1])   (ECS-A[1])   (ECS-A[1])   (ECS-A[1])   (ECS-A[1])   (ECS-A[1])   (ECS-A[1])   (ECS-A[1])   (ECS-A[1])   (ECS-A[1])   (ECS-A[1]) 
#                                                                                                                                                                                                                                              
#                        (6in)        (6in)        (6in)        (6in)        (6in)        (6in)        (6in)        (6in)        (6in)        (6in)        (6in)        (6in)        (6in)        (6in)        (6in)        (6in)        (6in) 
~ASCII
# ...
       7258.00000      0.07065      0.00000      0.04138      8.85751      0.00010      0.34210      0.00000      0.00454      0.00000      0.00000      0.00000      0.43595      0.00000      0.00000      0.00000      0.56405      0.00000
       7258.50000      0.06786      0.00000      0.03987      9.95606      0.00013      0.34693      0.00000      0.00405      0.00000      0.00000      0.00000      0.41147      0.00000      0.00000      0.00000      0.58853      0.00000
       7259.00000      0.06816      0.00000      0.04007      7.73791      0.00004      0.34637      0.00000      0.00401      0.00000      0.00000      0.00000      0.41411      0.00000      0.00000      0.00000      0.58589      0.00000
       7259.50000      0.06474      0.00326      0.03812      3.96014      0.00009      0.34859      0.00000      0.00363      0.00000      0.00000      0.00000      0.38402      0.00000      0.00000      0.00000      0.61598      0.00000
       7260.00000      0.06740      0.00538      0.03961      1.76447      0.00000      0.34146      0.00000      0.00397      0.00000      0.00000      0.00000      0.40737      0.00000      0.00000      0.00000      0.59263      0.00000
       7260.50000      0.07062      0.00890      0.04149      2.84879      0.00000      0.33164      0.00000      0.00422      0.00000      0.00000      0.00000      0.43572      0.00000      0.00000      0.00000      0.56428      0.00000
       7261.00000      0.07380      0.02163      0.04345      5.18174      0.00000      0.31105      0.00000      0.00416      0.00000      0.00000      0.00000      0.46365      0.00000      0.00000      0.00000      0.53635      0.00000
       7261.50000      0.07336      0.03327      0.04337      8.72002      0.00000      0.29808      0.00000      0.00368      0.00000      0.00000      0.01450      0.45976      0.00000      0.00000      0.00000      0.52574      0.00000
       7262.00000      0.07070      0.03920      0.04176     11.26139      0.00000      0.29592      0.00000      0.00363      0.00000      0.00000      0.03046      0.43637      0.00000      0.00000      0.00000      0.53317      0.00000
       7262.50000      0.06932      0.02395      0.04067     12.98388      0.00024      0.31643      0.00000      0.00428      0.00000      0.00000      0.00000      0.42425      0.00000      0.00000      0.00000      0.57575      0.00000
       7263.00000      0.06876      0.00525      0.03996     12.49770      0.00066      0.33961      0.00000      0.00523      0.00000      0.00000      0.00000      0.41934      0.00000      0.00000      0.00000      0.58066      0.00000
       7263.50000      0.06624      0.00000      0.03845     10.22588      0.00056      0.35024      0.00039      0.00513      0.00000      0.00000      0.00000      0.39721      0.00000      0.00000      0.00073      0.60205      0.00000
       7264.00000      0.06532      0.00000      0.03818      9.46731      0.00037      0.35162      0.00000      0.00441      0.00000      0.00000      0.00000      0.38917      0.00000      0.00000      0.00000      0.61083      0.00000
       7264.50000      0.06299      0.00000      0.03709      9.45247      0.00000      0.35551      0.00000      0.00354      0.00000      0.00000      0.00000      0.36864      0.00000      0.00000      0.00000      0.63136      0.00000
       7265.00000      0.06130      0.02277      0.03623     10.56607      0.00000      0.33179      0.00000      0.00310      0.00000      0.00000      0.00000      0.35383      0.00000      0.00000      0.00000      0.64617      0.00000
       7265.50000      0.06200      0.02374      0.03673      8.59290      0.00000      0.32935      0.00000      0.00290      0.00000      0.00000      0.00000      0.35992      0.00000      0.00000      0.00000      0.64008      0.00000
       7266.00000      0.06242      0.02402      0.03695      6.76673      0.00000      0.32830      0.00000      0.00299      0.00000      0.00000      0.00000      0.36363      0.00000      0.00000      0.00000      0.63637      0.00000
       7266.50000      0.05964      0.01548      0.03541      5.87895      0.00000      0.34312      0.00000      0.00261      0.00000      0.00000      0.00000      0.33924      0.00000      0.00000      0.00000      0.66076      0.00000
       7267.00000      0.05657      0.01887      0.03340      7.43332      0.00063      0.34480      0.00000      0.00294      0.00000      0.00000      0.00000      0.31223      0.00000      0.00000      0.00000      0.68777      0.00000
       7267.50000      0.05742      0.01762      0.03357      7.87166      0.00075      0.34506      0.00146      0.00331      0.00000      0.00000      0.00000      0.31968      0.00000      0.00000      0.00273      0.67759      0.00000
       7268.00000      0.06375      0.01713      0.03594      5.17034      0.00024      0.33564      0.01062      0.00393      0.00000      0.00000      0.00000      0.37533      0.00000      0.00000      0.01986      0.60481      0.00000
       7268.50000      0.06730      0.02486      0.03745      3.40849      0.00000      0.32085      0.01776      0.00308      0.00000      0.00000      0.00000      0.40650      0.00000      0.00000      0.03322      0.56028      0.00000
       7269.00000      0.06937      0.04020      0.03850      2.34456      0.00000      0.29942      0.02139      0.00232      0.00000      0.00000      0.03313      0.42470      0.00000      0.00000      0.04003      0.50215      0.00000
       7269.50000      0.06987      0.03803      0.03881      2.59083      0.00033      0.30105      0.02104      0.00247      0.00000      0.00000      0.02730      0.42915      0.00000      0.00000      0.03937      0.50418      0.00000
       7270.00000      0.07089      0.02443      0.03989      2.58775      0.00053      0.31466      0.01343      0.00397      0.00000      0.00000      0.00000      0.43806      0.00000      0.00000      0.02513      0.53681      0.00000
       7270.50000      0.07022      0.00000      0.04074      3.85683      0.00035      0.34322      0.00277      0.00542      0.00000      0.00000      0.00000      0.43219      0.00000      0.00000      0.00518      0.56263      0.00000
       7271.00000      0.07103      0.00000      0.04137      4.50239      0.00027      0.34163      0.00000      0.00516      0.00000      0.00000      0.00000      0.43932      0.00000      0.00000      0.00000      0.56068      0.00000
       7271.50000      0.07253      0.00000      0.04263      5.38549      0.00037      0.33861      0.00000      0.00428      0.00000      0.00000      0.00000      0.45251      0.00000      0.00000      0.00000      0.54749      0.00000
       7272.00000      0.07206      0.01190      0.04237      4.12476      0.00072      0.32554      0.00130      0.00374      0.00000      0.00000      0.00000      0.44837      0.00000      0.00000      0.00243      0.54920      0.00000
       7272.50000      0.06858      0.01762      0.03985      4.15903      0.00084      0.32549      0.00472      0.00353      0.00000      0.00000      0.00000      0.41774      0.00000      0.00000      0.00883      0.57343      0.00000
       7273.00000      0.06292      0.02577      0.03616      2.37221      0.00083      0.32637      0.00713      0.00331      0.00000      0.00000      0.00000      0.36806      0.00000      0.00000      0.01333      0.61860      0.00000
       7273.50000      0.05481      0.03545      0.03213      3.48160      0.00054      0.32880      0.00270      0.00249      0.00000      0.00000      0.02036      0.29675      0.00000      0.00000      0.00505      0.67784      0.00000
       7274.00000      0.05316      0.05170      0.03160      3.70996      0.00040      0.31236      0.00168      0.00160      0.00000      0.00000      0.06406      0.28221      0.00000      0.00000      0.00315      0.65058      0.00000
       7274.50000      0.05327      0.05514      0.03187      5.28556      0.00027      0.30795      0.00182      0.00104      0.00000      0.00000      0.07332      0.28321      0.00000      0.00000      0.00340      0.64007      0.00000
