~VERSION INFORMATION 
VERS  .    2.0                                     :CWLS Log ASCII Standard - VERSION 2.0
WRAP  .    NO                                      :One Line per Depth step
PROD  .    Schlumberger Technology Corp.           :LAS Producer
PROG  .    Horizon LASWriter 3.1.9755.0            :LAS Program name and version
SOURCE.    Composite 1 (2-Log[4]/Up + 2-Repeat[3]/Up):Run&Pass Information
CREA  .    10/26/2012                              :LAS Creation date {MM/DD/YYYY}
#--------------------------------------------------
~WELL INFORMATION 
#MNEM           .UNIT                      DATA            :DESCRIPTION
#----            ------          --------------            -----------------------------
STRT            .ft                  6000.00000            :START DEPTH
STOP            .ft                  8700.50000            :STOP DEPTH
STEP            .ft                         0.5            :STEP
NULL            .                       -999.25            :NULL VALUE
COMP            .                         SHELL            :COMPANY
WELL            .                DAWSON CREEK 1 25         :WELL NAME
FLD             .                WILLIAMS FORK UNIT        :FIELD NAME
RIGN            .                    SAVANA 650            :Rig Name
RIGTYP          .                          LAND            :Rig Type
SON             .                    BXV3-00069            :Service Order Number
SRVC            .                  Schlumberger            :SERVICE COMPANY
DATE            .                    10/26/2012            :LOG DATE(Composite Date for Composite LAP) (MM/DD/YYYY)
CLAB            .                       County:            :County Label
CNTY            .                         ROUTT            :COUNTY
SLAB            .                        State:            :State/Province Label
STAT            .                      COLORADO            :STATE or PROVINCE
PROV            .                      COLORADO            :STATE or PROVINCE
CTRY            .                           USA            :COUNTRY
CONT_REGION     .                    N. America            :Continent Region
SECT            .                            25            :Section
TOWN            .                            4N            :Township
RANG            .                           88W            :Range
API             .                  051076242000            :API NUMBER
UWI             .                                          :UNIQUE WELL ID
LUL             .                        VERNAL            :Logging Unit Location
LUN             .                          2379            :Logging Unit Number
LOC             .                SHL: 2032' FNL & 1639' FWL:FIELD LOCATION
FL1             .                BHL: 971' FNL & 2022' FEL :Field Location Line 1
FL2             .                                          :Field Location Line 2
LATI            .deg                  40.450486            :LATITUDE
LONG            .deg                 -107.21337            :LONGITUDE
PDAT            .                            GL            :Local Permanent Datum
LMF             .                            KB            :Logging Measured From
APD             .ft                    14.30000            :Elevation of Depth Reference (LMF) Above Permanent Datum
EPD             .ft                  6658.19984            :Elevation of Permanent Datum (PDAT) above Mean Sea Level
EKB             .ft                    14.30000            :Elevation of Kelly Bushing Above Permanent Datum
EDF             .ft                    14.30000            :Elevation of Drill Floor Above Permanent Datum
EGL             .ft                     0.00000            :Elevation of Ground Level Above Permanent Datum
ECF             .ft                     -999.25            :Elevation of Casing Flange above Permanent Datum
#--------------------------------------------------
~CURVE INFORMATION
#MNEM           .UNIT                  API CODE            :DESCRIPTION
#----            ------          --------------            -----------------------------
DEPT            .ft                                        :                                                        Depth Index
DWAL_WALK2      .lbf/lbf                                   :        (ECS-A[1])              (6in)                   Dry Weight Fraction Pseudo Aluminum (SpectroLith WALK2 Model)
DWCA_WALK2      .lbf/lbf                                   :        (ECS-A[1])              (6in)                   Dry Weight Fraction Calcium (SpectroLith WALK2 Model)
DWFE_WALK2      .lbf/lbf                                   :        (ECS-A[1])              (6in)                   Dry Weight Fraction Iron + 0.14 Aluminum (SpectroLith WALK2 Model)
DWGD_WALK2      .ppm                                       :        (ECS-A[1])              (6in)                   Dry Weight Fraction Gadolinium (SpectroLith WALK2 Model)
DWHY_WALK2      .lbf/lbf                                   :        (ECS-A[1])              (6in)                   Dry Weight Fraction Hydrogen Associated with Coal (SpectroLith WALK2 Model)
DWSI_WALK2      .lbf/lbf                                   :        (ECS-A[1])              (6in)                   Dry Weight Fraction Silicon (SpectroLith WALK2 Model)
DWSU_WALK2      .lbf/lbf                                   :        (ECS-A[1])              (6in)                   Dry Weight Fraction Sulfur (SpectroLith WALK2 Model)
DWTI_WALK2      .lbf/lbf                                   :        (ECS-A[1])              (6in)                   Dry Weight Fraction Titanium (SpectroLith WALK2 Model)
DXFE_WALK2      .lbf/lbf                                   :        (ECS-A[1])              (6in)                   Dry Weight Fraction Excess Iron (SpectroLith WALK2 Model)
WANH_WALK2      .lbf/lbf                                   :        (ECS-A[1])              (6in)                   Dry Weight Fraction Anhydrite/Gypsum (SpectroLith WALK2 Model)
WCAR_WALK2      .lbf/lbf                                   :        (ECS-A[1])              (6in)                   Dry Weight Fraction Carbonate (SpectroLith WALK2 Model)
WCLA_WALK2      .lbf/lbf                                   :        (ECS-A[1])              (6in)                   Dry Weight Fraction Clay (SpectroLith WALK2 Model)
WCOA_WALK2      .lbf/lbf                                   :        (ECS-A[1])              (6in)                   Dry Weight Fraction Coal (SpectroLith WALK2 Model)
WEVA_WALK2      .lbf/lbf                                   :        (ECS-A[1])              (6in)                   Dry Weight Fraction Salt (SpectroLith WALK2 Model)
WPYR_WALK2      .lbf/lbf                                   :        (ECS-A[1])              (6in)                   Dry Weight Fraction Pyrite (SpectroLith WALK2 Model)
WQFM_WALK2      .lbf/lbf                                   :        (ECS-A[1])              (6in)                   Dry Weight Fraction Quartz+Feldspar+Mica (QFM) (SpectroLith WALK2 Model)
WSID_WALK2      .lbf/lbf                                   :        (ECS-A[1])              (6in)                   Dry Weight Fraction Siderite (SpectroLith WALK2 Model)
#-------------------------------------------------------------
#            DEPT   DWAL_WALK2   DWCA_WALK2   DWFE_WALK2   DWGD_WALK2   DWHY_WALK2   DWSI_WALK2   DWSU_WALK2   DWTI_WALK2   DXFE_WALK2   WANH_WALK2   WCAR_WALK2   WCLA_WALK2   WCOA_WALK2   WEVA_WALK2   WPYR_WALK2   WQFM_WALK2   WSID_WALK2 
#                   (ECS-A[1])   (ECS-A[1])   (ECS-A[1])   (ECS-A[1])   (ECS-A[1])   (ECS-A[1])   (ECS-A[1])   (ECS-A[1])   (ECS-A[1])   (ECS-A[1])   (ECS-A[1])   (ECS-A[1])   (ECS-A[1])   (ECS-A[1])   (ECS-A[1])   (ECS-A[1])   (ECS-A[1]) 
#                                                                                                                                                                                                                                              
#                        (6in)        (6in)        (6in)        (6in)        (6in)        (6in)        (6in)        (6in)        (6in)        (6in)        (6in)        (6in)        (6in)        (6in)        (6in)        (6in)        (6in) 
~ASCII
# ...
       7972.00000      0.06953      0.03727      0.04115      7.69553      0.00008      0.30017      0.00000      0.00336      0.00000      0.00000      0.02526      0.42611      0.00000      0.00000      0.00000      0.54863      0.00000
       7972.50000      0.07124      0.03392      0.04196      7.33894      0.00000      0.30123      0.00000      0.00396      0.00000      0.00000      0.01624      0.44113      0.00000      0.00000      0.00000      0.54263      0.00000
       7973.00000      0.07358      0.03317      0.04331      8.18637      0.00000      0.29797      0.00000      0.00419      0.00000      0.00000      0.01422      0.46177      0.00000      0.00000      0.00000      0.52401      0.00000
       7973.50000      0.07733      0.03144      0.04558      8.41263      0.00000      0.29325      0.00000      0.00422      0.00000      0.00000      0.00958      0.49471      0.00000      0.00000      0.00000      0.49571      0.00000
       7974.00000      0.08166      0.03035      0.04815      8.44798      0.00030      0.28682      0.00000      0.00442      0.00000      0.00000      0.00664      0.53275      0.00000      0.00000      0.00000      0.46061      0.00000
       7974.50000      0.08058      0.02318      0.04746      8.19546      0.00019      0.29715      0.00000      0.00448      0.00000      0.00000      0.00000      0.52324      0.00000      0.00000      0.00000      0.47676      0.00000
       7975.00000      0.07734      0.02127      0.04556      7.08680      0.00001      0.30514      0.00000      0.00429      0.00000      0.00000      0.00000      0.49480      0.00000      0.00000      0.00000      0.50520      0.00000
       7975.50000      0.07267      0.02048      0.04288      5.71157      0.00000      0.31430      0.00000      0.00385      0.00000      0.00000      0.00000      0.45376      0.00000      0.00000      0.00000      0.54624      0.00000
       7976.00000      0.07241      0.02870      0.04290      4.81627      0.00000      0.30500      0.00000      0.00340      0.00000      0.00000      0.00221      0.45146      0.00000      0.00000      0.00000      0.54633      0.00000
       7976.50000      0.07034      0.02882      0.04164      5.59355      0.00000      0.30859      0.00000      0.00337      0.00000      0.00000      0.00252      0.43323      0.00000      0.00000      0.00000      0.56425      0.00000
       7977.00000      0.06748      0.04207      0.04011      7.87196      0.00011      0.29806      0.00000      0.00282      0.00000      0.00000      0.03816      0.40813      0.00000      0.00000      0.00000      0.55371      0.00000
       7977.50000      0.06343      0.04784      0.03764      9.17910      0.00020      0.29860      0.00000      0.00281      0.00000      0.00000      0.05370      0.37250      0.00000      0.00000      0.00000      0.57380      0.00000
       7978.00000      0.06175      0.06261      0.03669     10.05689      0.00001      0.28431      0.00000      0.00261      0.00000      0.00000      0.09342      0.35774      0.00000      0.00000      0.00000      0.54884      0.00000
       7978.50000      0.06488      0.05110      0.03749      7.71592      0.00029      0.29316      0.00623      0.00328      0.00000      0.00000      0.06246      0.38527      0.00000      0.00000      0.01166      0.54062      0.00000
       7979.00000      0.06952      0.04370      0.03952      5.28070      0.00026      0.29419      0.01171      0.00340      0.00000      0.00000      0.04256      0.42606      0.00000      0.00000      0.02190      0.50948      0.00000
       7979.50000      0.07391      0.02802      0.04180      3.38678      0.00027      0.30498      0.01386      0.00366      0.00000      0.00000      0.00037      0.46465      0.00000      0.00000      0.02593      0.50904      0.00000
       7980.00000      0.07331      0.03488      0.04292      5.41196      0.00000      0.29667      0.00337      0.00356      0.00000      0.00000      0.01884      0.45934      0.00000      0.00000      0.00631      0.51551      0.00000
       7980.50000      0.07171      0.03356      0.04222      9.42848      0.00000      0.30083      0.00000      0.00406      0.00000      0.00000      0.01529      0.44530      0.00000      0.00000      0.00000      0.53941      0.00000
       7981.00000      0.07326      0.03187      0.04292     11.82890      0.00000      0.30024      0.00000      0.00467      0.00000      0.00000      0.01072      0.45894      0.00000      0.00000      0.00000      0.53034      0.00000
       7981.50000      0.07605      0.01267      0.04433     13.67485      0.00000      0.31792      0.00000      0.00545      0.00000      0.00000      0.00000      0.48345      0.00000      0.00000      0.00000      0.51655      0.00000
       7982.00000      0.08037      0.00041      0.04701     11.83839      0.00000      0.32441      0.00000      0.00532      0.00000      0.00000      0.00000      0.52142      0.00000      0.00000      0.00000      0.47858      0.00000
       7982.50000      0.07879      0.00000      0.04634      9.88624      0.00000      0.32746      0.00000      0.00458      0.00000      0.00000      0.00000      0.50755      0.00000      0.00000      0.00000      0.49245      0.00000
       7983.00000      0.07476      0.00552      0.04423      7.86896      0.00055      0.32793      0.00000      0.00366      0.00000      0.00000      0.00000      0.47214      0.00000      0.00000      0.00000      0.52786      0.00000
       7983.50000      0.06981      0.01889      0.04141      6.80422      0.00105      0.32105      0.00000      0.00312      0.00000      0.00000      0.00000      0.42855      0.00000      0.00000      0.00000      0.57145      0.00000
       7984.00000      0.06438      0.02965      0.03816      6.04003      0.00114      0.31819      0.00000      0.00297      0.00000      0.00000      0.00475      0.38089      0.00000      0.00000      0.00000      0.61436      0.00000
       7984.50000      0.06369      0.03772      0.03776      4.66195      0.00078      0.30999      0.00000      0.00291      0.00000      0.00000      0.02647      0.37479      0.00000      0.00000      0.00000      0.59874      0.00000
       7985.00000      0.06437      0.03818      0.03812      5.33849      0.00049      0.30828      0.00000      0.00306      0.00000      0.00000      0.02770      0.38079      0.00000      0.00000      0.00000      0.59151      0.00000
       7985.50000      0.06923      0.03959      0.04103      6.51940      0.00057      0.29795      0.00000      0.00320      0.00000      0.00000      0.03150      0.42347      0.00000      0.00000      0.00000      0.54503      0.00000
       7986.00000      0.07224      0.03619      0.04276      8.66007      0.00077      0.29660      0.00000      0.00348      0.00000      0.00000      0.02235      0.44995      0.00000      0.00000      0.00000      0.52771      0.00000
       7986.50000      0.07430      0.03944      0.04399      7.91119      0.00092      0.28912      0.00000      0.00355      0.00000      0.00000      0.03110      0.46809      0.00000      0.00000      0.00000      0.50081      0.00000
       7987.00000      0.07338      0.04099      0.04340      6.77706      0.00077      0.28901      0.00000      0.00361      0.00000      0.00000      0.03526      0.45993      0.00000      0.00000      0.00000      0.50481      0.00000
       7987.50000      0.07345      0.04634      0.04348      4.65855      0.00068      0.28259      0.00000      0.00352      0.00000      0.00000      0.04966      0.46057      0.00000      0.00000      0.00000      0.48977      0.00000
       7988.00000      0.07616      0.04386      0.04510      4.08308      0.00042      0.28065      0.00000      0.00363      0.00000      0.00000      0.04298      0.48443      0.00000      0.00000      0.00000      0.47259      0.00000
       7988.50000      0.08003      0.04390      0.04755      2.92751      0.00030      0.27356      0.00000      0.00339      0.00000      0.00000      0.04310      0.51840      0.00000      0.00000      0.00000      0.43851      0.00000
