~VERSION INFORMATION 
VERS  .    2.0                                     :CWLS Log ASCII Standard - VERSION 2.0
WRAP  .    NO                                      :One Line per Depth step
PROD  .    Schlumberger Technology Corp.           :LAS Producer
PROG  .    Horizon LASWriter 3.1.9755.0            :LAS Program name and version
SOURCE.    Composite 1 (2-Log[4]/Up + 2-Repeat[3]/Up):Run&Pass Information
CREA  .    10/26/2012                              :LAS Creation date {MM/DD/YYYY}
#--------------------------------------------------
~WELL INFORMATION 
#MNEM           .UNIT                      DATA            :DESCRIPTION
#----            ------          --------------            -----------------------------
STRT            .ft                  6000.00000            :START DEPTH
STOP            .ft                  8700.50000            :STOP DEPTH
STEP            .ft                         0.5            :STEP
NULL            .                       -999.25            :NULL VALUE
COMP            .                         SHELL            :COMPANY
WELL            .                DAWSON CREEK 1 25         :WELL NAME
FLD             .                WILLIAMS FORK UNIT        :FIELD NAME
RIGN            .                    SAVANA 650            :Rig Name
RIGTYP          .                          LAND            :Rig Type
SON             .                    BXV3-00069            :Service Order Number
SRVC            .                  Schlumberger            :SERVICE COMPANY
DATE            .                    10/26/2012            :LOG DATE(Composite Date for Composite LAP) (MM/DD/YYYY)
CLAB            .                       County:            :County Label
CNTY            .                         ROUTT            :COUNTY
SLAB            .                        State:            :State/Province Label
STAT            .                      COLORADO            :STATE or PROVINCE
PROV            .                      COLORADO            :STATE or PROVINCE
CTRY            .                           USA            :COUNTRY
CONT_REGION     .                    N. America            :Continent Region
SECT            .                            25            :Section
TOWN            .                            4N            :Township
RANG            .                           88W            :Range
API             .                  051076242000            :API NUMBER
UWI             .                                          :UNIQUE WELL ID
LUL             .                        VERNAL            :Logging Unit Location
LUN             .                          2379            :Logging Unit Number
LOC             .                SHL: 2032' FNL & 1639' FWL:FIELD LOCATION
FL1             .                BHL: 971' FNL & 2022' FEL :Field Location Line 1
FL2             .                                          :Field Location Line 2
LATI            .deg                  40.450486            :LATITUDE
LONG            .deg                 -107.21337            :LONGITUDE
PDAT            .                            GL            :Local Permanent Datum
LMF             .                            KB            :Logging Measured From
APD             .ft                    14.30000            :Elevation of Depth Reference (LMF) Above Permanent Datum
EPD             .ft                  6658.19984            :Elevation of Permanent Datum (PDAT) above Mean Sea Level
EKB             .ft                    14.30000            :Elevation of Kelly Bushing Above Permanent Datum
EDF             .ft                    14.30000            :Elevation of Drill Floor Above Permanent Datum
EGL             .ft                     0.00000            :Elevation of Ground Level Above Permanent Datum
ECF             .ft                     -999.25            :Elevation of Casing Flange above Permanent Datum
#--------------------------------------------------
~CURVE INFORMATION
#MNEM           .UNIT                  API CODE            :DESCRIPTION
#----            ------          --------------            -----------------------------
DEPT            .ft                                        :                                                        Depth Index
DWAL_WALK2      .lbf/lbf                                   :        (ECS-A[1])              (6in)                   Dry Weight Fraction Pseudo Aluminum (SpectroLith WALK2 Model)
DWCA_WALK2      .lbf/lbf                                   :        (ECS-A[1])              (6in)                   Dry Weight Fraction Calcium (SpectroLith WALK2 Model)
DWFE_WALK2      .lbf/lbf                                   :        (ECS-A[1])              (6in)                   Dry Weight Fraction Iron + 0.14 Aluminum (SpectroLith WALK2 Model)
DWGD_WALK2      .ppm                                       :        (ECS-A[1])              (6in)                   Dry Weight Fraction Gadolinium (SpectroLith WALK2 Model)
DWHY_WALK2      .lbf/lbf                                   :        (ECS-A[1])              (6in)                   Dry Weight Fraction Hydrogen Associated with Coal (SpectroLith WALK2 Model)
DWSI_WALK2      .lbf/lbf                                   :        (ECS-A[1])              (6in)                   Dry Weight Fraction Silicon (SpectroLith WALK2 Model)
DWSU_WALK2      .lbf/lbf                                   :        (ECS-A[1])              (6in)                   Dry Weight Fraction Sulfur (SpectroLith WALK2 Model)
DWTI_WALK2      .lbf/lbf                                   :        (ECS-A[1])              (6in)                   Dry Weight Fraction Titanium (SpectroLith WALK2 Model)
DXFE_WALK2      .lbf/lbf                                   :        (ECS-A[1])              (6in)                   Dry Weight Fraction Excess Iron (SpectroLith WALK2 Model)
WANH_WALK2      .lbf/lbf                                   :        (ECS-A[1])              (6in)                   Dry Weight Fraction Anhydrite/Gypsum (SpectroLith WALK2 Model)
WCAR_WALK2      .lbf/lbf                                   :        (ECS-A[1])              (6in)                   Dry Weight Fraction Carbonate (SpectroLith WALK2 Model)
WCLA_WALK2      .lbf/lbf                                   :        (ECS-A[1])              (6in)                   Dry Weight Fraction Clay (SpectroLith WALK2 Model)
WCOA_WALK2      .lbf/lbf                                   :        (ECS-A[1])              (6in)                   Dry Weight Fraction Coal (SpectroLith WALK2 Model)
WEVA_WALK2      .lbf/lbf                                   :        (ECS-A[1])              (6in)                   Dry Weight Fraction Salt (SpectroLith WALK2 Model)
WPYR_WALK2      .lbf/lbf                                   :        (ECS-A[1])              (6in)                   Dry Weight Fraction Pyrite (SpectroLith WALK2 Model)
WQFM_WALK2      .lbf/lbf                                   :        (ECS-A[1])              (6in)                   Dry Weight Fraction Quartz+Feldspar+Mica (QFM) (SpectroLith WALK2 Model)
WSID_WALK2      .lbf/lbf                                   :        (ECS-A[1])              (6in)                   Dry Weight Fraction Siderite (SpectroLith WALK2 Model)
#-------------------------------------------------------------
#            DEPT   DWAL_WALK2   DWCA_WALK2   DWFE_WALK2   DWGD_WALK2   DWHY_WALK2   DWSI_WALK2   DWSU_WALK2   DWTI_WALK2   DXFE_WALK2   WANH_WALK2   WCAR_WALK2   WCLA_WALK2   WCOA_WALK2   WEVA_WALK2   WPYR_WALK2   WQFM_WALK2   WSID_WALK2 
#                   (ECS-A[1])   (ECS-A[1])   (ECS-A[1])   (ECS-A[1])   (ECS-A[1])   (ECS-A[1])   (ECS-A[1])   (ECS-A[1])   (ECS-A[1])   (ECS-A[1])   (ECS-A[1])   (ECS-A[1])   (ECS-A[1])   (ECS-A[1])   (ECS-A[1])   (ECS-A[1])   (ECS-A[1]) 
#                                                                                                                                                                                                                                              
#                        (6in)        (6in)        (6in)        (6in)        (6in)        (6in)        (6in)        (6in)        (6in)        (6in)        (6in)        (6in)        (6in)        (6in)        (6in)        (6in)        (6in) 
~ASCII
# ...
       7785.00000      0.07653      0.03079      0.04495      3.70056      0.00000      0.29558      0.00215      0.00382      0.00000      0.00000      0.00783      0.48770      0.00000      0.00000      0.00403      0.50045      0.00000
       7785.50000      0.07738      0.02133      0.04561      6.04787      0.00007      0.30498      0.00000      0.00423      0.00000      0.00000      0.00000      0.49512      0.00000      0.00000      0.00000      0.50488      0.00000
       7786.00000      0.07695      0.00827      0.04521      8.30950      0.00000      0.32112      0.00000      0.00460      0.00000      0.00000      0.00000      0.49139      0.00000      0.00000      0.00000      0.50861      0.00000
       7786.50000      0.07373      0.01188      0.04347     10.89879      0.00020      0.32249      0.00000      0.00400      0.00000      0.00000      0.00000      0.46306      0.00000      0.00000      0.00000      0.53694      0.00000
       7787.00000      0.06764      0.02495      0.04015     11.95873      0.00013      0.31782      0.00000      0.00298      0.00000      0.00000      0.00000      0.40954      0.00000      0.00000      0.00000      0.59046      0.00000
       7787.50000      0.06368      0.03497      0.03800      9.60959      0.00013      0.31298      0.00000      0.00228      0.00000      0.00000      0.01908      0.37476      0.00000      0.00000      0.00000      0.60617      0.00000
       7788.00000      0.06133      0.03735      0.03653      6.27487      0.00017      0.31447      0.00000      0.00237      0.00000      0.00000      0.02546      0.35408      0.00000      0.00000      0.00000      0.62046      0.00000
       7788.50000      0.06252      0.02564      0.03710      2.81423      0.00031      0.32614      0.00000      0.00279      0.00000      0.00000      0.00000      0.36456      0.00000      0.00000      0.00000      0.63544      0.00000
       7789.00000      0.06342      0.01983      0.03727      2.48533      0.00044      0.33166      0.00129      0.00329      0.00000      0.00000      0.00000      0.37243      0.00000      0.00000      0.00242      0.62516      0.00000
       7789.50000      0.06419      0.02579      0.03722      4.74960      0.00008      0.32380      0.00497      0.00333      0.00000      0.00000      0.00000      0.37917      0.00000      0.00000      0.00931      0.61152      0.00000
       7790.00000      0.06552      0.03760      0.03733      8.00556      0.00000      0.30827      0.00847      0.00388      0.00000      0.00000      0.02615      0.39086      0.00000      0.00000      0.01585      0.56714      0.00000
       7790.50000      0.06706      0.03727      0.03807     11.37578      0.00000      0.30608      0.00852      0.00439      0.00000      0.00000      0.02525      0.40445      0.00000      0.00000      0.01594      0.55436      0.00000
       7791.00000      0.06972      0.02309      0.03928     10.88357      0.00000      0.31824      0.00941      0.00515      0.00000      0.00000      0.00000      0.42781      0.00000      0.00000      0.01761      0.55459      0.00000
       7791.50000      0.06712      0.01831      0.03801      8.87447      0.00000      0.32819      0.00930      0.00438      0.00000      0.00000      0.00000      0.40497      0.00000      0.00000      0.01740      0.57764      0.00000
       7792.00000      0.06588      0.02499      0.03723      5.54206      0.00000      0.32265      0.01215      0.00342      0.00000      0.00000      0.00000      0.39409      0.00000      0.00000      0.02272      0.58319      0.00000
       7792.50000      0.06388      0.03089      0.03669      4.97467      0.00000      0.31873      0.00940      0.00261      0.00000      0.00000      0.00809      0.37643      0.00000      0.00000      0.01760      0.59788      0.00000
       7793.00000      0.06792      0.02996      0.03958      4.20852      0.00000      0.31215      0.00627      0.00266      0.00000      0.00000      0.00560      0.41201      0.00000      0.00000      0.01173      0.57065      0.00000
       7793.50000      0.06808      0.02899      0.04052      4.95290      0.00000      0.31222      0.00000      0.00271      0.00000      0.00000      0.00298      0.41336      0.00000      0.00000      0.00000      0.58366      0.00000
       7794.00000      0.07014      0.03031      0.04172      6.00730      0.00000      0.30702      0.00000      0.00285      0.00000      0.00000      0.00652      0.43149      0.00000      0.00000      0.00000      0.56199      0.00000
       7794.50000      0.06691      0.03252      0.03967      8.14937      0.00000      0.31032      0.00000      0.00307      0.00000      0.00000      0.01248      0.40312      0.00000      0.00000      0.00000      0.58440      0.00000
       7795.00000      0.06667      0.03539      0.03933      9.39615      0.00000      0.30757      0.00000      0.00356      0.00000      0.00000      0.02020      0.40102      0.00000      0.00000      0.00000      0.57878      0.00000
       7795.50000      0.06430      0.04489      0.03782      9.20673      0.00000      0.30081      0.00000      0.00373      0.00000      0.00000      0.04577      0.38015      0.00000      0.00000      0.00000      0.57409      0.00000
       7796.00000      0.06433      0.05353      0.03789      8.61251      0.00009      0.29063      0.00000      0.00359      0.00000      0.00000      0.06899      0.38041      0.00000      0.00000      0.00000      0.55061      0.00000
       7796.50000      0.06196      0.06286      0.03664      7.71144      0.00037      0.28381      0.00000      0.00308      0.00000      0.00000      0.09410      0.35960      0.00000      0.00000      0.00000      0.54631      0.00000
       7797.00000      0.06155      0.06021      0.03645      7.25582      0.00021      0.28759      0.00000      0.00293      0.00000      0.00000      0.08695      0.35602      0.00000      0.00000      0.00000      0.55702      0.00000
       7797.50000      0.06023      0.05556      0.03565      6.78046      0.00000      0.29539      0.00000      0.00290      0.00000      0.00000      0.07446      0.34435      0.00000      0.00000      0.00000      0.58119      0.00000
       7798.00000      0.06085      0.04042      0.03589      6.39760      0.00000      0.31207      0.00000      0.00325      0.00000      0.00000      0.03372      0.34982      0.00000      0.00000      0.00000      0.61646      0.00000
       7798.50000      0.06029      0.02880      0.03546      6.02456      0.00018      0.32672      0.00000      0.00348      0.00000      0.00000      0.00248      0.34489      0.00000      0.00000      0.00000      0.65263      0.00000
       7799.00000      0.06102      0.02103      0.03560      5.04436      0.00054      0.33477      0.00149      0.00374      0.00000      0.00000      0.00000      0.35133      0.00000      0.00000      0.00280      0.64587      0.00000
       7799.50000      0.06298      0.01619      0.03642      4.08742      0.00048      0.33724      0.00352      0.00401      0.00000      0.00000      0.00000      0.36860      0.00000      0.00000      0.00658      0.62481      0.00000
       7800.00000      0.06525      0.01800      0.03778      3.26020      0.00028      0.33108      0.00322      0.00417      0.00000      0.00000      0.00000      0.38847      0.00000      0.00000      0.00602      0.60551      0.00000
       7800.50000      0.06882      0.01868      0.04029      3.10111      0.00000      0.32355      0.00143      0.00395      0.00000      0.00000      0.00000      0.41986      0.00000      0.00000      0.00268      0.57745      0.00000
       7801.00000      0.06852      0.02776      0.04008      2.34310      0.00012      0.31351      0.00323      0.00340      0.00000      0.00000      0.00000      0.41728      0.00000      0.00000      0.00605      0.57667      0.00000
       7801.50000      0.06654      0.03265      0.03932      3.00783      0.00014      0.31095      0.00096      0.00304      0.00000      0.00000      0.01284      0.39983      0.00000      0.00000      0.00181      0.58553      0.00000
