~VERSION INFORMATION 
VERS  .    2.0                                     :CWLS Log ASCII Standard - VERSION 2.0
WRAP  .    NO                                      :One Line per Depth step
PROD  .    Schlumberger Technology Corp.           :LAS Producer
PROG  .    Horizon LASWriter 3.1.9755.0            :LAS Program name and version
SOURCE.    Composite 1 (2-Log[4]/Up + 2-Repeat[3]/Up):Run&Pass Information
CREA  .    10/26/2012                              :LAS Creation date {MM/DD/YYYY}
#--------------------------------------------------
~WELL INFORMATION 
#MNEM           .UNIT                      DATA            :DESCRIPTION
#----            ------          --------------            -----------------------------
STRT            .ft                  6000.00000            :START DEPTH
STOP            .ft                  8700.50000            :STOP DEPTH
STEP            .ft                         0.5            :STEP
NULL            .                       -999.25            :NULL VALUE
COMP            .                         SHELL            :COMPANY
WELL            .                DAWSON CREEK 1 25         :WELL NAME
FLD             .                WILLIAMS FORK UNIT        :FIELD NAME
RIGN            .                    SAVANA 650            :Rig Name
RIGTYP          .                          LAND            :Rig Type
SON             .                    BXV3-00069            :Service Order Number
SRVC            .                  Schlumberger            :SERVICE COMPANY
DATE            .                    10/26/2012            :LOG DATE(Composite Date for Composite LAP) (MM/DD/YYYY)
CLAB            .                       County:            :County Label
CNTY            .                         ROUTT            :COUNTY
SLAB            .                        State:            :State/Province Label
STAT            .                      COLORADO            :STATE or PROVINCE
PROV            .                      COLORADO            :STATE or PROVINCE
CTRY            .                           USA            :COUNTRY
CONT_REGION     .                    N. America            :Continent Region
SECT            .                            25            :Section
TOWN            .                            4N            :Township
RANG            .                           88W            :Range
API             .                  051076242000            :API NUMBER
UWI             .                                          :UNIQUE WELL ID
LUL             .                        VERNAL            :Logging Unit Location
LUN             .                          2379            :Logging Unit Number
LOC             .                SHL: 2032' FNL & 1639' FWL:FIELD LOCATION
FL1             .                BHL: 971' FNL & 2022' FEL :Field Location Line 1
FL2             .                                          :Field Location Line 2
LATI            .deg                  40.450486            :LATITUDE
LONG            .deg                 -107.21337            :LONGITUDE
PDAT            .                            GL            :Local Permanent Datum
LMF             .                            KB            :Logging Measured From
APD             .ft                    14.30000            :Elevation of Depth Reference (LMF) Above Permanent Datum
EPD             .ft                  6658.19984            :Elevation of Permanent Datum (PDAT) above Mean Sea Level
EKB             .ft                    14.30000            :Elevation of Kelly Bushing Above Permanent Datum
EDF             .ft                    14.30000            :Elevation of Drill Floor Above Permanent Datum
EGL             .ft                     0.00000            :Elevation of Ground Level Above Permanent Datum
ECF             .ft                     -999.25            :Elevation of Casing Flange above Permanent Datum
#--------------------------------------------------
~CURVE INFORMATION
#MNEM           .UNIT                  API CODE            :DESCRIPTION
#----            ------          --------------            -----------------------------
DEPT            .ft                                        :                                                        Depth Index
DWAL_WALK2      .lbf/lbf                                   :        (ECS-A[1])              (6in)                   Dry Weight Fraction Pseudo Aluminum (SpectroLith WALK2 Model)
DWCA_WALK2      .lbf/lbf                                   :        (ECS-A[1])              (6in)                   Dry Weight Fraction Calcium (SpectroLith WALK2 Model)
DWFE_WALK2      .lbf/lbf                                   :        (ECS-A[1])              (6in)                   Dry Weight Fraction Iron + 0.14 Aluminum (SpectroLith WALK2 Model)
DWGD_WALK2      .ppm                                       :        (ECS-A[1])              (6in)                   Dry Weight Fraction Gadolinium (SpectroLith WALK2 Model)
DWHY_WALK2      .lbf/lbf                                   :        (ECS-A[1])              (6in)                   Dry Weight Fraction Hydrogen Associated with Coal (SpectroLith WALK2 Model)
DWSI_WALK2      .lbf/lbf                                   :        (ECS-A[1])              (6in)                   Dry Weight Fraction Silicon (SpectroLith WALK2 Model)
DWSU_WALK2      .lbf/lbf                                   :        (ECS-A[1])              (6in)                   Dry Weight Fraction Sulfur (SpectroLith WALK2 Model)
DWTI_WALK2      .lbf/lbf                                   :        (ECS-A[1])              (6in)                   Dry Weight Fraction Titanium (SpectroLith WALK2 Model)
DXFE_WALK2      .lbf/lbf                                   :        (ECS-A[1])              (6in)                   Dry Weight Fraction Excess Iron (SpectroLith WALK2 Model)
WANH_WALK2      .lbf/lbf                                   :        (ECS-A[1])              (6in)                   Dry Weight Fraction Anhydrite/Gypsum (SpectroLith WALK2 Model)
WCAR_WALK2      .lbf/lbf                                   :        (ECS-A[1])              (6in)                   Dry Weight Fraction Carbonate (SpectroLith WALK2 Model)
WCLA_WALK2      .lbf/lbf                                   :        (ECS-A[1])              (6in)                   Dry Weight Fraction Clay (SpectroLith WALK2 Model)
WCOA_WALK2      .lbf/lbf                                   :        (ECS-A[1])              (6in)                   Dry Weight Fraction Coal (SpectroLith WALK2 Model)
WEVA_WALK2      .lbf/lbf                                   :        (ECS-A[1])              (6in)                   Dry Weight Fraction Salt (SpectroLith WALK2 Model)
WPYR_WALK2      .lbf/lbf                                   :        (ECS-A[1])              (6in)                   Dry Weight Fraction Pyrite (SpectroLith WALK2 Model)
WQFM_WALK2      .lbf/lbf                                   :        (ECS-A[1])              (6in)                   Dry Weight Fraction Quartz+Feldspar+Mica (QFM) (SpectroLith WALK2 Model)
WSID_WALK2      .lbf/lbf                                   :        (ECS-A[1])              (6in)                   Dry Weight Fraction Siderite (SpectroLith WALK2 Model)
#-------------------------------------------------------------
#            DEPT   DWAL_WALK2   DWCA_WALK2   DWFE_WALK2   DWGD_WALK2   DWHY_WALK2   DWSI_WALK2   DWSU_WALK2   DWTI_WALK2   DXFE_WALK2   WANH_WALK2   WCAR_WALK2   WCLA_WALK2   WCOA_WALK2   WEVA_WALK2   WPYR_WALK2   WQFM_WALK2   WSID_WALK2 
#                   (ECS-A[1])   (ECS-A[1])   (ECS-A[1])   (ECS-A[1])   (ECS-A[1])   (ECS-A[1])   (ECS-A[1])   (ECS-A[1])   (ECS-A[1])   (ECS-A[1])   (ECS-A[1])   (ECS-A[1])   (ECS-A[1])   (ECS-A[1])   (ECS-A[1])   (ECS-A[1])   (ECS-A[1]) 
#                                                                                                                                                                                                                                              
#                        (6in)        (6in)        (6in)        (6in)        (6in)        (6in)        (6in)        (6in)        (6in)        (6in)        (6in)        (6in)        (6in)        (6in)        (6in)        (6in)        (6in) 
~ASCII
# ...
       6187.00000      0.06265      0.00439      0.03626      7.52159      0.00009      0.35157      0.00478      0.00367      0.00000      0.00000      0.00000      0.36563      0.00000      0.00000      0.00894      0.62542      0.00000
       6187.50000      0.05950      0.00847      0.03457      8.77749      0.00010      0.35226      0.00360      0.00328      0.00000      0.00000      0.00000      0.33801      0.00000      0.00000      0.00673      0.65526      0.00000
       6188.00000      0.05814      0.00803      0.03422      8.84801      0.00001      0.35477      0.00000      0.00329      0.00000      0.00000      0.00000      0.32599      0.00000      0.00000      0.00000      0.67401      0.00000
       6188.50000      0.05885      0.01578      0.03461      8.94636      0.00016      0.34449      0.00000      0.00341      0.00000      0.00000      0.00000      0.33224      0.00000      0.00000      0.00000      0.66776      0.00000
       6189.00000      0.06023      0.02759      0.03553      8.65638      0.00013      0.32815      0.00000      0.00323      0.00000      0.00000      0.00000      0.34442      0.00000      0.00000      0.00000      0.65558      0.00000
       6189.50000      0.05946      0.04660      0.03520      8.53105      0.00000      0.30721      0.00000      0.00286      0.00000      0.00000      0.05034      0.33762      0.00000      0.00000      0.00000      0.61203      0.00000
       6190.00000      0.05881      0.04787      0.03488      8.18095      0.00000      0.30683      0.00000      0.00267      0.00000      0.00000      0.05376      0.33193      0.00000      0.00000      0.00000      0.61431      0.00000
       6190.50000      0.05839      0.04429      0.03462      8.41730      0.00000      0.31176      0.00000      0.00268      0.00000      0.00000      0.04414      0.32826      0.00000      0.00000      0.00000      0.62760      0.00000
       6191.00000      0.06169      0.03289      0.03655      8.87925      0.00000      0.31920      0.00000      0.00288      0.00000      0.00000      0.01348      0.35724      0.00000      0.00000      0.00000      0.62928      0.00000
       6191.50000      0.06371      0.02881      0.03760      9.35750      0.00000      0.32052      0.00103      0.00300      0.00000      0.00000      0.00250      0.37499      0.00000      0.00000      0.00193      0.62058      0.00000
       6192.00000      0.06383      0.02869      0.03692      7.01820      0.00000      0.32114      0.00633      0.00305      0.00000      0.00000      0.00218      0.37604      0.00000      0.00000      0.01185      0.60993      0.00000
       6192.50000      0.06165      0.03049      0.03455      3.56695      0.00000      0.32393      0.01392      0.00303      0.00000      0.00000      0.00701      0.35688      0.00000      0.00000      0.02605      0.61007      0.00000
       6193.00000      0.06050      0.03158      0.03400      1.21118      0.00026      0.32458      0.01249      0.00315      0.00000      0.00000      0.00995      0.34675      0.00000      0.00000      0.02336      0.61994      0.00000
       6193.50000      0.06079      0.02690      0.03370      1.82039      0.00054      0.32997      0.01509      0.00346      0.00000      0.00000      0.00000      0.34929      0.00000      0.00000      0.02824      0.62247      0.00000
       6194.00000      0.05920      0.01994      0.03312      3.57613      0.00079      0.34058      0.01101      0.00388      0.00000      0.00000      0.00000      0.33532      0.00000      0.00000      0.02059      0.64409      0.00000
       6194.50000      0.05700      0.01550      0.03171      5.43301      0.00062      0.34978      0.01094      0.00410      0.00000      0.00000      0.00000      0.31602      0.00000      0.00000      0.02046      0.66352      0.00000
       6195.00000      0.05499      0.01370      0.03141      6.06108      0.00046      0.35464      0.00388      0.00420      0.00000      0.00000      0.00000      0.29830      0.00000      0.00000      0.00725      0.69445      0.00000
       6195.50000      0.05490      0.02277      0.03190      6.65073      0.00000      0.34371      0.00077      0.00392      0.00000      0.00000      0.00000      0.29754      0.00000      0.00000      0.00143      0.70103      0.00000
       6196.00000      0.05615      0.03247      0.03255      7.18692      0.00000      0.33024      0.00221      0.00371      0.00000      0.00000      0.01235      0.30857      0.00000      0.00000      0.00413      0.67496      0.00000
       6196.50000      0.05746      0.04566      0.03261      7.31889      0.00000      0.31317      0.00869      0.00330      0.00000      0.00000      0.04783      0.32007      0.00000      0.00000      0.01626      0.61585      0.00000
       6197.00000      0.05923      0.04374      0.03305      8.35313      0.00000      0.31284      0.01354      0.00323      0.00000      0.00000      0.04265      0.33559      0.00000      0.00000      0.02534      0.59642      0.00000
       6197.50000      0.06033      0.03628      0.03385      8.84841      0.00000      0.31944      0.01264      0.00321      0.00000      0.00000      0.02259      0.34528      0.00000      0.00000      0.02365      0.60849      0.00000
       6198.00000      0.06205      0.02908      0.03572     11.37819      0.00000      0.32399      0.00518      0.00376      0.00000      0.00000      0.00323      0.36038      0.00000      0.00000      0.00969      0.62669      0.00000
       6198.50000      0.06113      0.03717      0.03579     11.97991      0.00000      0.31561      0.00000      0.00396      0.00000      0.00000      0.02500      0.35230      0.00000      0.00000      0.00000      0.62271      0.00000
       6199.00000      0.05995      0.05206      0.03511     11.62451      0.00000      0.30031      0.00000      0.00386      0.00000      0.00000      0.06505      0.34195      0.00000      0.00000      0.00000      0.59300      0.00000
       6199.50000      0.05762      0.05681      0.03398      9.27541      0.00025      0.29867      0.00000      0.00310      0.00000      0.00000      0.07783      0.32149      0.00000      0.00000      0.00000      0.60067      0.00000
       6200.00000      0.05784      0.05425      0.03420      8.35434      0.00030      0.30120      0.00000      0.00288      0.00000      0.00000      0.07094      0.32337      0.00000      0.00000      0.00000      0.60569      0.00000
       6200.50000      0.05869      0.04458      0.03477      9.38654      0.00028      0.31091      0.00000      0.00275      0.00000      0.00000      0.04491      0.33088      0.00000      0.00000      0.00000      0.62421      0.00000
       6201.00000      0.06027      0.03755      0.03566     10.88105      0.00039      0.31635      0.00000      0.00295      0.00000      0.00000      0.02600      0.34476      0.00000      0.00000      0.00000      0.62925      0.00000
       6201.50000      0.06337      0.02750      0.03766     11.68711      0.00052      0.32241      0.00000      0.00266      0.00000      0.00000      0.00000      0.37199      0.00000      0.00000      0.00000      0.62801      0.00000
       6202.00000      0.06742      0.01945      0.04013      9.95258      0.00052      0.32452      0.00000      0.00268      0.00000      0.00000      0.00000      0.40758      0.00000      0.00000      0.00000      0.59242      0.00000
       6202.50000      0.07464      0.01244      0.04313      8.53064      0.00022      0.32103      0.00891      0.00313      0.00000      0.00000      0.00000      0.47106      0.00000      0.00000      0.01667      0.51227      0.00000
       6203.00000      0.07724      0.01449      0.04360      8.04107      0.00003      0.31501      0.01822      0.00399      0.00000      0.00000      0.00000      0.49388      0.00000      0.00000      0.03409      0.47204      0.00000
       6203.50000      0.07728      0.02807      0.04271      9.55843      0.00000      0.29993      0.02024      0.00436      0.00000      0.00000      0.00051      0.49424      0.00000      0.00000      0.03787      0.46738      0.00000
