~VERSION INFORMATION 
VERS  .    2.0                                     :CWLS Log ASCII Standard - VERSION 2.0
WRAP  .    NO                                      :One Line per Depth step
PROD  .    Schlumberger Technology Corp.           :LAS Producer
PROG  .    Horizon LASWriter 3.1.9755.0            :LAS Program name and version
SOURCE.    Composite 1 (2-Log[4]/Up + 2-Repeat[3]/Up):Run&Pass Information
CREA  .    10/26/2012                              :LAS Creation date {MM/DD/YYYY}
#--------------------------------------------------
~WELL INFORMATION 
#MNEM           .UNIT                      DATA            :DESCRIPTION
#----            ------          --------------            -----------------------------
STRT            .ft                  6000.00000            :START DEPTH
STOP            .ft                  8700.50000            :STOP DEPTH
STEP            .ft                         0.5            :STEP
NULL            .                       -999.25            :NULL VALUE
COMP            .                         SHELL            :COMPANY
WELL            .                DAWSON CREEK 1 25         :WELL NAME
FLD             .                WILLIAMS FORK UNIT        :FIELD NAME
RIGN            .                    SAVANA 650            :Rig Name
RIGTYP          .                          LAND            :Rig Type
SON             .                    BXV3-00069            :Service Order Number
SRVC            .                  Schlumberger            :SERVICE COMPANY
DATE            .                    10/26/2012            :LOG DATE(Composite Date for Composite LAP) (MM/DD/YYYY)
CLAB            .                       County:            :County Label
CNTY            .                         ROUTT            :COUNTY
SLAB            .                        State:            :State/Province Label
STAT            .                      COLORADO            :STATE or PROVINCE
PROV            .                      COLORADO            :STATE or PROVINCE
CTRY            .                           USA            :COUNTRY
CONT_REGION     .                    N. America            :Continent Region
SECT            .                            25            :Section
TOWN            .                            4N            :Township
RANG            .                           88W            :Range
API             .                  051076242000            :API NUMBER
UWI             .                                          :UNIQUE WELL ID
LUL             .                        VERNAL            :Logging Unit Location
LUN             .                          2379            :Logging Unit Number
LOC             .                SHL: 2032' FNL & 1639' FWL:FIELD LOCATION
FL1             .                BHL: 971' FNL & 2022' FEL :Field Location Line 1
FL2             .                                          :Field Location Line 2
LATI            .deg                  40.450486            :LATITUDE
LONG            .deg                 -107.21337            :LONGITUDE
PDAT            .                            GL            :Local Permanent Datum
LMF             .                            KB            :Logging Measured From
APD             .ft                    14.30000            :Elevation of Depth Reference (LMF) Above Permanent Datum
EPD             .ft                  6658.19984            :Elevation of Permanent Datum (PDAT) above Mean Sea Level
EKB             .ft                    14.30000            :Elevation of Kelly Bushing Above Permanent Datum
EDF             .ft                    14.30000            :Elevation of Drill Floor Above Permanent Datum
EGL             .ft                     0.00000            :Elevation of Ground Level Above Permanent Datum
ECF             .ft                     -999.25            :Elevation of Casing Flange above Permanent Datum
#--------------------------------------------------
~CURVE INFORMATION
#MNEM           .UNIT                  API CODE            :DESCRIPTION
#----            ------          --------------            -----------------------------
DEPT            .ft                                        :                                                        Depth Index
DWAL_WALK2      .lbf/lbf                                   :        (ECS-A[1])              (6in)                   Dry Weight Fraction Pseudo Aluminum (SpectroLith WALK2 Model)
DWCA_WALK2      .lbf/lbf                                   :        (ECS-A[1])              (6in)                   Dry Weight Fraction Calcium (SpectroLith WALK2 Model)
DWFE_WALK2      .lbf/lbf                                   :        (ECS-A[1])              (6in)                   Dry Weight Fraction Iron + 0.14 Aluminum (SpectroLith WALK2 Model)
DWGD_WALK2      .ppm                                       :        (ECS-A[1])              (6in)                   Dry Weight Fraction Gadolinium (SpectroLith WALK2 Model)
DWHY_WALK2      .lbf/lbf                                   :        (ECS-A[1])              (6in)                   Dry Weight Fraction Hydrogen Associated with Coal (SpectroLith WALK2 Model)
DWSI_WALK2      .lbf/lbf                                   :        (ECS-A[1])              (6in)                   Dry Weight Fraction Silicon (SpectroLith WALK2 Model)
DWSU_WALK2      .lbf/lbf                                   :        (ECS-A[1])              (6in)                   Dry Weight Fraction Sulfur (SpectroLith WALK2 Model)
DWTI_WALK2      .lbf/lbf                                   :        (ECS-A[1])              (6in)                   Dry Weight Fraction Titanium (SpectroLith WALK2 Model)
DXFE_WALK2      .lbf/lbf                                   :        (ECS-A[1])              (6in)                   Dry Weight Fraction Excess Iron (SpectroLith WALK2 Model)
WANH_WALK2      .lbf/lbf                                   :        (ECS-A[1])              (6in)                   Dry Weight Fraction Anhydrite/Gypsum (SpectroLith WALK2 Model)
WCAR_WALK2      .lbf/lbf                                   :        (ECS-A[1])              (6in)                   Dry Weight Fraction Carbonate (SpectroLith WALK2 Model)
WCLA_WALK2      .lbf/lbf                                   :        (ECS-A[1])              (6in)                   Dry Weight Fraction Clay (SpectroLith WALK2 Model)
WCOA_WALK2      .lbf/lbf                                   :        (ECS-A[1])              (6in)                   Dry Weight Fraction Coal (SpectroLith WALK2 Model)
WEVA_WALK2      .lbf/lbf                                   :        (ECS-A[1])              (6in)                   Dry Weight Fraction Salt (SpectroLith WALK2 Model)
WPYR_WALK2      .lbf/lbf                                   :        (ECS-A[1])              (6in)                   Dry Weight Fraction Pyrite (SpectroLith WALK2 Model)
WQFM_WALK2      .lbf/lbf                                   :        (ECS-A[1])              (6in)                   Dry Weight Fraction Quartz+Feldspar+Mica (QFM) (SpectroLith WALK2 Model)
WSID_WALK2      .lbf/lbf                                   :        (ECS-A[1])              (6in)                   Dry Weight Fraction Siderite (SpectroLith WALK2 Model)
#-------------------------------------------------------------
#            DEPT   DWAL_WALK2   DWCA_WALK2   DWFE_WALK2   DWGD_WALK2   DWHY_WALK2   DWSI_WALK2   DWSU_WALK2   DWTI_WALK2   DXFE_WALK2   WANH_WALK2   WCAR_WALK2   WCLA_WALK2   WCOA_WALK2   WEVA_WALK2   WPYR_WALK2   WQFM_WALK2   WSID_WALK2 
#                   (ECS-A[1])   (ECS-A[1])   (ECS-A[1])   (ECS-A[1])   (ECS-A[1])   (ECS-A[1])   (ECS-A[1])   (ECS-A[1])   (ECS-A[1])   (ECS-A[1])   (ECS-A[1])   (ECS-A[1])   (ECS-A[1])   (ECS-A[1])   (ECS-A[1])   (ECS-A[1])   (ECS-A[1]) 
#                                                                                                                                                                                                                                              
#                        (6in)        (6in)        (6in)        (6in)        (6in)        (6in)        (6in)        (6in)        (6in)        (6in)        (6in)        (6in)        (6in)        (6in)        (6in)        (6in)        (6in) 
~ASCII
# ...
       7071.00000      0.06378      0.02498      0.03512      2.93296      0.00037      0.32721      0.02115      0.00252      0.00000      0.00000      0.00000      0.37557      0.00000      0.00000      0.03956      0.58487      0.00000
       7071.50000      0.06341      0.00320      0.03642      1.87126      0.00000      0.35187      0.02648      0.00342      0.00000      0.00000      0.00000      0.37234      0.00000      0.00000      0.04954      0.57812      0.00000
       7072.00000      0.06504      0.00000      0.03797      2.35300      0.00000      0.35217      0.02626      0.00348      0.00000      0.00000      0.00000      0.38663      0.00000      0.00000      0.04913      0.56424      0.00000
       7072.50000      0.06804      0.00814      0.03877      2.98250      0.00000      0.33823      0.02219      0.00311      0.00000      0.00000      0.00000      0.41301      0.00000      0.00000      0.04152      0.54546      0.00000
       7073.00000      0.07028      0.02365      0.03911      3.20914      0.00000      0.31706      0.02233      0.00246      0.00000      0.00000      0.00000      0.43273      0.00000      0.00000      0.04178      0.52549      0.00000
       7073.50000      0.06981      0.03908      0.03885      3.53156      0.00000      0.29986      0.02052      0.00243      0.00000      0.00000      0.03012      0.42857      0.00000      0.00000      0.03838      0.50293      0.00000
       7074.00000      0.06696      0.04114      0.03814      3.95693      0.00000      0.30162      0.01237      0.00270      0.00000      0.00000      0.03566      0.40358      0.00000      0.00000      0.02315      0.53762      0.00000
       7074.50000      0.06614      0.02954      0.03825      3.45083      0.00000      0.31606      0.00654      0.00318      0.00000      0.00000      0.00447      0.39631      0.00000      0.00000      0.01223      0.58698      0.00000
       7075.00000      0.06282      0.01722      0.03709      3.06815      0.00044      0.33560      0.00084      0.00297      0.00000      0.00000      0.00000      0.36718      0.00000      0.00000      0.00157      0.63125      0.00000
       7075.50000      0.06460      0.00863      0.03713      4.27455      0.00053      0.34341      0.00887      0.00315      0.00000      0.00000      0.00000      0.38277      0.00000      0.00000      0.01659      0.60064      0.00000
       7076.00000      0.06464      0.01779      0.03659      7.23745      0.00054      0.33317      0.01146      0.00334      0.00000      0.00000      0.00000      0.38313      0.00000      0.00000      0.02144      0.59542      0.00000
       7076.50000      0.06613      0.02157      0.03692      8.60074      0.00053      0.32662      0.01380      0.00403      0.00000      0.00000      0.00000      0.39628      0.00000      0.00000      0.02582      0.57790      0.00000
       7077.00000      0.06327      0.02618      0.03605      8.09142      0.00035      0.32557      0.00715      0.00410      0.00000      0.00000      0.00000      0.37107      0.00000      0.00000      0.01338      0.61555      0.00000
       7077.50000      0.06076      0.01763      0.03495      5.03559      0.00022      0.33965      0.00496      0.00378      0.00000      0.00000      0.00000      0.34908      0.00000      0.00000      0.00929      0.64164      0.00000
       7078.00000      0.05892      0.01313      0.03384      3.74110      0.00003      0.34820      0.00604      0.00338      0.00000      0.00000      0.00000      0.33291      0.00000      0.00000      0.01130      0.65579      0.00000
       7078.50000      0.05644      0.01106      0.03234      3.42982      0.00034      0.35506      0.00783      0.00269      0.00000      0.00000      0.00000      0.31112      0.00000      0.00000      0.01464      0.67424      0.00000
       7079.00000      0.05049      0.01905      0.02963      5.82872      0.00066      0.35559      0.00281      0.00210      0.00000      0.00000      0.00000      0.25877      0.00000      0.00000      0.00526      0.73597      0.00000
       7079.50000      0.04613      0.02848      0.02755      8.18386      0.00099      0.35187      0.00000      0.00159      0.00000      0.00000      0.00161      0.22049      0.00000      0.00000      0.00000      0.77789      0.00000
       7080.00000      0.04478      0.03247      0.02664      9.80419      0.00110      0.34973      0.00000      0.00182      0.00000      0.00000      0.01234      0.20859      0.00000      0.00000      0.00000      0.77907      0.00000
       7080.50000      0.04601      0.03958      0.02726     11.00261      0.00091      0.33934      0.00000      0.00215      0.00000      0.00000      0.03146      0.21939      0.00000      0.00000      0.00000      0.74914      0.00000
       7081.00000      0.04568      0.04280      0.02707     10.41984      0.00046      0.33615      0.00000      0.00211      0.00000      0.00000      0.04014      0.21649      0.00000      0.00000      0.00000      0.74336      0.00000
       7081.50000      0.04635      0.04551      0.02751      8.93957      0.00002      0.33177      0.00000      0.00203      0.00000      0.00000      0.04741      0.22236      0.00000      0.00000      0.00000      0.73022      0.00000
       7082.00000      0.04995      0.03595      0.02902      5.76942      0.00000      0.33709      0.00414      0.00233      0.00000      0.00000      0.02170      0.25400      0.00000      0.00000      0.00774      0.71655      0.00000
       7082.50000      0.05586      0.02805      0.03153      2.42883      0.00020      0.33670      0.01009      0.00307      0.00000      0.00000      0.00046      0.30600      0.00000      0.00000      0.01887      0.67467      0.00000
       7083.00000      0.05688      0.02361      0.03244      1.46164      0.00083      0.33978      0.00639      0.00362      0.00000      0.00000      0.00000      0.31492      0.00000      0.00000      0.01195      0.67313      0.00000
       7083.50000      0.05299      0.02721      0.03093      3.46198      0.00126      0.34177      0.00000      0.00368      0.00000      0.00000      0.00000      0.28079      0.00000      0.00000      0.00000      0.71921      0.00000
       7084.00000      0.04657      0.03271      0.02726      6.72895      0.00122      0.34666      0.00000      0.00305      0.00000      0.00000      0.01300      0.22436      0.00000      0.00000      0.00000      0.76264      0.00000
       7084.50000      0.04424      0.03130      0.02599      8.31188      0.00071      0.35236      0.00000      0.00263      0.00000      0.00000      0.00920      0.20386      0.00000      0.00000      0.00000      0.78694      0.00000
       7085.00000      0.04607      0.02506      0.02713      7.31221      0.00035      0.35634      0.00000      0.00259      0.00000      0.00000      0.00000      0.21992      0.00000      0.00000      0.00000      0.78008      0.00000
       7085.50000      0.05550      0.00736      0.03139      5.64634      0.00015      0.36144      0.01145      0.00355      0.00000      0.00000      0.00000      0.30285      0.00000      0.00000      0.02143      0.67573      0.00000
       7086.00000      0.05831      0.00547      0.03308      3.38473      0.00028      0.35861      0.01674      0.00366      0.00000      0.00000      0.00000      0.32750      0.00000      0.00000      0.03132      0.64118      0.00000
       7086.50000      0.05742      0.01403      0.03193      2.11762      0.00051      0.35077      0.01677      0.00316      0.00000      0.00000      0.00000      0.31971      0.00000      0.00000      0.03138      0.64891      0.00000
       7087.00000      0.05193      0.03364      0.02950      1.80310      0.00054      0.33690      0.01014      0.00209      0.00000      0.00000      0.01550      0.27143      0.00000      0.00000      0.01897      0.69410      0.00000
       7087.50000      0.05120      0.04212      0.03035      4.53941      0.00046      0.32711      0.00017      0.00229      0.00000      0.00000      0.03830      0.26502      0.00000      0.00000      0.00032      0.69636      0.00000
