~VERSION INFORMATION 
VERS  .    2.0                                     :CWLS Log ASCII Standard - VERSION 2.0
WRAP  .    NO                                      :One Line per Depth step
PROD  .    Schlumberger Technology Corp.           :LAS Producer
PROG  .    Horizon LASWriter 3.1.9755.0            :LAS Program name and version
SOURCE.    Composite 1 (2-Log[4]/Up + 2-Repeat[3]/Up):Run&Pass Information
CREA  .    10/26/2012                              :LAS Creation date {MM/DD/YYYY}
#--------------------------------------------------
~WELL INFORMATION 
#MNEM           .UNIT                      DATA            :DESCRIPTION
#----            ------          --------------            -----------------------------
STRT            .ft                  6000.00000            :START DEPTH
STOP            .ft                  8700.50000            :STOP DEPTH
STEP            .ft                         0.5            :STEP
NULL            .                       -999.25            :NULL VALUE
COMP            .                         SHELL            :COMPANY
WELL            .                DAWSON CREEK 1 25         :WELL NAME
FLD             .                WILLIAMS FORK UNIT        :FIELD NAME
RIGN            .                    SAVANA 650            :Rig Name
RIGTYP          .                          LAND            :Rig Type
SON             .                    BXV3-00069            :Service Order Number
SRVC            .                  Schlumberger            :SERVICE COMPANY
DATE            .                    10/26/2012            :LOG DATE(Composite Date for Composite LAP) (MM/DD/YYYY)
CLAB            .                       County:            :County Label
CNTY            .                         ROUTT            :COUNTY
SLAB            .                        State:            :State/Province Label
STAT            .                      COLORADO            :STATE or PROVINCE
PROV            .                      COLORADO            :STATE or PROVINCE
CTRY            .                           USA            :COUNTRY
CONT_REGION     .                    N. America            :Continent Region
SECT            .                            25            :Section
TOWN            .                            4N            :Township
RANG            .                           88W            :Range
API             .                  051076242000            :API NUMBER
UWI             .                                          :UNIQUE WELL ID
LUL             .                        VERNAL            :Logging Unit Location
LUN             .                          2379            :Logging Unit Number
LOC             .                SHL: 2032' FNL & 1639' FWL:FIELD LOCATION
FL1             .                BHL: 971' FNL & 2022' FEL :Field Location Line 1
FL2             .                                          :Field Location Line 2
LATI            .deg                  40.450486            :LATITUDE
LONG            .deg                 -107.21337            :LONGITUDE
PDAT            .                            GL            :Local Permanent Datum
LMF             .                            KB            :Logging Measured From
APD             .ft                    14.30000            :Elevation of Depth Reference (LMF) Above Permanent Datum
EPD             .ft                  6658.19984            :Elevation of Permanent Datum (PDAT) above Mean Sea Level
EKB             .ft                    14.30000            :Elevation of Kelly Bushing Above Permanent Datum
EDF             .ft                    14.30000            :Elevation of Drill Floor Above Permanent Datum
EGL             .ft                     0.00000            :Elevation of Ground Level Above Permanent Datum
ECF             .ft                     -999.25            :Elevation of Casing Flange above Permanent Datum
#--------------------------------------------------
~CURVE INFORMATION
#MNEM           .UNIT                  API CODE            :DESCRIPTION
#----            ------          --------------            -----------------------------
DEPT            .ft                                        :                                                        Depth Index
DWAL_WALK2      .lbf/lbf                                   :        (ECS-A[1])              (6in)                   Dry Weight Fraction Pseudo Aluminum (SpectroLith WALK2 Model)
DWCA_WALK2      .lbf/lbf                                   :        (ECS-A[1])              (6in)                   Dry Weight Fraction Calcium (SpectroLith WALK2 Model)
DWFE_WALK2      .lbf/lbf                                   :        (ECS-A[1])              (6in)                   Dry Weight Fraction Iron + 0.14 Aluminum (SpectroLith WALK2 Model)
DWGD_WALK2      .ppm                                       :        (ECS-A[1])              (6in)                   Dry Weight Fraction Gadolinium (SpectroLith WALK2 Model)
DWHY_WALK2      .lbf/lbf                                   :        (ECS-A[1])              (6in)                   Dry Weight Fraction Hydrogen Associated with Coal (SpectroLith WALK2 Model)
DWSI_WALK2      .lbf/lbf                                   :        (ECS-A[1])              (6in)                   Dry Weight Fraction Silicon (SpectroLith WALK2 Model)
DWSU_WALK2      .lbf/lbf                                   :        (ECS-A[1])              (6in)                   Dry Weight Fraction Sulfur (SpectroLith WALK2 Model)
DWTI_WALK2      .lbf/lbf                                   :        (ECS-A[1])              (6in)                   Dry Weight Fraction Titanium (SpectroLith WALK2 Model)
DXFE_WALK2      .lbf/lbf                                   :        (ECS-A[1])              (6in)                   Dry Weight Fraction Excess Iron (SpectroLith WALK2 Model)
WANH_WALK2      .lbf/lbf                                   :        (ECS-A[1])              (6in)                   Dry Weight Fraction Anhydrite/Gypsum (SpectroLith WALK2 Model)
WCAR_WALK2      .lbf/lbf                                   :        (ECS-A[1])              (6in)                   Dry Weight Fraction Carbonate (SpectroLith WALK2 Model)
WCLA_WALK2      .lbf/lbf                                   :        (ECS-A[1])              (6in)                   Dry Weight Fraction Clay (SpectroLith WALK2 Model)
WCOA_WALK2      .lbf/lbf                                   :        (ECS-A[1])              (6in)                   Dry Weight Fraction Coal (SpectroLith WALK2 Model)
WEVA_WALK2      .lbf/lbf                                   :        (ECS-A[1])              (6in)                   Dry Weight Fraction Salt (SpectroLith WALK2 Model)
WPYR_WALK2      .lbf/lbf                                   :        (ECS-A[1])              (6in)                   Dry Weight Fraction Pyrite (SpectroLith WALK2 Model)
WQFM_WALK2      .lbf/lbf                                   :        (ECS-A[1])              (6in)                   Dry Weight Fraction Quartz+Feldspar+Mica (QFM) (SpectroLith WALK2 Model)
WSID_WALK2      .lbf/lbf                                   :        (ECS-A[1])              (6in)                   Dry Weight Fraction Siderite (SpectroLith WALK2 Model)
#-------------------------------------------------------------
#            DEPT   DWAL_WALK2   DWCA_WALK2   DWFE_WALK2   DWGD_WALK2   DWHY_WALK2   DWSI_WALK2   DWSU_WALK2   DWTI_WALK2   DXFE_WALK2   WANH_WALK2   WCAR_WALK2   WCLA_WALK2   WCOA_WALK2   WEVA_WALK2   WPYR_WALK2   WQFM_WALK2   WSID_WALK2 
#                   (ECS-A[1])   (ECS-A[1])   (ECS-A[1])   (ECS-A[1])   (ECS-A[1])   (ECS-A[1])   (ECS-A[1])   (ECS-A[1])   (ECS-A[1])   (ECS-A[1])   (ECS-A[1])   (ECS-A[1])   (ECS-A[1])   (ECS-A[1])   (ECS-A[1])   (ECS-A[1])   (ECS-A[1]) 
#                                                                                                                                                                                                                                              
#                        (6in)        (6in)        (6in)        (6in)        (6in)        (6in)        (6in)        (6in)        (6in)        (6in)        (6in)        (6in)        (6in)        (6in)        (6in)        (6in)        (6in) 
~ASCII
# ...
       6544.00000      0.06959      0.01504      0.04053      8.78380      0.00000      0.32663      0.00224      0.00428      0.00000      0.00000      0.00000      0.42669      0.00000      0.00000      0.00420      0.56912      0.00000
       6544.50000      0.07002      0.01690      0.04095      8.35293      0.00000      0.32354      0.00000      0.00466      0.00000      0.00000      0.00000      0.43041      0.00000      0.00000      0.00000      0.56959      0.00000
       6545.00000      0.07097      0.01978      0.04149      8.91393      0.00000      0.31851      0.00000      0.00476      0.00000      0.00000      0.00000      0.43876      0.00000      0.00000      0.00000      0.56124      0.00000
       6545.50000      0.07216      0.01278      0.04223     10.14536      0.00000      0.32452      0.00000      0.00472      0.00000      0.00000      0.00000      0.44926      0.00000      0.00000      0.00000      0.55074      0.00000
       6546.00000      0.07441      0.00817      0.04371     11.28605      0.00000      0.32576      0.00000      0.00444      0.00000      0.00000      0.00000      0.46902      0.00000      0.00000      0.00000      0.53098      0.00000
       6546.50000      0.07221      0.01379      0.04257     12.57499      0.00000      0.32297      0.00000      0.00392      0.00000      0.00000      0.00000      0.44967      0.00000      0.00000      0.00000      0.55033      0.00000
       6547.00000      0.06978      0.01861      0.04119     12.01926      0.00000      0.32162      0.00000      0.00366      0.00000      0.00000      0.00000      0.42832      0.00000      0.00000      0.00000      0.57168      0.00000
       6547.50000      0.06698      0.01922      0.03941     11.33384      0.00000      0.32601      0.00000      0.00385      0.00000      0.00000      0.00000      0.40372      0.00000      0.00000      0.00000      0.59628      0.00000
       6548.00000      0.06696      0.00433      0.03921     10.58320      0.00008      0.34359      0.00000      0.00431      0.00000      0.00000      0.00000      0.40355      0.00000      0.00000      0.00000      0.59645      0.00000
       6548.50000      0.06841      0.00000      0.03977     10.23717      0.00000      0.34635      0.00000      0.00518      0.00000      0.00000      0.00000      0.41631      0.00000      0.00000      0.00000      0.58369      0.00000
       6549.00000      0.06958      0.00000      0.04063      9.64012      0.00012      0.34411      0.00000      0.00479      0.00000      0.00000      0.00000      0.42653      0.00000      0.00000      0.00000      0.57347      0.00000
       6549.50000      0.07372      0.00000      0.04329      9.14129      0.00000      0.33655      0.00000      0.00445      0.00000      0.00000      0.00000      0.46292      0.00000      0.00000      0.00000      0.53708      0.00000
       6550.00000      0.07819      0.00000      0.04641      7.63245      0.00000      0.32813      0.00000      0.00345      0.00000      0.00000      0.00000      0.50228      0.00000      0.00000      0.00000      0.49772      0.00000
       6550.50000      0.08228      0.00279      0.04890      6.62416      0.00000      0.31752      0.00030      0.00335      0.00000      0.00000      0.00000      0.53823      0.00000      0.00000      0.00057      0.46120      0.00000
       6551.00000      0.08358      0.02077      0.04892      4.59363      0.00000      0.29493      0.00539      0.00354      0.00000      0.00000      0.00000      0.54961      0.00000      0.00000      0.01008      0.44032      0.00000
       6551.50000      0.08188      0.03142      0.04744      5.00942      0.00000      0.28596      0.00761      0.00389      0.00000      0.00000      0.00952      0.53467      0.00000      0.00000      0.01423      0.44158      0.00000
       6552.00000      0.07908      0.03016      0.04578      4.48694      0.00054      0.29242      0.00642      0.00418      0.00000      0.00000      0.00613      0.51006      0.00000      0.00000      0.01201      0.47180      0.00000
       6552.50000      0.07359      0.02989      0.04300      5.40174      0.00081      0.30207      0.00315      0.00387      0.00000      0.00000      0.00541      0.46182      0.00000      0.00000      0.00589      0.52688      0.00000
       6553.00000      0.07162      0.02688      0.04230      5.27790      0.00058      0.30866      0.00000      0.00369      0.00000      0.00000      0.00000      0.44452      0.00000      0.00000      0.00000      0.55548      0.00000
       6553.50000      0.07224      0.03636      0.04275      8.20572      0.00000      0.29642      0.00000      0.00350      0.00000      0.00000      0.02280      0.44993      0.00000      0.00000      0.00000      0.52727      0.00000
       6554.00000      0.07332      0.03829      0.04328     10.46673      0.00000      0.29235      0.00000      0.00384      0.00000      0.00000      0.02800      0.45942      0.00000      0.00000      0.00000      0.51258      0.00000
       6554.50000      0.07314      0.04058      0.04276     13.37045      0.00000      0.29037      0.00235      0.00406      0.00000      0.00000      0.03417      0.45785      0.00000      0.00000      0.00440      0.50358      0.00000
       6555.00000      0.06947      0.02991      0.04038     14.23364      0.00000      0.30956      0.00213      0.00451      0.00000      0.00000      0.00545      0.42560      0.00000      0.00000      0.00398      0.56496      0.00000
       6555.50000      0.06649      0.03022      0.03816     14.04086      0.00000      0.31492      0.00565      0.00427      0.00000      0.00000      0.00630      0.39939      0.00000      0.00000      0.01058      0.58373      0.00000
       6556.00000      0.06298      0.03198      0.03603     11.10295      0.00000      0.31917      0.00727      0.00367      0.00000      0.00000      0.01103      0.36856      0.00000      0.00000      0.01360      0.60681      0.00000
       6556.50000      0.06256      0.04360      0.03559      9.37616      0.00000      0.30652      0.01094      0.00283      0.00000      0.00000      0.04229      0.36490      0.00000      0.00000      0.02047      0.57235      0.00000
       6557.00000      0.06072      0.04357      0.03512      7.44281      0.00000      0.30928      0.00714      0.00251      0.00000      0.00000      0.04220      0.34869      0.00000      0.00000      0.01335      0.59576      0.00000
       6557.50000      0.05831      0.04340      0.03457      6.91072      0.00015      0.31295      0.00000      0.00266      0.00000      0.00000      0.04175      0.32750      0.00000      0.00000      0.00000      0.63075      0.00000
       6558.00000      0.05917      0.03539      0.03489      5.24188      0.00028      0.32094      0.00000      0.00320      0.00000      0.00000      0.02021      0.33506      0.00000      0.00000      0.00000      0.64474      0.00000
       6558.50000      0.06127      0.03146      0.03592      5.48902      0.00020      0.32197      0.00000      0.00384      0.00000      0.00000      0.00964      0.35356      0.00000      0.00000      0.00000      0.63680      0.00000
       6559.00000      0.06633      0.03000      0.03890      6.92677      0.00005      0.31469      0.00000      0.00413      0.00000      0.00000      0.00569      0.39804      0.00000      0.00000      0.00000      0.59627      0.00000
       6559.50000      0.06822      0.03728      0.04018      8.60628      0.00001      0.30268      0.00000      0.00382      0.00000      0.00000      0.02527      0.41466      0.00000      0.00000      0.00000      0.56007      0.00000
       6560.00000      0.07093      0.04880      0.04203      9.43957      0.00041      0.28417      0.00000      0.00331      0.00000      0.00000      0.05628      0.43846      0.00000      0.00000      0.00000      0.50526      0.00000
       6560.50000      0.07119      0.05516      0.04228      9.56040      0.00092      0.27620      0.00000      0.00306      0.00000      0.00000      0.07339      0.44071      0.00000      0.00000      0.00000      0.48591      0.00000
