~VERSION INFORMATION 
VERS  .    2.0                                     :CWLS Log ASCII Standard - VERSION 2.0
WRAP  .    NO                                      :One Line per Depth step
PROD  .    Schlumberger Technology Corp.           :LAS Producer
PROG  .    Horizon LASWriter 3.1.9755.0            :LAS Program name and version
SOURCE.    Composite 1 (2-Log[4]/Up + 2-Repeat[3]/Up):Run&Pass Information
CREA  .    10/26/2012                              :LAS Creation date {MM/DD/YYYY}
#--------------------------------------------------
~WELL INFORMATION 
#MNEM           .UNIT                      DATA            :DESCRIPTION
#----            ------          --------------            -----------------------------
STRT            .ft                  6000.00000            :START DEPTH
STOP            .ft                  8700.50000            :STOP DEPTH
STEP            .ft                         0.5            :STEP
NULL            .                       -999.25            :NULL VALUE
COMP            .                         SHELL            :COMPANY
WELL            .                DAWSON CREEK 1 25         :WELL NAME
FLD             .                WILLIAMS FORK UNIT        :FIELD NAME
RIGN            .                    SAVANA 650            :Rig Name
RIGTYP          .                          LAND            :Rig Type
SON             .                    BXV3-00069            :Service Order Number
SRVC            .                  Schlumberger            :SERVICE COMPANY
DATE            .                    10/26/2012            :LOG DATE(Composite Date for Composite LAP) (MM/DD/YYYY)
CLAB            .                       County:            :County Label
CNTY            .                         ROUTT            :COUNTY
SLAB            .                        State:            :State/Province Label
STAT            .                      COLORADO            :STATE or PROVINCE
PROV            .                      COLORADO            :STATE or PROVINCE
CTRY            .                           USA            :COUNTRY
CONT_REGION     .                    N. America            :Continent Region
SECT            .                            25            :Section
TOWN            .                            4N            :Township
RANG            .                           88W            :Range
API             .                  051076242000            :API NUMBER
UWI             .                                          :UNIQUE WELL ID
LUL             .                        VERNAL            :Logging Unit Location
LUN             .                          2379            :Logging Unit Number
LOC             .                SHL: 2032' FNL & 1639' FWL:FIELD LOCATION
FL1             .                BHL: 971' FNL & 2022' FEL :Field Location Line 1
FL2             .                                          :Field Location Line 2
LATI            .deg                  40.450486            :LATITUDE
LONG            .deg                 -107.21337            :LONGITUDE
PDAT            .                            GL            :Local Permanent Datum
LMF             .                            KB            :Logging Measured From
APD             .ft                    14.30000            :Elevation of Depth Reference (LMF) Above Permanent Datum
EPD             .ft                  6658.19984            :Elevation of Permanent Datum (PDAT) above Mean Sea Level
EKB             .ft                    14.30000            :Elevation of Kelly Bushing Above Permanent Datum
EDF             .ft                    14.30000            :Elevation of Drill Floor Above Permanent Datum
EGL             .ft                     0.00000            :Elevation of Ground Level Above Permanent Datum
ECF             .ft                     -999.25            :Elevation of Casing Flange above Permanent Datum
#--------------------------------------------------
~CURVE INFORMATION
#MNEM           .UNIT                  API CODE            :DESCRIPTION
#----            ------          --------------            -----------------------------
DEPT            .ft                                        :                                                        Depth Index
DWAL_WALK2      .lbf/lbf                                   :        (ECS-A[1])              (6in)                   Dry Weight Fraction Pseudo Aluminum (SpectroLith WALK2 Model)
DWCA_WALK2      .lbf/lbf                                   :        (ECS-A[1])              (6in)                   Dry Weight Fraction Calcium (SpectroLith WALK2 Model)
DWFE_WALK2      .lbf/lbf                                   :        (ECS-A[1])              (6in)                   Dry Weight Fraction Iron + 0.14 Aluminum (SpectroLith WALK2 Model)
DWGD_WALK2      .ppm                                       :        (ECS-A[1])              (6in)                   Dry Weight Fraction Gadolinium (SpectroLith WALK2 Model)
DWHY_WALK2      .lbf/lbf                                   :        (ECS-A[1])              (6in)                   Dry Weight Fraction Hydrogen Associated with Coal (SpectroLith WALK2 Model)
DWSI_WALK2      .lbf/lbf                                   :        (ECS-A[1])              (6in)                   Dry Weight Fraction Silicon (SpectroLith WALK2 Model)
DWSU_WALK2      .lbf/lbf                                   :        (ECS-A[1])              (6in)                   Dry Weight Fraction Sulfur (SpectroLith WALK2 Model)
DWTI_WALK2      .lbf/lbf                                   :        (ECS-A[1])              (6in)                   Dry Weight Fraction Titanium (SpectroLith WALK2 Model)
DXFE_WALK2      .lbf/lbf                                   :        (ECS-A[1])              (6in)                   Dry Weight Fraction Excess Iron (SpectroLith WALK2 Model)
WANH_WALK2      .lbf/lbf                                   :        (ECS-A[1])              (6in)                   Dry Weight Fraction Anhydrite/Gypsum (SpectroLith WALK2 Model)
WCAR_WALK2      .lbf/lbf                                   :        (ECS-A[1])              (6in)                   Dry Weight Fraction Carbonate (SpectroLith WALK2 Model)
WCLA_WALK2      .lbf/lbf                                   :        (ECS-A[1])              (6in)                   Dry Weight Fraction Clay (SpectroLith WALK2 Model)
WCOA_WALK2      .lbf/lbf                                   :        (ECS-A[1])              (6in)                   Dry Weight Fraction Coal (SpectroLith WALK2 Model)
WEVA_WALK2      .lbf/lbf                                   :        (ECS-A[1])              (6in)                   Dry Weight Fraction Salt (SpectroLith WALK2 Model)
WPYR_WALK2      .lbf/lbf                                   :        (ECS-A[1])              (6in)                   Dry Weight Fraction Pyrite (SpectroLith WALK2 Model)
WQFM_WALK2      .lbf/lbf                                   :        (ECS-A[1])              (6in)                   Dry Weight Fraction Quartz+Feldspar+Mica (QFM) (SpectroLith WALK2 Model)
WSID_WALK2      .lbf/lbf                                   :        (ECS-A[1])              (6in)                   Dry Weight Fraction Siderite (SpectroLith WALK2 Model)
#-------------------------------------------------------------
#            DEPT   DWAL_WALK2   DWCA_WALK2   DWFE_WALK2   DWGD_WALK2   DWHY_WALK2   DWSI_WALK2   DWSU_WALK2   DWTI_WALK2   DXFE_WALK2   WANH_WALK2   WCAR_WALK2   WCLA_WALK2   WCOA_WALK2   WEVA_WALK2   WPYR_WALK2   WQFM_WALK2   WSID_WALK2 
#                   (ECS-A[1])   (ECS-A[1])   (ECS-A[1])   (ECS-A[1])   (ECS-A[1])   (ECS-A[1])   (ECS-A[1])   (ECS-A[1])   (ECS-A[1])   (ECS-A[1])   (ECS-A[1])   (ECS-A[1])   (ECS-A[1])   (ECS-A[1])   (ECS-A[1])   (ECS-A[1])   (ECS-A[1]) 
#                                                                                                                                                                                                                                              
#                        (6in)        (6in)        (6in)        (6in)        (6in)        (6in)        (6in)        (6in)        (6in)        (6in)        (6in)        (6in)        (6in)        (6in)        (6in)        (6in)        (6in) 
~ASCII
# ...
       8142.00000      0.07164      0.02513      0.04237      5.56949      0.00077      0.31062      0.00000      0.00355      0.00000      0.00000      0.00000      0.44469      0.00000      0.00000      0.00000      0.55531      0.00000
       8142.50000      0.07538      0.02243      0.04441      6.92297      0.00022      0.30727      0.00000      0.00418      0.00000      0.00000      0.00000      0.47755      0.00000      0.00000      0.00000      0.52245      0.00000
       8143.00000      0.07573      0.01874      0.04444      7.88996      0.00055      0.31111      0.00000      0.00465      0.00000      0.00000      0.00000      0.48066      0.00000      0.00000      0.00000      0.51934      0.00000
       8143.50000      0.07564      0.01604      0.04428     11.51100      0.00065      0.31453      0.00000      0.00492      0.00000      0.00000      0.00000      0.47985      0.00000      0.00000      0.00000      0.52015      0.00000
       8144.00000      0.07646      0.01222      0.04481     13.05627      0.00101      0.31749      0.00000      0.00486      0.00000      0.00000      0.00000      0.48706      0.00000      0.00000      0.00000      0.51294      0.00000
       8144.50000      0.07990      0.00030      0.04689     12.34999      0.00102      0.32525      0.00323      0.00463      0.00000      0.00000      0.00000      0.51726      0.00000      0.00000      0.00604      0.47671      0.00000
       8145.00000      0.08009      0.00564      0.04660      9.69795      0.00113      0.31904      0.00499      0.00426      0.00000      0.00000      0.00000      0.51894      0.00000      0.00000      0.00933      0.47173      0.00000
       8145.50000      0.07804      0.01293      0.04563      6.94133      0.00120      0.31394      0.00329      0.00405      0.00000      0.00000      0.00000      0.50095      0.00000      0.00000      0.00615      0.49290      0.00000
       8146.00000      0.07508      0.02952      0.04441      5.58744      0.00113      0.29937      0.00054      0.00352      0.00000      0.00000      0.00440      0.47489      0.00000      0.00000      0.00100      0.51971      0.00000
       8146.50000      0.07715      0.03384      0.04548      3.17398      0.00098      0.29078      0.00330      0.00303      0.00000      0.00000      0.01602      0.49310      0.00000      0.00000      0.00618      0.48470      0.00000
       8147.00000      0.07733      0.04097      0.04520      2.17676      0.00076      0.28249      0.00771      0.00246      0.00000      0.00000      0.03520      0.49469      0.00000      0.00000      0.01443      0.45567      0.00000
       8147.50000      0.07779      0.03927      0.04450      2.16396      0.00050      0.28456      0.01341      0.00295      0.00000      0.00000      0.03064      0.49872      0.00000      0.00000      0.02509      0.44555      0.00000
       8148.00000      0.07382      0.04211      0.04174      3.28745      0.00040      0.28870      0.01537      0.00313      0.00000      0.00000      0.03828      0.46380      0.00000      0.00000      0.02875      0.46917      0.00000
       8148.50000      0.07255      0.03809      0.04110      5.02512      0.00033      0.29555      0.01259      0.00379      0.00000      0.00000      0.02745      0.45269      0.00000      0.00000      0.02355      0.49631      0.00000
       8149.00000      0.06901      0.03901      0.03980      5.30955      0.00087      0.30004      0.00713      0.00351      0.00000      0.00000      0.02994      0.42157      0.00000      0.00000      0.01334      0.53515      0.00000
       8149.50000      0.06830      0.03351      0.03994      7.36166      0.00117      0.30720      0.00159      0.00399      0.00000      0.00000      0.01515      0.41531      0.00000      0.00000      0.00297      0.56656      0.00000
       8150.00000      0.06660      0.03323      0.03867      7.05868      0.00128      0.31081      0.00424      0.00365      0.00000      0.00000      0.01438      0.40038      0.00000      0.00000      0.00792      0.57732      0.00000
       8150.50000      0.06963      0.03274      0.03979      8.10109      0.00069      0.30660      0.00960      0.00362      0.00000      0.00000      0.01306      0.42704      0.00000      0.00000      0.01795      0.54195      0.00000
       8151.00000      0.07180      0.03654      0.04074      6.89478      0.00047      0.29861      0.01408      0.00299      0.00000      0.00000      0.02331      0.44609      0.00000      0.00000      0.02635      0.50426      0.00000
       8151.50000      0.07096      0.03534      0.04052      6.82524      0.00064      0.30125      0.01259      0.00276      0.00000      0.00000      0.02008      0.43871      0.00000      0.00000      0.02355      0.51766      0.00000
       8152.00000      0.06840      0.03233      0.03974      5.12693      0.00105      0.30864      0.00746      0.00256      0.00000      0.00000      0.01196      0.41620      0.00000      0.00000      0.01395      0.55788      0.00000
       8152.50000      0.06780      0.03332      0.03982      4.42730      0.00108      0.30816      0.00447      0.00248      0.00000      0.00000      0.01464      0.41089      0.00000      0.00000      0.00836      0.56612      0.00000
       8153.00000      0.07297      0.03336      0.04336      4.63556      0.00079      0.29845      0.00000      0.00308      0.00000      0.00000      0.01473      0.45639      0.00000      0.00000      0.00000      0.52888      0.00000
       8153.50000      0.07943      0.02842      0.04708      5.73649      0.00016      0.29282      0.00000      0.00367      0.00000      0.00000      0.00145      0.51312      0.00000      0.00000      0.00000      0.48543      0.00000
       8154.00000      0.08182      0.01998      0.04817      6.10391      0.00000      0.29870      0.00000      0.00462      0.00000      0.00000      0.00000      0.53418      0.00000      0.00000      0.00000      0.46582      0.00000
       8154.50000      0.07909      0.01897      0.04650      5.62485      0.00000      0.30480      0.00000      0.00462      0.00000      0.00000      0.00000      0.51017      0.00000      0.00000      0.00000      0.48983      0.00000
       8155.00000      0.07495      0.01801      0.04394      5.97782      0.00046      0.31339      0.00000      0.00470      0.00000      0.00000      0.00000      0.47379      0.00000      0.00000      0.00000      0.52621      0.00000
       8155.50000      0.07373      0.00805      0.04330      5.38862      0.00063      0.32713      0.00000      0.00444      0.00000      0.00000      0.00000      0.46301      0.00000      0.00000      0.00000      0.53699      0.00000
       8156.00000      0.07423      0.00000      0.04337      4.39979      0.00087      0.33583      0.00000      0.00506      0.00000      0.00000      0.00000      0.46749      0.00000      0.00000      0.00000      0.53251      0.00000
       8156.50000      0.07637      0.00000      0.04447      3.58069      0.00050      0.33218      0.00000      0.00560      0.00000      0.00000      0.00000      0.48629      0.00000      0.00000      0.00000      0.51371      0.00000
       8157.00000      0.08050      0.00000      0.04670      6.99751      0.00015      0.32502      0.00000      0.00632      0.00000      0.00000      0.00000      0.52257      0.00000      0.00000      0.00000      0.47743      0.00000
       8157.50000      0.08269      0.00000      0.04805     10.83615      0.00000      0.32108      0.00000      0.00631      0.00000      0.00000      0.00000      0.54179      0.00000      0.00000      0.00000      0.45821      0.00000
       8158.00000      0.08229      0.00568      0.04806     11.95705      0.00014      0.31493      0.00000      0.00566      0.00000      0.00000      0.00000      0.53830      0.00000      0.00000      0.00000      0.46170      0.00000
       8158.50000      0.08437      0.00679      0.04937     11.02554      0.00035      0.30985      0.00000      0.00554      0.00000      0.00000      0.00000      0.55660      0.00000      0.00000      0.00000      0.44340      0.00000
