~VERSION INFORMATION 
VERS  .    2.0                                     :CWLS Log ASCII Standard - VERSION 2.0
WRAP  .    NO                                      :One Line per Depth step
PROD  .    Schlumberger Technology Corp.           :LAS Producer
PROG  .    Horizon LASWriter 3.1.9755.0            :LAS Program name and version
SOURCE.    Composite 1 (2-Log[4]/Up + 2-Repeat[3]/Up):Run&Pass Information
CREA  .    10/26/2012                              :LAS Creation date {MM/DD/YYYY}
#--------------------------------------------------
~WELL INFORMATION 
#MNEM           .UNIT                      DATA            :DESCRIPTION
#----            ------          --------------            -----------------------------
STRT            .ft                  6000.00000            :START DEPTH
STOP            .ft                  8700.50000            :STOP DEPTH
STEP            .ft                         0.5            :STEP
NULL            .                       -999.25            :NULL VALUE
COMP            .                         SHELL            :COMPANY
WELL            .                DAWSON CREEK 1 25         :WELL NAME
FLD             .                WILLIAMS FORK UNIT        :FIELD NAME
RIGN            .                    SAVANA 650            :Rig Name
RIGTYP          .                          LAND            :Rig Type
SON             .                    BXV3-00069            :Service Order Number
SRVC            .                  Schlumberger            :SERVICE COMPANY
DATE            .                    10/26/2012            :LOG DATE(Composite Date for Composite LAP) (MM/DD/YYYY)
CLAB            .                       County:            :County Label
CNTY            .                         ROUTT            :COUNTY
SLAB            .                        State:            :State/Province Label
STAT            .                      COLORADO            :STATE or PROVINCE
PROV            .                      COLORADO            :STATE or PROVINCE
CTRY            .                           USA            :COUNTRY
CONT_REGION     .                    N. America            :Continent Region
SECT            .                            25            :Section
TOWN            .                            4N            :Township
RANG            .                           88W            :Range
API             .                  051076242000            :API NUMBER
UWI             .                                          :UNIQUE WELL ID
LUL             .                        VERNAL            :Logging Unit Location
LUN             .                          2379            :Logging Unit Number
LOC             .                SHL: 2032' FNL & 1639' FWL:FIELD LOCATION
FL1             .                BHL: 971' FNL & 2022' FEL :Field Location Line 1
FL2             .                                          :Field Location Line 2
LATI            .deg                  40.450486            :LATITUDE
LONG            .deg                 -107.21337            :LONGITUDE
PDAT            .                            GL            :Local Permanent Datum
LMF             .                            KB            :Logging Measured From
APD             .ft                    14.30000            :Elevation of Depth Reference (LMF) Above Permanent Datum
EPD             .ft                  6658.19984            :Elevation of Permanent Datum (PDAT) above Mean Sea Level
EKB             .ft                    14.30000            :Elevation of Kelly Bushing Above Permanent Datum
EDF             .ft                    14.30000            :Elevation of Drill Floor Above Permanent Datum
EGL             .ft                     0.00000            :Elevation of Ground Level Above Permanent Datum
ECF             .ft                     -999.25            :Elevation of Casing Flange above Permanent Datum
#--------------------------------------------------
~CURVE INFORMATION
#MNEM           .UNIT                  API CODE            :DESCRIPTION
#----            ------          --------------            -----------------------------
DEPT            .ft                                        :                                                        Depth Index
DWAL_WALK2      .lbf/lbf                                   :        (ECS-A[1])              (6in)                   Dry Weight Fraction Pseudo Aluminum (SpectroLith WALK2 Model)
DWCA_WALK2      .lbf/lbf                                   :        (ECS-A[1])              (6in)                   Dry Weight Fraction Calcium (SpectroLith WALK2 Model)
DWFE_WALK2      .lbf/lbf                                   :        (ECS-A[1])              (6in)                   Dry Weight Fraction Iron + 0.14 Aluminum (SpectroLith WALK2 Model)
DWGD_WALK2      .ppm                                       :        (ECS-A[1])              (6in)                   Dry Weight Fraction Gadolinium (SpectroLith WALK2 Model)
DWHY_WALK2      .lbf/lbf                                   :        (ECS-A[1])              (6in)                   Dry Weight Fraction Hydrogen Associated with Coal (SpectroLith WALK2 Model)
DWSI_WALK2      .lbf/lbf                                   :        (ECS-A[1])              (6in)                   Dry Weight Fraction Silicon (SpectroLith WALK2 Model)
DWSU_WALK2      .lbf/lbf                                   :        (ECS-A[1])              (6in)                   Dry Weight Fraction Sulfur (SpectroLith WALK2 Model)
DWTI_WALK2      .lbf/lbf                                   :        (ECS-A[1])              (6in)                   Dry Weight Fraction Titanium (SpectroLith WALK2 Model)
DXFE_WALK2      .lbf/lbf                                   :        (ECS-A[1])              (6in)                   Dry Weight Fraction Excess Iron (SpectroLith WALK2 Model)
WANH_WALK2      .lbf/lbf                                   :        (ECS-A[1])              (6in)                   Dry Weight Fraction Anhydrite/Gypsum (SpectroLith WALK2 Model)
WCAR_WALK2      .lbf/lbf                                   :        (ECS-A[1])              (6in)                   Dry Weight Fraction Carbonate (SpectroLith WALK2 Model)
WCLA_WALK2      .lbf/lbf                                   :        (ECS-A[1])              (6in)                   Dry Weight Fraction Clay (SpectroLith WALK2 Model)
WCOA_WALK2      .lbf/lbf                                   :        (ECS-A[1])              (6in)                   Dry Weight Fraction Coal (SpectroLith WALK2 Model)
WEVA_WALK2      .lbf/lbf                                   :        (ECS-A[1])              (6in)                   Dry Weight Fraction Salt (SpectroLith WALK2 Model)
WPYR_WALK2      .lbf/lbf                                   :        (ECS-A[1])              (6in)                   Dry Weight Fraction Pyrite (SpectroLith WALK2 Model)
WQFM_WALK2      .lbf/lbf                                   :        (ECS-A[1])              (6in)                   Dry Weight Fraction Quartz+Feldspar+Mica (QFM) (SpectroLith WALK2 Model)
WSID_WALK2      .lbf/lbf                                   :        (ECS-A[1])              (6in)                   Dry Weight Fraction Siderite (SpectroLith WALK2 Model)
#-------------------------------------------------------------
#            DEPT   DWAL_WALK2   DWCA_WALK2   DWFE_WALK2   DWGD_WALK2   DWHY_WALK2   DWSI_WALK2   DWSU_WALK2   DWTI_WALK2   DXFE_WALK2   WANH_WALK2   WCAR_WALK2   WCLA_WALK2   WCOA_WALK2   WEVA_WALK2   WPYR_WALK2   WQFM_WALK2   WSID_WALK2 
#                   (ECS-A[1])   (ECS-A[1])   (ECS-A[1])   (ECS-A[1])   (ECS-A[1])   (ECS-A[1])   (ECS-A[1])   (ECS-A[1])   (ECS-A[1])   (ECS-A[1])   (ECS-A[1])   (ECS-A[1])   (ECS-A[1])   (ECS-A[1])   (ECS-A[1])   (ECS-A[1])   (ECS-A[1]) 
#                                                                                                                                                                                                                                              
#                        (6in)        (6in)        (6in)        (6in)        (6in)        (6in)        (6in)        (6in)        (6in)        (6in)        (6in)        (6in)        (6in)        (6in)        (6in)        (6in)        (6in) 
~ASCII
# ...
       7615.00000      0.05217      0.03083      0.03044      8.48307      0.00000      0.33902      0.00225      0.00285      0.00000      0.00000      0.00792      0.27355      0.00000      0.00000      0.00422      0.71431      0.00000
       7615.50000      0.05362      0.02283      0.03166      9.11545      0.00000      0.34544      0.00000      0.00278      0.00000      0.00000      0.00000      0.28626      0.00000      0.00000      0.00000      0.71374      0.00000
       7616.00000      0.05405      0.02051      0.03205      8.63099      0.00006      0.34725      0.00000      0.00247      0.00000      0.00000      0.00000      0.29011      0.00000      0.00000      0.00000      0.70989      0.00000
       7616.50000      0.05644      0.01677      0.03292      6.45113      0.00030      0.34788      0.00339      0.00278      0.00000      0.00000      0.00000      0.31103      0.00000      0.00000      0.00634      0.68263      0.00000
       7617.00000      0.05428      0.01296      0.03040      3.49322      0.00050      0.35731      0.01131      0.00321      0.00000      0.00000      0.00000      0.29212      0.00000      0.00000      0.02116      0.68672      0.00000
       7617.50000      0.05237      0.01200      0.02879      2.78045      0.00056      0.36229      0.01830      0.00354      0.00000      0.00000      0.00000      0.27531      0.00000      0.00000      0.03425      0.69044      0.00000
       7618.00000      0.05039      0.01109      0.02760      3.65527      0.00059      0.36689      0.01966      0.00354      0.00000      0.00000      0.00000      0.25790      0.00000      0.00000      0.03679      0.70531      0.00000
       7618.50000      0.05414      0.00892      0.03009      6.04375      0.00034      0.36249      0.01719      0.00378      0.00000      0.00000      0.00000      0.29084      0.00000      0.00000      0.03217      0.67700      0.00000
       7619.00000      0.05572      0.01486      0.03167      6.46261      0.00001      0.35214      0.00700      0.00357      0.00000      0.00000      0.00000      0.30473      0.00000      0.00000      0.01309      0.68218      0.00000
       7619.50000      0.05586      0.02730      0.03286      5.91412      0.00000      0.33635      0.00000      0.00323      0.00000      0.00000      0.00000      0.30594      0.00000      0.00000      0.00000      0.69406      0.00000
       7620.00000      0.05595      0.04166      0.03321      4.04792      0.00000      0.31914      0.00000      0.00246      0.00000      0.00000      0.03707      0.30680      0.00000      0.00000      0.00000      0.65613      0.00000
       7620.50000      0.05770      0.04340      0.03437      4.94669      0.00000      0.31387      0.00000      0.00222      0.00000      0.00000      0.04175      0.32218      0.00000      0.00000      0.00000      0.63607      0.00000
       7621.00000      0.06208      0.03337      0.03691      6.92835      0.00000      0.31783      0.00000      0.00258      0.00000      0.00000      0.01477      0.36069      0.00000      0.00000      0.00000      0.62454      0.00000
       7621.50000      0.06480      0.01852      0.03841      9.17738      0.00000      0.33043      0.00000      0.00298      0.00000      0.00000      0.00000      0.38454      0.00000      0.00000      0.00000      0.61546      0.00000
       7622.00000      0.06905      0.00915      0.04080      9.24453      0.00000      0.33391      0.00000      0.00351      0.00000      0.00000      0.00000      0.42193      0.00000      0.00000      0.00000      0.57807      0.00000
       7622.50000      0.06900      0.01729      0.04041      9.05429      0.00000      0.32483      0.00325      0.00329      0.00000      0.00000      0.00000      0.42151      0.00000      0.00000      0.00607      0.57242      0.00000
       7623.00000      0.06925      0.02449      0.04013      8.65931      0.00000      0.31638      0.00617      0.00335      0.00000      0.00000      0.00000      0.42368      0.00000      0.00000      0.01154      0.56478      0.00000
       7623.50000      0.06567      0.02857      0.03859      8.54009      0.00000      0.31746      0.00222      0.00311      0.00000      0.00000      0.00185      0.39224      0.00000      0.00000      0.00414      0.60176      0.00000
       7624.00000      0.06445      0.02261      0.03807      7.36013      0.00000      0.32640      0.00000      0.00331      0.00000      0.00000      0.00000      0.38150      0.00000      0.00000      0.00000      0.61850      0.00000
       7624.50000      0.06192      0.02708      0.03653      6.83486      0.00000      0.32574      0.00000      0.00331      0.00000      0.00000      0.00000      0.35924      0.00000      0.00000      0.00000      0.64076      0.00000
       7625.00000      0.05826      0.03522      0.03419      6.56292      0.00000      0.32291      0.00000      0.00358      0.00000      0.00000      0.01973      0.32711      0.00000      0.00000      0.00000      0.65315      0.00000
       7625.50000      0.05293      0.03926      0.03096      6.36726      0.00000      0.32776      0.00000      0.00351      0.00000      0.00000      0.03061      0.28019      0.00000      0.00000      0.00000      0.68919      0.00000
       7626.00000      0.04806      0.04156      0.02816      5.98290      0.00000      0.33367      0.00000      0.00307      0.00000      0.00000      0.03679      0.23745      0.00000      0.00000      0.00000      0.72576      0.00000
       7626.50000      0.04605      0.03814      0.02712      5.58671      0.00000      0.34110      0.00000      0.00258      0.00000      0.00000      0.02760      0.21975      0.00000      0.00000      0.00000      0.75265      0.00000
       7627.00000      0.04576      0.04137      0.02710      6.43882      0.00000      0.33770      0.00000      0.00218      0.00000      0.00000      0.03629      0.21723      0.00000      0.00000      0.00000      0.74648      0.00000
       7627.50000      0.04654      0.03376      0.02753      6.89434      0.00000      0.34523      0.00000      0.00230      0.00000      0.00000      0.01581      0.22409      0.00000      0.00000      0.00000      0.76010      0.00000
       7628.00000      0.04582      0.02955      0.02709      5.76577      0.00000      0.35145      0.00000      0.00228      0.00000      0.00000      0.00448      0.21770      0.00000      0.00000      0.00000      0.77782      0.00000
       7628.50000      0.04839      0.02355      0.02853      3.16883      0.00007      0.35394      0.00000      0.00262      0.00000      0.00000      0.00000      0.24032      0.00000      0.00000      0.00000      0.75968      0.00000
       7629.00000      0.05333      0.02092      0.03132      1.20405      0.00011      0.34834      0.00000      0.00319      0.00000      0.00000      0.00000      0.28371      0.00000      0.00000      0.00000      0.71629      0.00000
       7629.50000      0.05654      0.02451      0.03309      2.40564      0.00000      0.33856      0.00000      0.00370      0.00000      0.00000      0.00000      0.31193      0.00000      0.00000      0.00000      0.68807      0.00000
       7630.00000      0.05636      0.02391      0.03296      3.60119      0.00000      0.33959      0.00000      0.00375      0.00000      0.00000      0.00000      0.31039      0.00000      0.00000      0.00000      0.68961      0.00000
       7630.50000      0.05083      0.02426      0.02980      4.46504      0.00000      0.34893      0.00000      0.00318      0.00000      0.00000      0.00000      0.26174      0.00000      0.00000      0.00000      0.73826      0.00000
       7631.00000      0.04916      0.01972      0.02907      3.40881      0.00000      0.35696      0.00000      0.00245      0.00000      0.00000      0.00000      0.24712      0.00000      0.00000      0.00000      0.75289      0.00000
       7631.50000      0.04803      0.02063      0.02853      3.51014      0.00003      0.35779      0.00000      0.00206      0.00000      0.00000      0.00000      0.23715      0.00000      0.00000      0.00000      0.76285      0.00000
