~VERSION INFORMATION
VERS.           1.2   :CWLS Log ASCII Standard - VERSION 1.2
WRAP.           NO    :One Line per depth step
PROD.  Schlumberger   :LAS Producer
PROG.  DLIS to ASCII 17C0-152                          :LAS Program name and version
CREA.        2011/12/13 23:09                          :LAS Creation date {YYYY/MM/DD hh:mm}
DLIS_CREA.  2011-Dec-13 15:28                          :DLIS Creation date and time {YYYY-MMM-DD hh:mm}
SOURCE.     1ba8f76d-360e-4325-8cd9-5cb564d153a7       :DLIS File Name
#--------------------------------------------------
~WELL INFORMATION
#MNEM.UNIT      DATA             DESCRIPTION
#---- ------ --------------   -----------------------------
STRT .F      6646.5000       :START DEPTH     
STOP .F      8231.0000       :STOP DEPTH     
STEP .F       0.5000         :STEP       
NULL .          -999.25      :NULL VALUE
COMP .                 COMPANY:  EOG Resources, Inc.                
WELL .                    WELL:  Garden Creek 32-07M                
FLD  .                   FIELD:  Wildcat                            
LOC  .                LOCATION:  Lat/ Long : 40.9343 / -104.3619    
CNTY .                  COUNTY:  Weld County                        
STAT .                   STATE:  Colorado                           
CTRY .                 COUNTRY:                                     
SRVC .         SERVICE COMPANY:  Schlumberger                       
API  .              API NUMBER:  05-123-34636-00                    
DATE .                LOG DATE:  6-Dec-2011
UWI  .          UNIQUE WELL ID:  5123346360000                      
#-----------------------------------------------------------------------------
~PARAMETER INFORMATION
#MNEM.UNIT    VALUE                      DESCRIPTION
#---- -----   --------------------       ------------------------
CN   .        EOG Resources  Inc.        :Company Name
WN   .        Garden Creek 32-07M        :Well Name
FN   .        Wildcat                    :Field Name
FL   .        Lat/ Long   40.9343 / -104.3619 :Field Location
FL1  .        SHL   1529' FSL X 2266' FEL NWSE :Field Location Line 1
COUN .        Weld County                :County or Rig Name
STAT .        Colorado                   :State or Province
NATI .                                   :Nation
DATE .        6-Dec-2011                 :Date as Month-Day-Year
APIN .        05-123-34636-00            :API Serial Number
SECT .        7                          :Section
TOWN .        11N                        :Township
RANG .        62W                        :Range
DMF  .        Kelly Bushing              :Drilling Measured From
LMF  .        Kelly Bushing              :Log Measured From
PDAT .        Ground Level               :Permanent Datum
ENGI .        Arvin Shi                  :Engineer's Name
WITN .        Danny Cook                 :Witness's Name
LATI .                                   :Latitude
LONG .                                   :Longitude
LUL  .        Fort Morgan                :Logging Unit Location
LUN  .              7006                 :Logging Unit Number
RUN  .        Two                        :Run Number
SON  .        BOAA-00063                 :Service Order Number
BHT  .DEGF     211.99986                 :Bottom Hole Temperature (used in calculations)
BS   .IN         7.87500                 :Bit Size
DFD  .LB/G       9.70000                 :Drilling Fluid Density
DFV  .S         39.00000                 :Drilling Fluid Viscosity
DFL  .                                   :Drilling Fluid Loss
RMFS .OHMM       0.47250                 :Resistivity of Mud Filtrate Sample
EKB  .F       5290.00000                 :Elevation of Kelly Bushing
EGL  .F       5265.00000                 :Elevation of Ground Level
BLI  .F       8212.00000                 :Bottom Log Interval
BSAL .PPM     1000.00000                 :Borehole Salinity
FLEV .                                   :Fluid Level
MCST .DEGF      86.60000                 :Mud Cake Sample Temperature
MFST .DEGF      86.60000                 :Mud Filtrate Sample Temperature
MRT  .DEGF     216.00000                 :Maximum Recorded Temperature
MST  .DEGF      86.60000                 :Mud Sample Temperature
RMCS .OHMM       0.78750                 :Resistivity of Mud Cake Sample
RMS  .OHMM       0.63000                 :Resistivity of Mud Sample
RW   .OHMM       1.00000                 :Resistivity of Connate Water
TDD  .F       8200.00000                 :Total Depth - Driller
TDL  .F       8212.00000                 :Total Depth - Logger
TLI  .F       1340.00000                 :Top Log Interval
HIDE .        Platform Express           :Header Identifier
MATR .        LIME                       :Rock Matrix for Neutron Porosity Corrections
FNUM .           1.00000                 :Form Factor Numerator
FEXP .           2.00000                 :Form Factor Exponent
DFT  .        Water Based Mud            :Drilling Fluid Type
DFPH .           8.00000                 :Drilling Fluid PH
MCSS .        Calculated                 :Mud Cake Sample Source
MFSS .        Calculated                 :Mud Filtrate Sample Source
MSS  .        Mud Flow                   :Mud Sample Source
OS1  .        HNGS                       :Other Services Line 1
OS2  .        MSIP                       :Other Services Line 2
OS3  .        FMI                        :Other Services Line 3
OS4  .        PEX                        :Other Services Line 4
OS5  .                                   :Other Services Line 5
R1   .        This is the first run in hole :Remark Line 1
R2   .                                   :Remark Line 2
R3   .        Toolstring run as per tool sketch :Remark Line 3
R4   .                                   :Remark Line 4
R5   .        Matrix  Limestone (2.71 g/cc) :Remark Line 5
R6   .                                   :Remark Line 6
R7   .        Main log and repeat log correlated to correlation log around 7000-8000 ft :Remark Line 7
R8   .                                   :Remark Line 8
TCS  .        17 30                      :Time Circulation Stopped
TLAB .        11 30                      :Time Logger At Bottom
NMT  .        NOBARITE                   :HILT Nuclear Mud Type
EPD  .F         5265.000000              :Elevation of Permanent Datum above Mean Sea Level
APD  .F          25.000000               :Elevation of Depth Reference (LMF) above Permanent Datum
#-----------------------------------------------------------------------------
~CURVE INFORMATION
#MNEM.UNIT   API CODE                                  DESCRIPTION
#---- -----  --------                                  -----------------------
DEPT .F                                                :DEPTH (BOREHOLE) {F12.4}
CDF  .LBF                                              :Calibrated Downhole Force {F11.4}
CFTC .HZ                                               :Corrected Far Thermal Counting Rate {F11.4}
CNTC .HZ                                               :Corrected Near Thermal Counting Rate {F11.4}
CTEM .DEGF                                             :Cartridge Temperature {F11.4}
DCAL .IN                                               :Differential Caliper {F11.4}
DNPH .CFCF                                             :Delta Thermal Neutron Porosity {F11.4}
DWAL_WALK2.                                            :Dry Weight Fraction Pseudo Aluminum (SpectroLith WALK2 Model) {F11.4}
DWCA_WALK2.                                            :Dry Weight Fraction Calcium (SpectroLith WALK2 Model) {F11.4}
DWFE_WALK2.                                            :Dry Weight Fraction Iron + 0.14 Aluminum (SpectroLith WALK2 Model) {F11.4}
DWGD_WALK2.PPM                                         :Dry Weight Fraction Gadolinium (SpectroLith WALK2 Model) {F11.4}
DWSI_WALK2.                                            :Dry Weight Fraction Silicon (SpectroLith WALK2 Model) {F11.4}
DWSU_WALK2.                                            :Dry Weight Fraction Sulfur (SpectroLith WALK2 Model) {F11.4}
DWTI_WALK2.                                            :Dry Weight Fraction Titanium (SpectroLith WALK2 Model) {F11.4}
ECGR .GAPI                                             :Environmentally Corrected Gamma-Ray {F11.4}
ECST .DEGF                                             :ECS Temperature {F11.4}
ESUF_WALK2.                                            :Elemental Statistical Uncertainty Factor (SpectroLith WALK2 Model) {F11.4}
GDEV .DEG                                              :HGNS Deviation {F11.4}
GR   .GAPI                                             :Gamma-Ray {F11.4}
GTEM .DEGF                                             :Generalized Borehole Temperature {F11.4}
HGR  .GAPI                                             :HiRes Gamma-Ray {F11.4}
HNPO .CFCF                                             :HiRes Enhanced Thermal Neutron Porosity {F11.4}
HTNP .CFCF                                             :HiRes Thermal Neutron Porosity {F11.4}
NPHI .CFCF                                             :Thermal Neutron Porosity (Ratio Method) {F11.4}
NPOR .CFCF                                             :Enhanced Thermal Neutron Porosity {F11.4}
QCPMT.                                                 :Photomultiplier Tube Quality Control {F11.4}
RHGE_WALK2.G/C3                                        :Matrix Density from Elemental Concentrations (SpectroLith WALK2 Model) {F11.4}
RWA  .OHMM                                             :Apparent Water Resistivity {F11.4}
STIT .F                                                :Stuck Tool Indicator, Total {F11.4}
TENS .LBF                                              :Cable Tension {F11.4}
TNPH .CFCF                                             :Thermal Neutron Porosity {F11.4}
WANH_WALK2.                                            :Dry Weight Fraction Anhydrite/Gypsum (SpectroLith WALK2 Model) {F11.4}
WCAR_WALK2.                                            :Dry Weight Fraction Carbonate (SpectroLith WALK2 Model) {F11.4}
WCLA_WALK2.                                            :Dry Weight Fraction Clay (SpectroLith WALK2 Model) {F11.4}
WCOA_WALK2.                                            :Dry Weight Fraction Coal (SpectroLith WALK2 Model) {F11.4}
WEVA_WALK2.                                            :Dry Weight Fraction Salt (SpectroLith WALK2 Model) {F11.4}
WPYR_WALK2.                                            :Dry Weight Fraction Pyrite (SpectroLith WALK2 Model) {F11.4}
WQFM_WALK2.                                            :Dry Weight Fraction Quartz+Feldspar+Mica (QFM) (SpectroLith WALK2 Model) {F11.4}
WSID_WALK2.                                            :Dry Weight Fraction Siderite (SpectroLith WALK2 Model) {F11.4}
#-----------------------------------------------------------------------------
# 
#      DEPT        CDF        CFTC       CNTC       CTEM       DCAL       DNPH    DWAL_WALK2 DWCA_WALK2 DWFE_WALK2 DWGD_WALK2 DWSI_WALK2 DWSU_WALK2 DWTI_WALK2    ECGR       ECST    ESUF_WALK2    GDEV        GR        GTEM       HGR        HNPO       HTNP       NPHI       NPOR      QCPMT    RHGE_WALK2    RWA        STIT       TENS       TNPH    WANH_WALK2 WCAR_WALK2 WCLA_WALK2 WCOA_WALK2 WEVA_WALK2 WPYR_WALK2 WQFM_WALK2 WSID_WALK2
#
~A  
# ...
   6751.0000 -9979.9521    -6.0429     2.7324   212.9884     0.0000    -0.0032     0.0786     0.0206     0.0461    12.5184     0.3039     0.0039     0.0036    97.2637    48.3325     0.6047     2.7316    98.8234   202.4287   106.1787  -999.2500  -999.2500    -0.0309    18.4253     0.3940     2.7360     1.0000     0.0000  2332.0000    32.0032     0.0000     0.0000     0.3952     0.0000     0.0000     0.0073     0.5976     0.0000
   6751.5000 -9980.6631    -2.2657     0.7111   212.9884     0.0000    -0.0032     0.0815     0.0094     0.0479    14.0156     0.3117     0.0004     0.0046   100.9114    48.3325     0.6436     2.5028   102.5296   202.4287    99.3515  -999.2500  -999.2500    -0.0077  -999.2500     1.2144     2.7334     1.0000     0.0000  2350.0000  -999.2500     0.0000     0.0000     0.4124     0.0000     0.0000     0.0008     0.5868     0.0000
   6752.0000 -9979.2412    -4.3616    -0.4166   212.9884     0.0000    -0.0032     0.0842     0.0123     0.0490    13.0214     0.3041     0.0044     0.0048   100.7914    48.3325     0.6613     2.5505   102.4077   202.6804   101.4972  -999.2500  -999.2500    -0.0197  -999.2500     1.0311     2.7405     1.0000     0.0000  2345.0000  -999.2500     0.0000     0.0000     0.4303     0.0000     0.0000     0.0083     0.5615     0.0000
   6752.5000 -9979.9521    -2.6825    -0.6416   212.9884     0.0000    -0.0032     0.0867     0.0092     0.0501     9.0879     0.3035     0.0077     0.0048   102.4712    50.6736     0.6754     2.6415   104.1145   202.6804   105.2683  -999.2500  -999.2500  -999.2500  -999.2500     0.1983     2.7459     1.0000     0.0000  2330.0000  -999.2500     0.0000     0.0000     0.4470     0.0000     0.0000     0.0143     0.5387     0.0000
   6753.0000 -9979.9521    -4.3655    -1.9194   212.9884     0.0000    -0.0032     0.0852     0.0202     0.0490     5.7307     0.2935     0.0114     0.0039   106.9109    50.6736     0.6710     2.6489   108.6253   202.9320   103.8379  -999.2500  -999.2500  -999.2500  -999.2500     0.0932     2.7501     1.0000     0.0000  2370.0000  -999.2500     0.0000     0.0000     0.4372     0.0000     0.0000     0.0213     0.5416     0.0000
   6753.5000 -9980.6631    -0.2962    -0.5005   212.9884     0.0000    -0.0032     0.0833     0.0182     0.0488     5.6158     0.2984     0.0036     0.0040   106.9188    48.3325     0.7221     2.5294   108.6334   202.9320   115.7367  -999.2500  -999.2500  -999.2500  -999.2500     0.0000     2.7403     1.0000     0.0000  2357.0000  -999.2500     0.0000     0.0000     0.4241     0.0000     0.0000     0.0068     0.5691     0.0000
   6754.0000 -9980.6631     1.8028     2.6494   212.9884     0.0000    -0.0032     0.0808     0.0197     0.0478     7.1361     0.3007     0.0000     0.0039   108.2387    48.3325     0.7332     2.5410   109.9744   202.9320   105.7235    -0.0910     0.1673    -0.0680    -0.0084     0.3355     2.7345     1.0000     0.0000  2352.0000     0.1344     0.0000     0.0000     0.4078     0.0000     0.0000     0.0000     0.5922     0.0000
   6754.5000 -9981.7295     0.5444     4.4485   212.9884     0.0000    -0.1846     0.0775     0.0096     0.0458    10.9158     0.3184     0.0000     0.0040   104.1591    48.3325     0.7509     2.5608   105.8294   202.9320   108.0642     7.4431     9.9958    -0.0780    27.3561     0.3157     2.7290     1.0000     0.0000  2376.0000     9.1820     0.0000     0.0000     0.3893     0.0000     0.0000     0.0000     0.6107     0.0000
   6755.0000 -9981.3740    -1.4208     5.5732   212.9884     0.0000    -0.0018     0.0734     0.0106     0.0435    14.2319     0.3244     0.0000     0.0036   105.4710    48.3325     0.7545     2.5693   107.1623   202.9320   103.5778  -999.2500   -52.6176    -0.0475    23.9272     0.9334     2.7249     1.0000     0.0000  2336.0000     8.0349     0.0000     0.0000     0.3691     0.0000     0.0000     0.0000     0.6309     0.0000
   6755.5000 -9980.6631    -1.8475     6.4728   212.9884     0.0000    -0.0018     0.0739     0.0000     0.0438    15.3310     0.3359     0.0000     0.0035   104.8710    48.3325     0.7663     2.7508   106.5527   202.9320   110.3400     1.9470     1.2453    -0.0427  -999.2500     1.5188     2.7237     1.0000     0.0000  2391.0000  -999.2500     0.0000     0.0000     0.3715     0.0000     0.0000     0.0000     0.6285     0.0000
   6756.0000 -9980.3076     1.2494     6.4728   212.9884     0.0000    -0.0018     0.0800     0.0000     0.0475    11.5619     0.3249     0.0079     0.0031   104.9910    48.3325     0.7496     2.6801   106.6747   202.9320   106.2437    61.5298    33.8933    -0.0460  -999.2500     0.6925     2.7400     1.0000     0.0000  2366.0000  -999.2500     0.0000     0.0000     0.4025     0.0000     0.0000     0.0148     0.5827     0.0000
   6756.5000 -9979.9521    -0.0099     3.3229   212.9884     0.0000    -0.0018     0.0828     0.0000     0.0491     6.7976     0.3199     0.0148     0.0030   100.0954    48.3325     0.7241     2.4446   101.7006   202.9320   104.4231  -999.2500  -999.2500    -0.0117  -999.2500     0.3450     2.7513     1.0000     0.0000  2336.0000  -999.2500     0.0000     0.0000     0.4209     0.0000     0.0000     0.0277     0.5514     0.0000
   6757.0000 -9981.0186    -1.6883     1.2990   212.9884     0.0000    -0.0018     0.0862     0.0076     0.0502     6.0144     0.3060     0.0120     0.0031   101.5353    48.3325     0.6923     2.5405   103.1635   202.9320    94.8000  -999.2500  -999.2500    -0.0215  -999.2500     0.0525     2.7511     1.0000     0.0000  2343.0000  -999.2500     0.0000     0.0000     0.4432     0.0000     0.0000     0.0225     0.5343     0.0000
   6757.5000 -9980.6631    -0.1648     3.3238   212.9884     0.0000    -0.0018     0.0804     0.0197     0.0476     8.4797     0.3013     0.0000     0.0039    98.1756    50.6736     0.6842     2.6446    99.7499   202.9320   110.9252    -0.0420     0.0500    -0.1073  -999.2500     0.2789     2.7341     1.0000     0.0000  2389.0000  -999.2500     0.0000     0.0000     0.4056     0.0000     0.0000     0.0000     0.5944     0.0000
   6758.0000 -9980.6631     3.1864     3.0989   212.9884     0.0000    -0.0018     0.0769     0.0319     0.0454    10.7834     0.2934     0.0000     0.0040   103.6711    50.6736     0.6770     2.4743   105.3336   202.9320    93.4346    -0.0555     0.0370    -0.1171  -999.2500     1.1622     2.7321     1.0000     0.0000  2367.0000  -999.2500     0.0000     0.0108     0.3865     0.0000     0.0000     0.0000     0.6027     0.0000
   6758.5000 -9979.9521     5.5774     3.7315   212.9884     0.0000    -0.0018     0.0723     0.0305     0.0425    12.0929     0.3034     0.0000     0.0043    99.1835    48.3325     0.7022     2.4637   100.7740   202.9320   111.4453    -0.0960    -0.0018    -0.1126    -0.0752     0.3523     2.7264     1.0000     0.0000  2398.0000     0.0051     0.0000     0.0072     0.3633     0.0000     0.0000     0.0000     0.6296     0.0000
   6759.0000 -9979.9521     4.7379     4.4064   212.9884     0.0000    -0.0025     0.0725     0.0277     0.0422    11.1375     0.3067     0.0029     0.0045    99.9035    48.3325     0.6953     2.5543   101.5055   202.9320    97.1408    -0.1211     0.0057    -0.0301    -0.0530     0.6086     2.7288     1.0000     0.0000  2378.0000     0.0421     0.0000     0.0000     0.3646     0.0000     0.0000     0.0054     0.6299     0.0000
   6759.5000 -9979.9521     3.4790     4.4064   212.9884     0.0000    -0.0031     0.0734     0.0299     0.0418     9.1411     0.3034     0.0087     0.0048    95.2239    48.3325     0.6734     2.5079    96.7509   202.9320    95.9704    -0.0080     0.1057    -0.0018     0.0895     1.0972     2.7354     1.0000     0.0000  2392.0000     0.0954     0.0000     0.0055     0.3691     0.0000     0.0000     0.0164     0.6090     0.0000
   6760.0000 -9981.3740     1.9336     2.8315   212.9884     0.0000    -0.0032     0.0757     0.0310     0.0428     7.0629     0.2983     0.0109     0.0048   100.5514    48.3325     0.6552     2.5377   102.1638   202.9320    97.5309    -0.0838     0.0274    -0.0070     0.5877     1.1682     2.7400     1.0000     0.0000  2374.0000     0.1329     0.0000     0.0084     0.3804     0.0000     0.0000     0.0203     0.5908     0.0000
