~VERSION INFORMATION
VERS.           1.2   :CWLS Log ASCII Standard - VERSION 1.2
WRAP.           NO    :One Line per depth step
PROD.  Schlumberger   :LAS Producer
PROG.  DLIS to ASCII 17C0-152                          :LAS Program name and version
CREA.        2011/12/13 23:09                          :LAS Creation date {YYYY/MM/DD hh:mm}
DLIS_CREA.  2011-Dec-13 15:28                          :DLIS Creation date and time {YYYY-MMM-DD hh:mm}
SOURCE.     1ba8f76d-360e-4325-8cd9-5cb564d153a7       :DLIS File Name
#--------------------------------------------------
~WELL INFORMATION
#MNEM.UNIT      DATA             DESCRIPTION
#---- ------ --------------   -----------------------------
STRT .F      6646.5000       :START DEPTH     
STOP .F      8231.0000       :STOP DEPTH     
STEP .F       0.5000         :STEP       
NULL .          -999.25      :NULL VALUE
COMP .                 COMPANY:  EOG Resources, Inc.                
WELL .                    WELL:  Garden Creek 32-07M                
FLD  .                   FIELD:  Wildcat                            
LOC  .                LOCATION:  Lat/ Long : 40.9343 / -104.3619    
CNTY .                  COUNTY:  Weld County                        
STAT .                   STATE:  Colorado                           
CTRY .                 COUNTRY:                                     
SRVC .         SERVICE COMPANY:  Schlumberger                       
API  .              API NUMBER:  05-123-34636-00                    
DATE .                LOG DATE:  6-Dec-2011
UWI  .          UNIQUE WELL ID:  5123346360000                      
#-----------------------------------------------------------------------------
~PARAMETER INFORMATION
#MNEM.UNIT    VALUE                      DESCRIPTION
#---- -----   --------------------       ------------------------
CN   .        EOG Resources  Inc.        :Company Name
WN   .        Garden Creek 32-07M        :Well Name
FN   .        Wildcat                    :Field Name
FL   .        Lat/ Long   40.9343 / -104.3619 :Field Location
FL1  .        SHL   1529' FSL X 2266' FEL NWSE :Field Location Line 1
COUN .        Weld County                :County or Rig Name
STAT .        Colorado                   :State or Province
NATI .                                   :Nation
DATE .        6-Dec-2011                 :Date as Month-Day-Year
APIN .        05-123-34636-00            :API Serial Number
SECT .        7                          :Section
TOWN .        11N                        :Township
RANG .        62W                        :Range
DMF  .        Kelly Bushing              :Drilling Measured From
LMF  .        Kelly Bushing              :Log Measured From
PDAT .        Ground Level               :Permanent Datum
ENGI .        Arvin Shi                  :Engineer's Name
WITN .        Danny Cook                 :Witness's Name
LATI .                                   :Latitude
LONG .                                   :Longitude
LUL  .        Fort Morgan                :Logging Unit Location
LUN  .              7006                 :Logging Unit Number
RUN  .        Two                        :Run Number
SON  .        BOAA-00063                 :Service Order Number
BHT  .DEGF     211.99986                 :Bottom Hole Temperature (used in calculations)
BS   .IN         7.87500                 :Bit Size
DFD  .LB/G       9.70000                 :Drilling Fluid Density
DFV  .S         39.00000                 :Drilling Fluid Viscosity
DFL  .                                   :Drilling Fluid Loss
RMFS .OHMM       0.47250                 :Resistivity of Mud Filtrate Sample
EKB  .F       5290.00000                 :Elevation of Kelly Bushing
EGL  .F       5265.00000                 :Elevation of Ground Level
BLI  .F       8212.00000                 :Bottom Log Interval
BSAL .PPM     1000.00000                 :Borehole Salinity
FLEV .                                   :Fluid Level
MCST .DEGF      86.60000                 :Mud Cake Sample Temperature
MFST .DEGF      86.60000                 :Mud Filtrate Sample Temperature
MRT  .DEGF     216.00000                 :Maximum Recorded Temperature
MST  .DEGF      86.60000                 :Mud Sample Temperature
RMCS .OHMM       0.78750                 :Resistivity of Mud Cake Sample
RMS  .OHMM       0.63000                 :Resistivity of Mud Sample
RW   .OHMM       1.00000                 :Resistivity of Connate Water
TDD  .F       8200.00000                 :Total Depth - Driller
TDL  .F       8212.00000                 :Total Depth - Logger
TLI  .F       1340.00000                 :Top Log Interval
HIDE .        Platform Express           :Header Identifier
MATR .        LIME                       :Rock Matrix for Neutron Porosity Corrections
FNUM .           1.00000                 :Form Factor Numerator
FEXP .           2.00000                 :Form Factor Exponent
DFT  .        Water Based Mud            :Drilling Fluid Type
DFPH .           8.00000                 :Drilling Fluid PH
MCSS .        Calculated                 :Mud Cake Sample Source
MFSS .        Calculated                 :Mud Filtrate Sample Source
MSS  .        Mud Flow                   :Mud Sample Source
OS1  .        HNGS                       :Other Services Line 1
OS2  .        MSIP                       :Other Services Line 2
OS3  .        FMI                        :Other Services Line 3
OS4  .        PEX                        :Other Services Line 4
OS5  .                                   :Other Services Line 5
R1   .        This is the first run in hole :Remark Line 1
R2   .                                   :Remark Line 2
R3   .        Toolstring run as per tool sketch :Remark Line 3
R4   .                                   :Remark Line 4
R5   .        Matrix  Limestone (2.71 g/cc) :Remark Line 5
R6   .                                   :Remark Line 6
R7   .        Main log and repeat log correlated to correlation log around 7000-8000 ft :Remark Line 7
R8   .                                   :Remark Line 8
TCS  .        17 30                      :Time Circulation Stopped
TLAB .        11 30                      :Time Logger At Bottom
NMT  .        NOBARITE                   :HILT Nuclear Mud Type
EPD  .F         5265.000000              :Elevation of Permanent Datum above Mean Sea Level
APD  .F          25.000000               :Elevation of Depth Reference (LMF) above Permanent Datum
#-----------------------------------------------------------------------------
~CURVE INFORMATION
#MNEM.UNIT   API CODE                                  DESCRIPTION
#---- -----  --------                                  -----------------------
DEPT .F                                                :DEPTH (BOREHOLE) {F12.4}
CDF  .LBF                                              :Calibrated Downhole Force {F11.4}
CFTC .HZ                                               :Corrected Far Thermal Counting Rate {F11.4}
CNTC .HZ                                               :Corrected Near Thermal Counting Rate {F11.4}
CTEM .DEGF                                             :Cartridge Temperature {F11.4}
DCAL .IN                                               :Differential Caliper {F11.4}
DNPH .CFCF                                             :Delta Thermal Neutron Porosity {F11.4}
DWAL_WALK2.                                            :Dry Weight Fraction Pseudo Aluminum (SpectroLith WALK2 Model) {F11.4}
DWCA_WALK2.                                            :Dry Weight Fraction Calcium (SpectroLith WALK2 Model) {F11.4}
DWFE_WALK2.                                            :Dry Weight Fraction Iron + 0.14 Aluminum (SpectroLith WALK2 Model) {F11.4}
DWGD_WALK2.PPM                                         :Dry Weight Fraction Gadolinium (SpectroLith WALK2 Model) {F11.4}
DWSI_WALK2.                                            :Dry Weight Fraction Silicon (SpectroLith WALK2 Model) {F11.4}
DWSU_WALK2.                                            :Dry Weight Fraction Sulfur (SpectroLith WALK2 Model) {F11.4}
DWTI_WALK2.                                            :Dry Weight Fraction Titanium (SpectroLith WALK2 Model) {F11.4}
ECGR .GAPI                                             :Environmentally Corrected Gamma-Ray {F11.4}
ECST .DEGF                                             :ECS Temperature {F11.4}
ESUF_WALK2.                                            :Elemental Statistical Uncertainty Factor (SpectroLith WALK2 Model) {F11.4}
GDEV .DEG                                              :HGNS Deviation {F11.4}
GR   .GAPI                                             :Gamma-Ray {F11.4}
GTEM .DEGF                                             :Generalized Borehole Temperature {F11.4}
HGR  .GAPI                                             :HiRes Gamma-Ray {F11.4}
HNPO .CFCF                                             :HiRes Enhanced Thermal Neutron Porosity {F11.4}
HTNP .CFCF                                             :HiRes Thermal Neutron Porosity {F11.4}
NPHI .CFCF                                             :Thermal Neutron Porosity (Ratio Method) {F11.4}
NPOR .CFCF                                             :Enhanced Thermal Neutron Porosity {F11.4}
QCPMT.                                                 :Photomultiplier Tube Quality Control {F11.4}
RHGE_WALK2.G/C3                                        :Matrix Density from Elemental Concentrations (SpectroLith WALK2 Model) {F11.4}
RWA  .OHMM                                             :Apparent Water Resistivity {F11.4}
STIT .F                                                :Stuck Tool Indicator, Total {F11.4}
TENS .LBF                                              :Cable Tension {F11.4}
TNPH .CFCF                                             :Thermal Neutron Porosity {F11.4}
WANH_WALK2.                                            :Dry Weight Fraction Anhydrite/Gypsum (SpectroLith WALK2 Model) {F11.4}
WCAR_WALK2.                                            :Dry Weight Fraction Carbonate (SpectroLith WALK2 Model) {F11.4}
WCLA_WALK2.                                            :Dry Weight Fraction Clay (SpectroLith WALK2 Model) {F11.4}
WCOA_WALK2.                                            :Dry Weight Fraction Coal (SpectroLith WALK2 Model) {F11.4}
WEVA_WALK2.                                            :Dry Weight Fraction Salt (SpectroLith WALK2 Model) {F11.4}
WPYR_WALK2.                                            :Dry Weight Fraction Pyrite (SpectroLith WALK2 Model) {F11.4}
WQFM_WALK2.                                            :Dry Weight Fraction Quartz+Feldspar+Mica (QFM) (SpectroLith WALK2 Model) {F11.4}
WSID_WALK2.                                            :Dry Weight Fraction Siderite (SpectroLith WALK2 Model) {F11.4}
#-----------------------------------------------------------------------------
# 
#      DEPT        CDF        CFTC       CNTC       CTEM       DCAL       DNPH    DWAL_WALK2 DWCA_WALK2 DWFE_WALK2 DWGD_WALK2 DWSI_WALK2 DWSU_WALK2 DWTI_WALK2    ECGR       ECST    ESUF_WALK2    GDEV        GR        GTEM       HGR        HNPO       HTNP       NPHI       NPOR      QCPMT    RHGE_WALK2    RWA        STIT       TENS       TNPH    WANH_WALK2 WCAR_WALK2 WCLA_WALK2 WCOA_WALK2 WEVA_WALK2 WPYR_WALK2 WQFM_WALK2 WSID_WALK2
#
~A  
# ...
   8119.0000 -9982.4404    -0.5578     7.0934   209.0355     0.0000    -0.0028     0.0753     0.0459     0.0446     7.0126     0.2798     0.0000     0.0036   114.2301    43.6503     0.6681     2.9828   116.0619   216.5214   116.0619  -999.2500  -999.2500    -0.0154  -999.2500     0.7882     2.7330     1.0000     0.0000  2675.0000  -999.2500     0.0000     0.0485     0.3786     0.0000     0.0000     0.0000     0.5729     0.0000
   8119.5000 -9982.7959    -2.6554     3.7200   209.0355     0.0000    -0.0028     0.0750     0.0399     0.0436     6.7471     0.2881     0.0066     0.0034   110.2704    43.6503     0.6568     3.1330   112.0387   216.0181   110.3726  -999.2500  -999.2500    -0.0177  -999.2500     0.2482     2.7380     1.0000     0.0000  2667.0000  -999.2500     0.0000     0.0324     0.3771     0.0000     0.0000     0.0124     0.5781     0.0000
   8120.0000 -9981.7295    -0.9762     4.9241   209.0355     0.0000    -0.0028     0.0760     0.0314     0.0426     7.0827     0.2978     0.0190     0.0032   102.4631    43.6503     0.6395     3.0665   104.1062   216.0181   109.0721  -999.2500  -999.2500    -0.0357  -999.2500     0.6939     2.7492     1.0000     0.0000  2672.0000  -999.2500     0.0000     0.0094     0.3819     0.0000     0.0000     0.0355     0.5732     0.0000
   8120.5000 -9981.7295    -1.4259     3.0939   209.0355     0.0000    -0.0028     0.0747     0.0321     0.0415     7.0088     0.2995     0.0225     0.0027   100.0313    43.6503     0.6293     3.0343   101.6354   216.0181    93.6297  -999.2500  -999.2500    -0.0404  -999.2500     0.2911     2.7515     1.0000     0.0000  2670.0000  -999.2500     0.0000     0.0113     0.3756     0.0000     0.0000     0.0421     0.5710     0.0000
   8121.0000 -9981.0186    -2.2648     3.0904   209.0355     0.0000    -0.0028     0.0680     0.0369     0.0385     7.6900     0.3049     0.0148     0.0025    99.3194    43.6503     0.6240     3.0958   100.9120   216.0181   103.3828  -999.2500  -999.2500    -0.0354  -999.2500     0.4449     2.7378     1.0000     0.0000  2644.0000  -999.2500     0.0000     0.0244     0.3416     0.0000     0.0000     0.0277     0.6063     0.0000
   8121.5000 -9981.7295    -4.7835     4.7954   209.0355     0.0000    -0.0028     0.0623     0.0488     0.0369     8.5375     0.2995     0.0013     0.0025   103.1590    43.6503     0.6429     3.0045   104.8133   216.0181   105.2359  -999.2500  -999.2500    -0.0221  -999.2500     0.2780     2.7209     1.0000     0.0000  2646.0000  -999.2500     0.0000     0.0563     0.3134     0.0000     0.0000     0.0025     0.6279     0.0000
   8122.0000 -9982.4404    -5.6249     3.8960   209.0355     0.0000    -0.0028     0.0625     0.0540     0.0371    10.1306     0.2931     0.0000     0.0027   110.0384    43.6503     0.6656     2.9015   111.8030   216.0181   105.6585  -999.2500  -999.2500    -0.0142  -999.2500     0.5344     2.7206     1.0000     0.0000  2657.0000  -999.2500     0.0000     0.0702     0.3140     0.0000     0.0000     0.0000     0.6157     0.0000
   8122.5000 -9982.4404    -0.1317     2.9330   209.0355     0.0000    -0.0028     0.0672     0.0498     0.0400    11.6346     0.2894     0.0000     0.0027   120.9175    43.6503     0.7014     3.0029   122.8565   216.0181   125.1647    -0.0426     0.1984    -0.0237  -999.2500     0.5303     2.7253     1.0000     0.0000  2635.0000  -999.2500     0.0000     0.0590     0.3380     0.0000     0.0000     0.0000     0.6030     0.0000
   8123.0000 -9981.0186     2.3804     3.6387   209.0355     0.0000    -0.0028     0.0733     0.0316     0.0429    13.1175     0.3006     0.0064     0.0025   126.8050    43.6503     0.7337     3.0763   128.8384   216.0181   138.8841  -999.2500  -999.2500    -0.0304  -999.2500     0.2022     2.7350     1.0000     0.0000  2661.0000  -999.2500     0.0000     0.0100     0.3682     0.0000     0.0000     0.0120     0.6098     0.0000
   8123.5000 -9981.7295     0.9738     1.7282   207.0590     0.0000    -0.0028     0.0765     0.0086     0.0447    13.4369     0.3216     0.0075     0.0026   128.4848    43.6503     0.7609     3.0494   130.5452   216.0181   123.2792    -0.0289     0.2384    -0.0360     0.1802     0.3249     2.7358     1.0000     0.0000  2643.0000     0.1967     0.0000     0.0000     0.3847     0.0000     0.0000     0.0140     0.6013     0.0000
   8124.0000 -9981.7295    -2.4171     1.7282   207.0590     0.0000    -0.1200     0.0773     0.0000     0.0461    12.6861     0.3295     0.0000     0.0030   129.5967    43.6503     0.7633     3.0307   131.6749   216.0181   128.6108  -999.2500  -999.2500    -0.0352     0.2940     0.4544     2.7279     1.0000     0.0000  2655.0000     0.6534     0.0000     0.0000     0.3886     0.0000     0.0000     0.0000     0.6114     0.0000
   8124.5000 -9981.7295    -3.6759     4.6515   207.0590     0.0000    -0.1200     0.0778     0.0049     0.0464    11.1701     0.3229     0.0000     0.0029   139.5798    43.6503     0.7465     3.0207   141.8182   216.0181   141.2899  -999.2500  -999.2500    -0.0356  -999.2500     0.6482     2.7293     1.0000     0.0000  2667.0000  -999.2500     0.0000     0.0000     0.3910     0.0000     0.0000     0.0000     0.6090     0.0000
   8125.0000 -9982.4404    -2.6831     4.2645   207.0590     0.0000    -0.1200     0.0757     0.0219     0.0452    11.1255     0.3067     0.0000     0.0027   152.7787    43.6503     0.7366     3.0911   155.2287   216.0181   153.7088  -999.2500  -999.2500    -0.0282  -999.2500     0.8855     2.7300     1.0000     0.0000  2653.0000  -999.2500     0.0000     0.0000     0.3805     0.0000     0.0000     0.0000     0.6195     0.0000
   8125.5000 -9981.0186    -5.1436     1.3903   207.0590     0.0000    -0.1200     0.0704     0.0345     0.0422    10.3481     0.3014     0.0000     0.0022   172.5290    43.6503     0.7235     2.9850   175.2957   216.0181   169.7039  -999.2500  -999.2500     0.0361  -999.2500     1.0028     2.7266     1.0000     0.0000  2650.0000  -999.2500     0.0000     0.0177     0.3540     0.0000     0.0000     0.0000     0.6283     0.0000
   8126.0000 -9982.4404    -3.4586     0.8295   207.0590     0.0000    -0.1200     0.0664     0.0329     0.0397     8.7330     0.3105     0.0000     0.0021   174.6568    43.6503     0.7299     2.7854   177.4576   216.0181   202.4743  -999.2500  -999.2500     0.0197  -999.2500     0.8488     2.7218     1.0000     0.0000  2618.0000  -999.2500     0.0000     0.0134     0.3337     0.0000     0.0000     0.0000     0.6529     0.0000
   8126.5000 -9982.7959    -7.2398     0.3765   207.0590     0.0000    -0.1200     0.0658     0.0261     0.0391     6.6866     0.3197     0.0018     0.0021   154.8585    43.6503     0.7012     2.8452   157.3418   216.0181   160.0808  -999.2500  -999.2500     0.0070  -999.2500     0.6698     2.7216     1.0000     0.0000  2627.0000  -999.2500     0.0000     0.0000     0.3306     0.0000     0.0000     0.0033     0.6661     0.0000
   8127.0000 -9981.7295    -2.6805    -0.9697   207.0590     0.0000    -0.1200     0.0669     0.0299     0.0391     6.8086     0.3138     0.0058     0.0024   120.8135    43.6503     0.6560     2.9389   122.7508   216.0181   110.0800  -999.2500  -999.2500    -0.0151  -999.2500     0.6378     2.7271     1.0000     0.0000  2637.0000  -999.2500     0.0000     0.0055     0.3363     0.0000     0.0000     0.0109     0.6472     0.0000
   8127.5000 -9981.7295    -3.0746     1.1010   207.0590     0.0000    -0.1200     0.0651     0.0418     0.0388     8.2636     0.3024     0.0000     0.0024   104.8629    43.6503     0.6233     3.0132   106.5445   216.0181    98.7014  -999.2500  -999.2500    -0.0373  -999.2500     0.4182     2.7217     1.0000     0.0000  2641.0000  -999.2500     0.0000     0.0375     0.3273     0.0000     0.0000     0.0000     0.6352     0.0000
   8128.0000 -9981.0186    -1.3966     1.0521   207.0590     0.0000    -0.1200     0.0615     0.0573     0.0366     9.0716     0.2908     0.0000     0.0025   105.7188    43.6503     0.6126     2.9052   107.4141   216.0181   111.5754     1.1560    11.2595    -0.0284  -999.2500     0.4195     2.7203     1.0000     0.0000  2657.0000  -999.2500     0.0000     0.0792     0.3093     0.0000     0.0000     0.0000     0.6115     0.0000
