~VERSION INFORMATION
VERS.           1.2   :CWLS Log ASCII Standard - VERSION 1.2
WRAP.           NO    :One Line per depth step
PROD.  Schlumberger   :LAS Producer
PROG.  DLIS to ASCII 17C0-152                          :LAS Program name and version
CREA.        2011/12/13 23:09                          :LAS Creation date {YYYY/MM/DD hh:mm}
DLIS_CREA.  2011-Dec-13 15:28                          :DLIS Creation date and time {YYYY-MMM-DD hh:mm}
SOURCE.     1ba8f76d-360e-4325-8cd9-5cb564d153a7       :DLIS File Name
#--------------------------------------------------
~WELL INFORMATION
#MNEM.UNIT      DATA             DESCRIPTION
#---- ------ --------------   -----------------------------
STRT .F      6646.5000       :START DEPTH     
STOP .F      8231.0000       :STOP DEPTH     
STEP .F       0.5000         :STEP       
NULL .          -999.25      :NULL VALUE
COMP .                 COMPANY:  EOG Resources, Inc.                
WELL .                    WELL:  Garden Creek 32-07M                
FLD  .                   FIELD:  Wildcat                            
LOC  .                LOCATION:  Lat/ Long : 40.9343 / -104.3619    
CNTY .                  COUNTY:  Weld County                        
STAT .                   STATE:  Colorado                           
CTRY .                 COUNTRY:                                     
SRVC .         SERVICE COMPANY:  Schlumberger                       
API  .              API NUMBER:  05-123-34636-00                    
DATE .                LOG DATE:  6-Dec-2011
UWI  .          UNIQUE WELL ID:  5123346360000                      
#-----------------------------------------------------------------------------
~PARAMETER INFORMATION
#MNEM.UNIT    VALUE                      DESCRIPTION
#---- -----   --------------------       ------------------------
CN   .        EOG Resources  Inc.        :Company Name
WN   .        Garden Creek 32-07M        :Well Name
FN   .        Wildcat                    :Field Name
FL   .        Lat/ Long   40.9343 / -104.3619 :Field Location
FL1  .        SHL   1529' FSL X 2266' FEL NWSE :Field Location Line 1
COUN .        Weld County                :County or Rig Name
STAT .        Colorado                   :State or Province
NATI .                                   :Nation
DATE .        6-Dec-2011                 :Date as Month-Day-Year
APIN .        05-123-34636-00            :API Serial Number
SECT .        7                          :Section
TOWN .        11N                        :Township
RANG .        62W                        :Range
DMF  .        Kelly Bushing              :Drilling Measured From
LMF  .        Kelly Bushing              :Log Measured From
PDAT .        Ground Level               :Permanent Datum
ENGI .        Arvin Shi                  :Engineer's Name
WITN .        Danny Cook                 :Witness's Name
LATI .                                   :Latitude
LONG .                                   :Longitude
LUL  .        Fort Morgan                :Logging Unit Location
LUN  .              7006                 :Logging Unit Number
RUN  .        Two                        :Run Number
SON  .        BOAA-00063                 :Service Order Number
BHT  .DEGF     211.99986                 :Bottom Hole Temperature (used in calculations)
BS   .IN         7.87500                 :Bit Size
DFD  .LB/G       9.70000                 :Drilling Fluid Density
DFV  .S         39.00000                 :Drilling Fluid Viscosity
DFL  .                                   :Drilling Fluid Loss
RMFS .OHMM       0.47250                 :Resistivity of Mud Filtrate Sample
EKB  .F       5290.00000                 :Elevation of Kelly Bushing
EGL  .F       5265.00000                 :Elevation of Ground Level
BLI  .F       8212.00000                 :Bottom Log Interval
BSAL .PPM     1000.00000                 :Borehole Salinity
FLEV .                                   :Fluid Level
MCST .DEGF      86.60000                 :Mud Cake Sample Temperature
MFST .DEGF      86.60000                 :Mud Filtrate Sample Temperature
MRT  .DEGF     216.00000                 :Maximum Recorded Temperature
MST  .DEGF      86.60000                 :Mud Sample Temperature
RMCS .OHMM       0.78750                 :Resistivity of Mud Cake Sample
RMS  .OHMM       0.63000                 :Resistivity of Mud Sample
RW   .OHMM       1.00000                 :Resistivity of Connate Water
TDD  .F       8200.00000                 :Total Depth - Driller
TDL  .F       8212.00000                 :Total Depth - Logger
TLI  .F       1340.00000                 :Top Log Interval
HIDE .        Platform Express           :Header Identifier
MATR .        LIME                       :Rock Matrix for Neutron Porosity Corrections
FNUM .           1.00000                 :Form Factor Numerator
FEXP .           2.00000                 :Form Factor Exponent
DFT  .        Water Based Mud            :Drilling Fluid Type
DFPH .           8.00000                 :Drilling Fluid PH
MCSS .        Calculated                 :Mud Cake Sample Source
MFSS .        Calculated                 :Mud Filtrate Sample Source
MSS  .        Mud Flow                   :Mud Sample Source
OS1  .        HNGS                       :Other Services Line 1
OS2  .        MSIP                       :Other Services Line 2
OS3  .        FMI                        :Other Services Line 3
OS4  .        PEX                        :Other Services Line 4
OS5  .                                   :Other Services Line 5
R1   .        This is the first run in hole :Remark Line 1
R2   .                                   :Remark Line 2
R3   .        Toolstring run as per tool sketch :Remark Line 3
R4   .                                   :Remark Line 4
R5   .        Matrix  Limestone (2.71 g/cc) :Remark Line 5
R6   .                                   :Remark Line 6
R7   .        Main log and repeat log correlated to correlation log around 7000-8000 ft :Remark Line 7
R8   .                                   :Remark Line 8
TCS  .        17 30                      :Time Circulation Stopped
TLAB .        11 30                      :Time Logger At Bottom
NMT  .        NOBARITE                   :HILT Nuclear Mud Type
EPD  .F         5265.000000              :Elevation of Permanent Datum above Mean Sea Level
APD  .F          25.000000               :Elevation of Depth Reference (LMF) above Permanent Datum
#-----------------------------------------------------------------------------
~CURVE INFORMATION
#MNEM.UNIT   API CODE                                  DESCRIPTION
#---- -----  --------                                  -----------------------
DEPT .F                                                :DEPTH (BOREHOLE) {F12.4}
CDF  .LBF                                              :Calibrated Downhole Force {F11.4}
CFTC .HZ                                               :Corrected Far Thermal Counting Rate {F11.4}
CNTC .HZ                                               :Corrected Near Thermal Counting Rate {F11.4}
CTEM .DEGF                                             :Cartridge Temperature {F11.4}
DCAL .IN                                               :Differential Caliper {F11.4}
DNPH .CFCF                                             :Delta Thermal Neutron Porosity {F11.4}
DWAL_WALK2.                                            :Dry Weight Fraction Pseudo Aluminum (SpectroLith WALK2 Model) {F11.4}
DWCA_WALK2.                                            :Dry Weight Fraction Calcium (SpectroLith WALK2 Model) {F11.4}
DWFE_WALK2.                                            :Dry Weight Fraction Iron + 0.14 Aluminum (SpectroLith WALK2 Model) {F11.4}
DWGD_WALK2.PPM                                         :Dry Weight Fraction Gadolinium (SpectroLith WALK2 Model) {F11.4}
DWSI_WALK2.                                            :Dry Weight Fraction Silicon (SpectroLith WALK2 Model) {F11.4}
DWSU_WALK2.                                            :Dry Weight Fraction Sulfur (SpectroLith WALK2 Model) {F11.4}
DWTI_WALK2.                                            :Dry Weight Fraction Titanium (SpectroLith WALK2 Model) {F11.4}
ECGR .GAPI                                             :Environmentally Corrected Gamma-Ray {F11.4}
ECST .DEGF                                             :ECS Temperature {F11.4}
ESUF_WALK2.                                            :Elemental Statistical Uncertainty Factor (SpectroLith WALK2 Model) {F11.4}
GDEV .DEG                                              :HGNS Deviation {F11.4}
GR   .GAPI                                             :Gamma-Ray {F11.4}
GTEM .DEGF                                             :Generalized Borehole Temperature {F11.4}
HGR  .GAPI                                             :HiRes Gamma-Ray {F11.4}
HNPO .CFCF                                             :HiRes Enhanced Thermal Neutron Porosity {F11.4}
HTNP .CFCF                                             :HiRes Thermal Neutron Porosity {F11.4}
NPHI .CFCF                                             :Thermal Neutron Porosity (Ratio Method) {F11.4}
NPOR .CFCF                                             :Enhanced Thermal Neutron Porosity {F11.4}
QCPMT.                                                 :Photomultiplier Tube Quality Control {F11.4}
RHGE_WALK2.G/C3                                        :Matrix Density from Elemental Concentrations (SpectroLith WALK2 Model) {F11.4}
RWA  .OHMM                                             :Apparent Water Resistivity {F11.4}
STIT .F                                                :Stuck Tool Indicator, Total {F11.4}
TENS .LBF                                              :Cable Tension {F11.4}
TNPH .CFCF                                             :Thermal Neutron Porosity {F11.4}
WANH_WALK2.                                            :Dry Weight Fraction Anhydrite/Gypsum (SpectroLith WALK2 Model) {F11.4}
WCAR_WALK2.                                            :Dry Weight Fraction Carbonate (SpectroLith WALK2 Model) {F11.4}
WCLA_WALK2.                                            :Dry Weight Fraction Clay (SpectroLith WALK2 Model) {F11.4}
WCOA_WALK2.                                            :Dry Weight Fraction Coal (SpectroLith WALK2 Model) {F11.4}
WEVA_WALK2.                                            :Dry Weight Fraction Salt (SpectroLith WALK2 Model) {F11.4}
WPYR_WALK2.                                            :Dry Weight Fraction Pyrite (SpectroLith WALK2 Model) {F11.4}
WQFM_WALK2.                                            :Dry Weight Fraction Quartz+Feldspar+Mica (QFM) (SpectroLith WALK2 Model) {F11.4}
WSID_WALK2.                                            :Dry Weight Fraction Siderite (SpectroLith WALK2 Model) {F11.4}
#-----------------------------------------------------------------------------
# 
#      DEPT        CDF        CFTC       CNTC       CTEM       DCAL       DNPH    DWAL_WALK2 DWCA_WALK2 DWFE_WALK2 DWGD_WALK2 DWSI_WALK2 DWSU_WALK2 DWTI_WALK2    ECGR       ECST    ESUF_WALK2    GDEV        GR        GTEM       HGR        HNPO       HTNP       NPHI       NPOR      QCPMT    RHGE_WALK2    RWA        STIT       TENS       TNPH    WANH_WALK2 WCAR_WALK2 WCLA_WALK2 WCOA_WALK2 WEVA_WALK2 WPYR_WALK2 WQFM_WALK2 WSID_WALK2
#
~A  
   6646.5000 -9980.6631     6.3959     0.0483   211.0119     0.0000    -0.0004     0.0710     0.0475     0.0429     9.1812     0.2847     0.0000     0.0011   102.7183    48.3325     0.7002     2.5823   104.3655   200.4155    99.0265  -999.2500  -999.2500    -0.0067    -0.1576     0.5462     2.7303     1.0000     0.0000  2348.0000    -0.0751     0.0000     0.0529     0.3569     0.0000     0.0000     0.0000     0.5902     0.0000
   6647.0000 -9978.8857     2.3487     0.0483   211.0119     0.0000    -0.0004     0.0739     0.0402     0.0447     8.4303     0.2880     0.0000     0.0011   103.3182    48.3325     0.6914     2.5823   104.9751   200.4155   107.8042  -999.2500  -999.2500    -0.0067    -0.1576     0.1843     2.7324     1.0000     0.0000  2342.0000    -0.0751     0.0000     0.0332     0.3716     0.0000     0.0000     0.0000     0.5952     0.0000
   6647.5000 -9980.3076    -7.9061     0.8790   211.0119     0.0000     0.0004     0.0785     0.0268     0.0473     7.5199     0.2956     0.0000     0.0018   102.1889    50.6736     0.7013     2.5823   103.8276   200.9188   106.6989  -999.2500  -999.2500    -0.0291    -0.1033     0.6207     2.7348     1.0000     0.0000  2320.0000    -0.0355     0.0000     0.0000     0.3947     0.0000     0.0000     0.0000     0.6053     0.0000
   6648.0000 -9979.2412    -8.2995     0.7091   211.0119     0.0000     0.0004     0.0832     0.0158     0.0497     7.4081     0.3004     0.0000     0.0027   102.6689    50.6736     0.6925     2.5823   104.3153   200.9188    96.2956  -999.2500  -999.2500    -0.0346  -999.2500     0.3053     2.7374     1.0000     0.0000  2305.0000  -999.2500     0.0000     0.0000     0.4236     0.0000     0.0000     0.0000     0.5764     0.0000
   6648.5000 -9978.8857    -9.8684     2.3963   211.0119     0.0000     0.0004     0.0870     0.0052     0.0517     8.6479     0.3062     0.0000     0.0037   101.3843    47.1620     0.7240     2.5823   103.0101   200.9188   108.8446  -999.2500  -999.2500     0.2254  -999.2500     0.2598     2.7392     1.0000     0.0000  2328.0000  -999.2500     0.0000     0.0000     0.4492     0.0000     0.0000     0.0000     0.5508     0.0000
   6649.0000 -9979.9521    -1.5813     2.6071   211.0119     0.0000     0.0004     0.0879     0.0100     0.0522     9.3938     0.2991     0.0000     0.0037   103.8264    48.3325     0.7098     2.5823   105.4914   200.9188   104.1631  -999.2500  -999.2500     0.1829  -999.2500     0.7123     2.7410     1.0000     0.0000  2341.0000  -999.2500     0.0000     0.0000     0.4548     0.0000     0.0000     0.0000     0.5452     0.0000
   6649.5000 -9979.2412    -4.6262     4.8149   211.0119     0.0000     0.0004     0.0864     0.0136     0.0514     9.0341     0.2975     0.0000     0.0035   101.1867    50.6736     0.6931     2.5823   102.8093   200.9188   103.7730  -999.2500  -999.2500     0.1970  -999.2500     0.9177     2.7401     1.0000     0.0000  2283.0000  -999.2500     0.0000     0.0000     0.4447     0.0000     0.0000     0.0000     0.5553     0.0000
   6650.0000 -9979.9521    -1.9488     4.5899   211.0119     0.0000     0.0004     0.0852     0.0230     0.0507     7.0257     0.2887     0.0000     0.0033   101.8643    49.5030     0.6552     2.5959   103.4978   200.9188   102.2775  -999.2500  -999.2500    -0.0315  -999.2500     0.2862     2.7405     1.0000     0.0000  2320.0000  -999.2500     0.0000     0.0000     0.4368     0.0000     0.0000     0.0000     0.5632     0.0000
   6650.5000 -9979.9521    -4.3098     3.9573   211.0119     0.0000     0.0004     0.0855     0.0176     0.0498     5.5479     0.2954     0.0065     0.0039    98.8575    48.3325     0.6759     2.6889   100.4427   200.9188   105.1384  -999.2500  -999.2500    -0.0172  -999.2500     0.2330     2.7455     1.0000     0.0000  2324.0000  -999.2500     0.0000     0.0000     0.4390     0.0000     0.0000     0.0122     0.5488     0.0000
   6651.0000 -9979.2412    -2.8386     1.0049   211.0119     0.0000     0.0004     0.0844     0.0170     0.0488     5.8303     0.2984     0.0076     0.0044    99.5774    49.5030     0.6666     2.7577   101.1742   200.9188    93.8898  -999.2500  -999.2500    -0.0183  -999.2500     0.0000     2.7448     1.0000     0.0000  2308.0000  -999.2500     0.0000     0.0000     0.4317     0.0000     0.0000     0.0142     0.5541     0.0000
   6651.5000 -9978.5303    -1.1881     3.7461   211.0119     0.0000     0.0004     0.0827     0.0085     0.0485     7.1018     0.3107     0.0000     0.0051    98.6740    50.6736     0.6998     2.6759   100.2563   200.9188   103.1878  -999.2500  -999.2500    -0.0744  -999.2500     0.0906     2.7339     1.0000     0.0000  2308.0000  -999.2500     0.0000     0.0000     0.4205     0.0000     0.0000     0.0000     0.5795     0.0000
   6652.0000 -9979.9521     0.8537     4.4209   211.0119     0.0000     0.0004     0.0791     0.0152     0.0465     8.0732     0.3091     0.0000     0.0046    99.4009    49.5030     0.7136     2.6044   100.9949   200.9188   103.7079     1.0492     2.5448    -0.0813  -999.2500     0.5892     2.7313     1.0000     0.0000  2301.0000  -999.2500     0.0000     0.0000     0.3978     0.0000     0.0000     0.0000     0.6022     0.0000
   6652.5000 -9978.8857     2.0340     5.2914   211.0119     0.0000     0.0004     0.0752     0.0218     0.0444     7.5782     0.3083     0.0000     0.0040    97.5093    48.3325     0.6807     2.6636    99.0730   200.9188    94.7351     0.2422     0.3170    -0.0801     0.4399     0.0509     2.7285     1.0000     0.0000  2300.0000     0.3598     0.0000     0.0000     0.3780     0.0000     0.0000     0.0000     0.6220     0.0000
   6653.0000 -9979.9521    -1.5071     6.3458   211.0119     0.0000    -0.0022     0.0718     0.0213     0.0414     5.6273     0.3157     0.0078     0.0035    98.5398    49.5030     0.6603     2.6146   100.1200   200.9188    98.1162  -999.2500  -999.2500    -0.0475     0.3334     0.1994     2.7322     1.0000     0.0000  2348.0000     0.3282     0.0000     0.0000     0.3609     0.0000     0.0000     0.0146     0.6245     0.0000
   6653.5000 -9979.9521    -3.6051     9.8018   211.0119     0.0000    -0.0022     0.0744     0.0071     0.0427     5.7028     0.3280     0.0127     0.0039    99.8597    50.6736     0.6681     2.6534   101.4611   200.9188   106.6339  -999.2500  -999.2500    -0.0382  -999.2500     0.5757     2.7380     1.0000     0.0000  2314.0000  -999.2500     0.0000     0.0000     0.3738     0.0000     0.0000     0.0238     0.6024     0.0000
   6654.0000 -9979.2412    -2.8182     8.7474   211.0119     0.0000    -0.0022     0.0757     0.0000     0.0443     5.3223     0.3331     0.0162     0.0044    97.3117    48.3325     0.6682     2.7967    98.8722   200.9188   100.0017    -0.0408     0.3072    -0.1280  -999.2500     0.3654     2.7440     1.0000     0.0000  2283.0000  -999.2500     0.0000     0.0000     0.3806     0.0000     0.0000     0.0304     0.5891     0.0000
   6654.5000 -9979.2412     2.6905     5.4460   211.0119     0.0000    -0.0022     0.0787     0.0000     0.0462     7.0136     0.3276     0.0191     0.0041    93.9096    48.3325     0.6723     2.6824    95.4156   200.9188    90.2487     0.4365     0.2275    -0.1221     0.0139     0.4381     2.7510     1.0000     0.0000  2290.0000     0.2336     0.0000     0.0000     0.3957     0.0000     0.0000     0.0358     0.5684     0.0000
   6655.0000 -9979.9521     3.5336     4.1806   211.0119     0.0000    -0.0030     0.0782     0.0127     0.0443     6.2382     0.3152     0.0199     0.0038    99.0692    50.6736     0.7079     2.5715   100.6579   200.9188    94.9952     0.3325     0.3153    -0.1244     0.2369     0.3124     2.7505     1.0000     0.0000  2292.0000     0.1611     0.0000     0.0000     0.3933     0.0000     0.0000     0.0373     0.5695     0.0000
   6655.5000 -9978.5303     3.0373     3.7037   211.0119     0.0000    -0.0030     0.0769     0.0248     0.0431     8.1450     0.3039     0.0177     0.0035   103.0853    50.6736     0.7360     2.7003   104.7384   200.9188   115.0865     0.0315     0.1373    -0.0182     0.4599     0.2801     2.7476     1.0000     0.0000  2293.0000     0.0887     0.0000     0.0000     0.3863     0.0000     0.0000     0.0331     0.5806     0.0000
