~VERSION INFORMATION
VERS.           1.2   :CWLS Log ASCII Standard - VERSION 1.2
WRAP.           NO    :One Line per depth step
PROD.  Schlumberger   :LAS Producer
PROG.  DLIS to ASCII 17C0-152                          :LAS Program name and version
CREA.        2011/12/13 23:09                          :LAS Creation date {YYYY/MM/DD hh:mm}
DLIS_CREA.  2011-Dec-13 15:28                          :DLIS Creation date and time {YYYY-MMM-DD hh:mm}
SOURCE.     1ba8f76d-360e-4325-8cd9-5cb564d153a7       :DLIS File Name
#--------------------------------------------------
~WELL INFORMATION
#MNEM.UNIT      DATA             DESCRIPTION
#---- ------ --------------   -----------------------------
STRT .F      6646.5000       :START DEPTH     
STOP .F      8231.0000       :STOP DEPTH     
STEP .F       0.5000         :STEP       
NULL .          -999.25      :NULL VALUE
COMP .                 COMPANY:  EOG Resources, Inc.                
WELL .                    WELL:  Garden Creek 32-07M                
FLD  .                   FIELD:  Wildcat                            
LOC  .                LOCATION:  Lat/ Long : 40.9343 / -104.3619    
CNTY .                  COUNTY:  Weld County                        
STAT .                   STATE:  Colorado                           
CTRY .                 COUNTRY:                                     
SRVC .         SERVICE COMPANY:  Schlumberger                       
API  .              API NUMBER:  05-123-34636-00                    
DATE .                LOG DATE:  6-Dec-2011
UWI  .          UNIQUE WELL ID:  5123346360000                      
#-----------------------------------------------------------------------------
~PARAMETER INFORMATION
#MNEM.UNIT    VALUE                      DESCRIPTION
#---- -----   --------------------       ------------------------
CN   .        EOG Resources  Inc.        :Company Name
WN   .        Garden Creek 32-07M        :Well Name
FN   .        Wildcat                    :Field Name
FL   .        Lat/ Long   40.9343 / -104.3619 :Field Location
FL1  .        SHL   1529' FSL X 2266' FEL NWSE :Field Location Line 1
COUN .        Weld County                :County or Rig Name
STAT .        Colorado                   :State or Province
NATI .                                   :Nation
DATE .        6-Dec-2011                 :Date as Month-Day-Year
APIN .        05-123-34636-00            :API Serial Number
SECT .        7                          :Section
TOWN .        11N                        :Township
RANG .        62W                        :Range
DMF  .        Kelly Bushing              :Drilling Measured From
LMF  .        Kelly Bushing              :Log Measured From
PDAT .        Ground Level               :Permanent Datum
ENGI .        Arvin Shi                  :Engineer's Name
WITN .        Danny Cook                 :Witness's Name
LATI .                                   :Latitude
LONG .                                   :Longitude
LUL  .        Fort Morgan                :Logging Unit Location
LUN  .              7006                 :Logging Unit Number
RUN  .        Two                        :Run Number
SON  .        BOAA-00063                 :Service Order Number
BHT  .DEGF     211.99986                 :Bottom Hole Temperature (used in calculations)
BS   .IN         7.87500                 :Bit Size
DFD  .LB/G       9.70000                 :Drilling Fluid Density
DFV  .S         39.00000                 :Drilling Fluid Viscosity
DFL  .                                   :Drilling Fluid Loss
RMFS .OHMM       0.47250                 :Resistivity of Mud Filtrate Sample
EKB  .F       5290.00000                 :Elevation of Kelly Bushing
EGL  .F       5265.00000                 :Elevation of Ground Level
BLI  .F       8212.00000                 :Bottom Log Interval
BSAL .PPM     1000.00000                 :Borehole Salinity
FLEV .                                   :Fluid Level
MCST .DEGF      86.60000                 :Mud Cake Sample Temperature
MFST .DEGF      86.60000                 :Mud Filtrate Sample Temperature
MRT  .DEGF     216.00000                 :Maximum Recorded Temperature
MST  .DEGF      86.60000                 :Mud Sample Temperature
RMCS .OHMM       0.78750                 :Resistivity of Mud Cake Sample
RMS  .OHMM       0.63000                 :Resistivity of Mud Sample
RW   .OHMM       1.00000                 :Resistivity of Connate Water
TDD  .F       8200.00000                 :Total Depth - Driller
TDL  .F       8212.00000                 :Total Depth - Logger
TLI  .F       1340.00000                 :Top Log Interval
HIDE .        Platform Express           :Header Identifier
MATR .        LIME                       :Rock Matrix for Neutron Porosity Corrections
FNUM .           1.00000                 :Form Factor Numerator
FEXP .           2.00000                 :Form Factor Exponent
DFT  .        Water Based Mud            :Drilling Fluid Type
DFPH .           8.00000                 :Drilling Fluid PH
MCSS .        Calculated                 :Mud Cake Sample Source
MFSS .        Calculated                 :Mud Filtrate Sample Source
MSS  .        Mud Flow                   :Mud Sample Source
OS1  .        HNGS                       :Other Services Line 1
OS2  .        MSIP                       :Other Services Line 2
OS3  .        FMI                        :Other Services Line 3
OS4  .        PEX                        :Other Services Line 4
OS5  .                                   :Other Services Line 5
R1   .        This is the first run in hole :Remark Line 1
R2   .                                   :Remark Line 2
R3   .        Toolstring run as per tool sketch :Remark Line 3
R4   .                                   :Remark Line 4
R5   .        Matrix  Limestone (2.71 g/cc) :Remark Line 5
R6   .                                   :Remark Line 6
R7   .        Main log and repeat log correlated to correlation log around 7000-8000 ft :Remark Line 7
R8   .                                   :Remark Line 8
TCS  .        17 30                      :Time Circulation Stopped
TLAB .        11 30                      :Time Logger At Bottom
NMT  .        NOBARITE                   :HILT Nuclear Mud Type
EPD  .F         5265.000000              :Elevation of Permanent Datum above Mean Sea Level
APD  .F          25.000000               :Elevation of Depth Reference (LMF) above Permanent Datum
#-----------------------------------------------------------------------------
~CURVE INFORMATION
#MNEM.UNIT   API CODE                                  DESCRIPTION
#---- -----  --------                                  -----------------------
DEPT .F                                                :DEPTH (BOREHOLE) {F12.4}
CDF  .LBF                                              :Calibrated Downhole Force {F11.4}
CFTC .HZ                                               :Corrected Far Thermal Counting Rate {F11.4}
CNTC .HZ                                               :Corrected Near Thermal Counting Rate {F11.4}
CTEM .DEGF                                             :Cartridge Temperature {F11.4}
DCAL .IN                                               :Differential Caliper {F11.4}
DNPH .CFCF                                             :Delta Thermal Neutron Porosity {F11.4}
DWAL_WALK2.                                            :Dry Weight Fraction Pseudo Aluminum (SpectroLith WALK2 Model) {F11.4}
DWCA_WALK2.                                            :Dry Weight Fraction Calcium (SpectroLith WALK2 Model) {F11.4}
DWFE_WALK2.                                            :Dry Weight Fraction Iron + 0.14 Aluminum (SpectroLith WALK2 Model) {F11.4}
DWGD_WALK2.PPM                                         :Dry Weight Fraction Gadolinium (SpectroLith WALK2 Model) {F11.4}
DWSI_WALK2.                                            :Dry Weight Fraction Silicon (SpectroLith WALK2 Model) {F11.4}
DWSU_WALK2.                                            :Dry Weight Fraction Sulfur (SpectroLith WALK2 Model) {F11.4}
DWTI_WALK2.                                            :Dry Weight Fraction Titanium (SpectroLith WALK2 Model) {F11.4}
ECGR .GAPI                                             :Environmentally Corrected Gamma-Ray {F11.4}
ECST .DEGF                                             :ECS Temperature {F11.4}
ESUF_WALK2.                                            :Elemental Statistical Uncertainty Factor (SpectroLith WALK2 Model) {F11.4}
GDEV .DEG                                              :HGNS Deviation {F11.4}
GR   .GAPI                                             :Gamma-Ray {F11.4}
GTEM .DEGF                                             :Generalized Borehole Temperature {F11.4}
HGR  .GAPI                                             :HiRes Gamma-Ray {F11.4}
HNPO .CFCF                                             :HiRes Enhanced Thermal Neutron Porosity {F11.4}
HTNP .CFCF                                             :HiRes Thermal Neutron Porosity {F11.4}
NPHI .CFCF                                             :Thermal Neutron Porosity (Ratio Method) {F11.4}
NPOR .CFCF                                             :Enhanced Thermal Neutron Porosity {F11.4}
QCPMT.                                                 :Photomultiplier Tube Quality Control {F11.4}
RHGE_WALK2.G/C3                                        :Matrix Density from Elemental Concentrations (SpectroLith WALK2 Model) {F11.4}
RWA  .OHMM                                             :Apparent Water Resistivity {F11.4}
STIT .F                                                :Stuck Tool Indicator, Total {F11.4}
TENS .LBF                                              :Cable Tension {F11.4}
TNPH .CFCF                                             :Thermal Neutron Porosity {F11.4}
WANH_WALK2.                                            :Dry Weight Fraction Anhydrite/Gypsum (SpectroLith WALK2 Model) {F11.4}
WCAR_WALK2.                                            :Dry Weight Fraction Carbonate (SpectroLith WALK2 Model) {F11.4}
WCLA_WALK2.                                            :Dry Weight Fraction Clay (SpectroLith WALK2 Model) {F11.4}
WCOA_WALK2.                                            :Dry Weight Fraction Coal (SpectroLith WALK2 Model) {F11.4}
WEVA_WALK2.                                            :Dry Weight Fraction Salt (SpectroLith WALK2 Model) {F11.4}
WPYR_WALK2.                                            :Dry Weight Fraction Pyrite (SpectroLith WALK2 Model) {F11.4}
WQFM_WALK2.                                            :Dry Weight Fraction Quartz+Feldspar+Mica (QFM) (SpectroLith WALK2 Model) {F11.4}
WSID_WALK2.                                            :Dry Weight Fraction Siderite (SpectroLith WALK2 Model) {F11.4}
#-----------------------------------------------------------------------------
# 
#      DEPT        CDF        CFTC       CNTC       CTEM       DCAL       DNPH    DWAL_WALK2 DWCA_WALK2 DWFE_WALK2 DWGD_WALK2 DWSI_WALK2 DWSU_WALK2 DWTI_WALK2    ECGR       ECST    ESUF_WALK2    GDEV        GR        GTEM       HGR        HNPO       HTNP       NPHI       NPOR      QCPMT    RHGE_WALK2    RWA        STIT       TENS       TNPH    WANH_WALK2 WCAR_WALK2 WCLA_WALK2 WCOA_WALK2 WEVA_WALK2 WPYR_WALK2 WQFM_WALK2 WSID_WALK2
#
~A  
# ...
   7910.0000 -9985.9951    -3.1010     1.3558   224.8472     0.0000    -0.0019     0.0903     0.0000     0.0529     7.4676     0.3071     0.0158     0.0051   177.4500    43.6503     0.7681     2.6505   180.2955   221.0511   183.4232  -999.2500  -999.2500    -0.0235  -999.2500     0.5806     2.7595     1.0000     0.0000  2652.0000  -999.2500     0.0000     0.0000     0.4716     0.0000     0.0000     0.0296     0.4988     0.0000
   7910.5000 -9986.3506    -1.8440    -0.1206   224.8472     0.0000    -0.0019     0.0890     0.0000     0.0522     6.8866     0.3094     0.0211     0.0047   181.9536    44.8209     0.7463     2.7366   184.8714   221.0511   184.5936    -0.1608    -0.0468    -0.0146  -999.2500     0.2347     2.7643     1.0000     0.0000  2640.0000  -999.2500     0.0000     0.0000     0.4625     0.0000     0.0000     0.0394     0.4981     0.0000
   7911.0000 -9987.7725     5.7084     1.9033   224.8472     0.0000    -0.0019     0.0872     0.0000     0.0515     7.9117     0.3124     0.0182     0.0039   177.3940    45.9914     0.7607     2.9666   180.2386   221.0511   186.2191    -0.1454    -0.0466    -0.0057  -999.2500     0.0434     2.7596     1.0000     0.0000  2641.0000  -999.2500     0.0000     0.0000     0.4500     0.0000     0.0000     0.0341     0.5159     0.0000
   7911.5000 -9987.0615     5.2886     3.7029   224.8472     0.0000    -0.0019     0.0840     0.0094     0.0485     6.8300     0.3080     0.0141     0.0035   174.1048    45.9914     0.7352     3.0085   176.8968   221.0511   169.7039     0.0768     0.0257     0.0016    -0.0602     0.0000     2.7507     1.0000     0.0000  2637.0000     0.0095     0.0000     0.0000     0.4290     0.0000     0.0000     0.0263     0.5447     0.0000
   7912.0000 -9985.9951     4.4455     3.9278   224.8472     0.0000    -0.0024     0.0812     0.0162     0.0471     5.0724     0.3048     0.0086     0.0033   166.5455    45.9914     0.7015     2.8286   169.2162   221.0511   175.5557    -0.1037     0.0255    -0.0344    -0.0667     0.0577     2.7428     1.0000     0.0000  2633.0000     0.0357     0.0000     0.0000     0.4106     0.0000     0.0000     0.0161     0.5733     0.0000
   7912.5000 -9986.3506    -0.5844     6.1776   224.8472     0.0000    -0.1687     0.0853     0.0074     0.0494     4.5379     0.3078     0.0111     0.0040   166.7714    44.8209     0.7133     2.8768   169.4457   221.0511   162.6166  -999.2500  -999.2500    -0.0395     0.0065     0.3533     2.7486     1.0000     0.0000  2644.0000     0.2146     0.0000     0.0000     0.4378     0.0000     0.0000     0.0208     0.5413     0.0000
   7913.0000 -9987.7725    -3.3145     6.3885   224.8472     0.0000    -0.1687     0.0862     0.0039     0.0503     3.3263     0.3101     0.0139     0.0037   163.5316    43.6503     0.7320     2.8521   166.1541   221.0511   170.2240  -999.2500  -999.2500    -0.0346  -999.2500     0.7753     2.7530     1.0000     0.0000  2609.0000  -999.2500     0.0000     0.0000     0.4435     0.0000     0.0000     0.0260     0.5305     0.0000
   7913.5000 -9986.3506    -1.6362     5.0393   224.8472     0.0000    -0.1687     0.0870     0.0000     0.0513     4.3742     0.3127     0.0099     0.0043   160.7719    43.6503     0.7489     2.9015   163.3500   221.0511   165.8026  -999.2500  -999.2500    -0.0294  -999.2500     0.5831     2.7493     1.0000     0.0000  2626.0000  -999.2500     0.0000     0.0000     0.4489     0.0000     0.0000     0.0184     0.5327     0.0000
   7914.0000 -9987.7725    -3.7348     5.4892   224.8472     0.0000    -0.1687     0.0864     0.0000     0.0511     4.1105     0.3136     0.0000     0.0042   154.9065    43.6503     0.7564     2.8978   157.3906   221.0511   154.2940  -999.2500  -999.2500    -0.0133  -999.2500     0.7945     2.7373     1.0000     0.0000  2621.0000  -999.2500     0.0000     0.0000     0.4449     0.0000     0.0000     0.0000     0.5551     0.0000
   7914.5000 -9987.0615    -3.9475     2.5663   224.8472     0.0000    -0.1687     0.0902     0.0000     0.0533     4.4168     0.3069     0.0000     0.0045   159.3461    43.6503     0.7879     2.8189   161.9014   221.0511   151.3030  -999.2500  -999.2500    -0.0222  -999.2500     0.8818     2.7413     1.0000     0.0000  2624.0000  -999.2500     0.0000     0.0000     0.4709     0.0000     0.0000     0.0000     0.5291     0.0000
   7915.0000 -9987.4170    -6.4595     2.1163   224.8472     0.0000    -0.1687     0.0958     0.0000     0.0569     5.5205     0.2967     0.0000     0.0042   164.2657    43.6503     0.7840     2.8354   166.8999   221.0511   178.8067  -999.2500  -999.2500    -0.0243  -999.2500     1.1346     2.7479     1.0000     0.0000  2638.0000  -999.2500     0.0000     0.0000     0.5096     0.0000     0.0000     0.0000     0.4904     0.0000
   7915.5000 -9985.9951    -7.7186     2.1316   224.8472     0.0000    -0.1687     0.0996     0.0000     0.0591     7.6007     0.2899     0.0000     0.0045   169.9052    43.6503     0.7785     2.9182   172.6298   221.0511   169.4438  -999.2500  -999.2500    -0.0329  -999.2500     0.4569     2.7520     1.0000     0.0000  2593.0000  -999.2500     0.0000     0.0000     0.5370     0.0000     0.0000     0.0000     0.4630     0.0000
   7916.0000 -9987.0615   -10.2354     1.4571   224.8472     0.0000    -0.1687     0.1008     0.0017     0.0597    10.9273     0.2860     0.0000     0.0046   165.1056    43.6503     0.7794     2.7520   167.7533   221.0511   169.8989  -999.2500  -999.2500    -0.0227  -999.2500     0.1645     2.7534     1.0000     0.0000  2618.0000  -999.2500     0.0000     0.0000     0.5450     0.0000     0.0000     0.0000     0.4550     0.0000
   7916.5000 -9987.0615    -9.3456     0.4296   224.8472     0.0000    -0.1687     0.0986     0.0005     0.0583    14.4446     0.2913     0.0000     0.0049   169.0653    43.6503     0.7947     2.7212   171.7764   221.0511   163.6569  -999.2500  -999.2500    -0.0246  -999.2500     0.5646     2.7507     1.0000     0.0000  2630.0000  -999.2500     0.0000     0.0000     0.5297     0.0000     0.0000     0.0000     0.4703     0.0000
   7917.0000 -9988.1279    -8.5104     4.4770   224.8472     0.0000    -0.1687     0.0949     0.0000     0.0563    16.7645     0.2985     0.0000     0.0043   169.8332    43.6503     0.8132     2.8256   172.5567   221.0511   183.4232  -999.2500  -999.2500    -0.0231  -999.2500     0.8225     2.7467     1.0000     0.0000  2637.0000  -999.2500     0.0000     0.0000     0.5030     0.0000     0.0000     0.0000     0.4970     0.0000
   7917.5000 -9987.7725    -7.6678     2.4522   224.8472     0.0000    -0.1687     0.0917     0.0000     0.0543    15.5654     0.3042     0.0005     0.0042   174.1528    45.9914     0.8107     2.8707   176.9456   221.0511   172.0446  -999.2500  -999.2500    -0.0130  -999.2500     0.7251     2.7438     1.0000     0.0000  2609.0000  -999.2500     0.0000     0.0000     0.4808     0.0000     0.0000     0.0009     0.5183     0.0000
   7918.0000 -9987.7725    -6.0388     0.6524   224.8472     0.0000    -0.1687     0.0923     0.0000     0.0546    10.2284     0.3031     0.0109     0.0040   173.4329    45.9914     0.7960     2.9707   176.2141   221.0511   177.9615  -999.2500  -999.2500    -0.0018  -999.2500     0.3656     2.7568     1.0000     0.0000  2613.0000  -999.2500     0.0000     0.0000     0.4850     0.0000     0.0000     0.0204     0.4946     0.0000
   7918.5000 -9985.9951    -5.7780     0.9607   224.8472     0.0000    -0.1687     0.0959     0.0000     0.0567     5.6328     0.2968     0.0179     0.0042   176.7305    43.6503     0.7926     2.8550   179.5646   221.0511   180.8224  -999.2500  -999.2500     0.0021  -999.2500     0.4209     2.7688     1.0000     0.0000  2630.0000  -999.2500     0.0000     0.0000     0.5104     0.0000     0.0000     0.0334     0.4561     0.0000
   7919.0000 -9987.0615    -1.5808     0.8633   224.8472     0.0000    -0.1687     0.1063     0.0000     0.0587     6.4766     0.2821     0.0144     0.0042   177.0185    43.6503     0.7906     2.6759   179.8572   221.0511   182.1879  -999.2500  -999.2500    -0.0337  -999.2500     0.6078     2.7681     1.0000     0.0000  2611.0000  -999.2500     0.0000     0.0000     0.5854     0.0000     0.0000     0.0270     0.3876     0.0000
