~VERSION INFORMATION
VERS.           1.2   :CWLS Log ASCII Standard - VERSION 1.2
WRAP.           NO    :One Line per depth step
PROD.  Schlumberger   :LAS Producer
PROG.  DLIS to ASCII 17C0-152                          :LAS Program name and version
CREA.        2011/12/13 23:09                          :LAS Creation date {YYYY/MM/DD hh:mm}
DLIS_CREA.  2011-Dec-13 15:28                          :DLIS Creation date and time {YYYY-MMM-DD hh:mm}
SOURCE.     1ba8f76d-360e-4325-8cd9-5cb564d153a7       :DLIS File Name
#--------------------------------------------------
~WELL INFORMATION
#MNEM.UNIT      DATA             DESCRIPTION
#---- ------ --------------   -----------------------------
STRT .F      6646.5000       :START DEPTH     
STOP .F      8231.0000       :STOP DEPTH     
STEP .F       0.5000         :STEP       
NULL .          -999.25      :NULL VALUE
COMP .                 COMPANY:  EOG Resources, Inc.                
WELL .                    WELL:  Garden Creek 32-07M                
FLD  .                   FIELD:  Wildcat                            
LOC  .                LOCATION:  Lat/ Long : 40.9343 / -104.3619    
CNTY .                  COUNTY:  Weld County                        
STAT .                   STATE:  Colorado                           
CTRY .                 COUNTRY:                                     
SRVC .         SERVICE COMPANY:  Schlumberger                       
API  .              API NUMBER:  05-123-34636-00                    
DATE .                LOG DATE:  6-Dec-2011
UWI  .          UNIQUE WELL ID:  5123346360000                      
#-----------------------------------------------------------------------------
~PARAMETER INFORMATION
#MNEM.UNIT    VALUE                      DESCRIPTION
#---- -----   --------------------       ------------------------
CN   .        EOG Resources  Inc.        :Company Name
WN   .        Garden Creek 32-07M        :Well Name
FN   .        Wildcat                    :Field Name
FL   .        Lat/ Long   40.9343 / -104.3619 :Field Location
FL1  .        SHL   1529' FSL X 2266' FEL NWSE :Field Location Line 1
COUN .        Weld County                :County or Rig Name
STAT .        Colorado                   :State or Province
NATI .                                   :Nation
DATE .        6-Dec-2011                 :Date as Month-Day-Year
APIN .        05-123-34636-00            :API Serial Number
SECT .        7                          :Section
TOWN .        11N                        :Township
RANG .        62W                        :Range
DMF  .        Kelly Bushing              :Drilling Measured From
LMF  .        Kelly Bushing              :Log Measured From
PDAT .        Ground Level               :Permanent Datum
ENGI .        Arvin Shi                  :Engineer's Name
WITN .        Danny Cook                 :Witness's Name
LATI .                                   :Latitude
LONG .                                   :Longitude
LUL  .        Fort Morgan                :Logging Unit Location
LUN  .              7006                 :Logging Unit Number
RUN  .        Two                        :Run Number
SON  .        BOAA-00063                 :Service Order Number
BHT  .DEGF     211.99986                 :Bottom Hole Temperature (used in calculations)
BS   .IN         7.87500                 :Bit Size
DFD  .LB/G       9.70000                 :Drilling Fluid Density
DFV  .S         39.00000                 :Drilling Fluid Viscosity
DFL  .                                   :Drilling Fluid Loss
RMFS .OHMM       0.47250                 :Resistivity of Mud Filtrate Sample
EKB  .F       5290.00000                 :Elevation of Kelly Bushing
EGL  .F       5265.00000                 :Elevation of Ground Level
BLI  .F       8212.00000                 :Bottom Log Interval
BSAL .PPM     1000.00000                 :Borehole Salinity
FLEV .                                   :Fluid Level
MCST .DEGF      86.60000                 :Mud Cake Sample Temperature
MFST .DEGF      86.60000                 :Mud Filtrate Sample Temperature
MRT  .DEGF     216.00000                 :Maximum Recorded Temperature
MST  .DEGF      86.60000                 :Mud Sample Temperature
RMCS .OHMM       0.78750                 :Resistivity of Mud Cake Sample
RMS  .OHMM       0.63000                 :Resistivity of Mud Sample
RW   .OHMM       1.00000                 :Resistivity of Connate Water
TDD  .F       8200.00000                 :Total Depth - Driller
TDL  .F       8212.00000                 :Total Depth - Logger
TLI  .F       1340.00000                 :Top Log Interval
HIDE .        Platform Express           :Header Identifier
MATR .        LIME                       :Rock Matrix for Neutron Porosity Corrections
FNUM .           1.00000                 :Form Factor Numerator
FEXP .           2.00000                 :Form Factor Exponent
DFT  .        Water Based Mud            :Drilling Fluid Type
DFPH .           8.00000                 :Drilling Fluid PH
MCSS .        Calculated                 :Mud Cake Sample Source
MFSS .        Calculated                 :Mud Filtrate Sample Source
MSS  .        Mud Flow                   :Mud Sample Source
OS1  .        HNGS                       :Other Services Line 1
OS2  .        MSIP                       :Other Services Line 2
OS3  .        FMI                        :Other Services Line 3
OS4  .        PEX                        :Other Services Line 4
OS5  .                                   :Other Services Line 5
R1   .        This is the first run in hole :Remark Line 1
R2   .                                   :Remark Line 2
R3   .        Toolstring run as per tool sketch :Remark Line 3
R4   .                                   :Remark Line 4
R5   .        Matrix  Limestone (2.71 g/cc) :Remark Line 5
R6   .                                   :Remark Line 6
R7   .        Main log and repeat log correlated to correlation log around 7000-8000 ft :Remark Line 7
R8   .                                   :Remark Line 8
TCS  .        17 30                      :Time Circulation Stopped
TLAB .        11 30                      :Time Logger At Bottom
NMT  .        NOBARITE                   :HILT Nuclear Mud Type
EPD  .F         5265.000000              :Elevation of Permanent Datum above Mean Sea Level
APD  .F          25.000000               :Elevation of Depth Reference (LMF) above Permanent Datum
#-----------------------------------------------------------------------------
~CURVE INFORMATION
#MNEM.UNIT   API CODE                                  DESCRIPTION
#---- -----  --------                                  -----------------------
DEPT .F                                                :DEPTH (BOREHOLE) {F12.4}
CDF  .LBF                                              :Calibrated Downhole Force {F11.4}
CFTC .HZ                                               :Corrected Far Thermal Counting Rate {F11.4}
CNTC .HZ                                               :Corrected Near Thermal Counting Rate {F11.4}
CTEM .DEGF                                             :Cartridge Temperature {F11.4}
DCAL .IN                                               :Differential Caliper {F11.4}
DNPH .CFCF                                             :Delta Thermal Neutron Porosity {F11.4}
DWAL_WALK2.                                            :Dry Weight Fraction Pseudo Aluminum (SpectroLith WALK2 Model) {F11.4}
DWCA_WALK2.                                            :Dry Weight Fraction Calcium (SpectroLith WALK2 Model) {F11.4}
DWFE_WALK2.                                            :Dry Weight Fraction Iron + 0.14 Aluminum (SpectroLith WALK2 Model) {F11.4}
DWGD_WALK2.PPM                                         :Dry Weight Fraction Gadolinium (SpectroLith WALK2 Model) {F11.4}
DWSI_WALK2.                                            :Dry Weight Fraction Silicon (SpectroLith WALK2 Model) {F11.4}
DWSU_WALK2.                                            :Dry Weight Fraction Sulfur (SpectroLith WALK2 Model) {F11.4}
DWTI_WALK2.                                            :Dry Weight Fraction Titanium (SpectroLith WALK2 Model) {F11.4}
ECGR .GAPI                                             :Environmentally Corrected Gamma-Ray {F11.4}
ECST .DEGF                                             :ECS Temperature {F11.4}
ESUF_WALK2.                                            :Elemental Statistical Uncertainty Factor (SpectroLith WALK2 Model) {F11.4}
GDEV .DEG                                              :HGNS Deviation {F11.4}
GR   .GAPI                                             :Gamma-Ray {F11.4}
GTEM .DEGF                                             :Generalized Borehole Temperature {F11.4}
HGR  .GAPI                                             :HiRes Gamma-Ray {F11.4}
HNPO .CFCF                                             :HiRes Enhanced Thermal Neutron Porosity {F11.4}
HTNP .CFCF                                             :HiRes Thermal Neutron Porosity {F11.4}
NPHI .CFCF                                             :Thermal Neutron Porosity (Ratio Method) {F11.4}
NPOR .CFCF                                             :Enhanced Thermal Neutron Porosity {F11.4}
QCPMT.                                                 :Photomultiplier Tube Quality Control {F11.4}
RHGE_WALK2.G/C3                                        :Matrix Density from Elemental Concentrations (SpectroLith WALK2 Model) {F11.4}
RWA  .OHMM                                             :Apparent Water Resistivity {F11.4}
STIT .F                                                :Stuck Tool Indicator, Total {F11.4}
TENS .LBF                                              :Cable Tension {F11.4}
TNPH .CFCF                                             :Thermal Neutron Porosity {F11.4}
WANH_WALK2.                                            :Dry Weight Fraction Anhydrite/Gypsum (SpectroLith WALK2 Model) {F11.4}
WCAR_WALK2.                                            :Dry Weight Fraction Carbonate (SpectroLith WALK2 Model) {F11.4}
WCLA_WALK2.                                            :Dry Weight Fraction Clay (SpectroLith WALK2 Model) {F11.4}
WCOA_WALK2.                                            :Dry Weight Fraction Coal (SpectroLith WALK2 Model) {F11.4}
WEVA_WALK2.                                            :Dry Weight Fraction Salt (SpectroLith WALK2 Model) {F11.4}
WPYR_WALK2.                                            :Dry Weight Fraction Pyrite (SpectroLith WALK2 Model) {F11.4}
WQFM_WALK2.                                            :Dry Weight Fraction Quartz+Feldspar+Mica (QFM) (SpectroLith WALK2 Model) {F11.4}
WSID_WALK2.                                            :Dry Weight Fraction Siderite (SpectroLith WALK2 Model) {F11.4}
#-----------------------------------------------------------------------------
# 
#      DEPT        CDF        CFTC       CNTC       CTEM       DCAL       DNPH    DWAL_WALK2 DWCA_WALK2 DWFE_WALK2 DWGD_WALK2 DWSI_WALK2 DWSU_WALK2 DWTI_WALK2    ECGR       ECST    ESUF_WALK2    GDEV        GR        GTEM       HGR        HNPO       HTNP       NPHI       NPOR      QCPMT    RHGE_WALK2    RWA        STIT       TENS       TNPH    WANH_WALK2 WCAR_WALK2 WCLA_WALK2 WCOA_WALK2 WEVA_WALK2 WPYR_WALK2 WQFM_WALK2 WSID_WALK2
#
~A  
# ...
   7596.5000 -9985.6396     2.5182     5.1282   228.8002     0.0000    -0.0014     0.0445     0.2282     0.0262     8.6386     0.1220     0.0000     0.0024    77.6334    44.8209     0.5934     2.6474    78.8783   219.0379    79.0653     0.5380     0.2574    -0.0070  -999.2500     0.5282     2.7301     1.0000     0.0000  2494.0000  -999.2500     0.0000     0.5390     0.2234     0.0000     0.0000     0.0000     0.2376     0.0000
   7597.0000 -9986.3506     0.3038     0.6282   228.8002     0.0000    -0.0014     0.0467     0.2272     0.0275     9.2935     0.1193     0.0000     0.0027    85.6327    44.8209     0.6037     2.7332    87.0059   219.0379    85.8274    -0.1427     0.0647     0.0211    -0.1303     0.8230     2.7323     1.0000     0.0000  2514.0000     0.2723     0.0000     0.5361     0.2347     0.0000     0.0000     0.0000     0.2292     0.0000
   7597.5000 -9987.4170    -1.0321    -0.0435   228.8002     0.0000    -0.0016     0.0501     0.2187     0.0295    10.3067     0.1231     0.0000     0.0029    93.6720    44.8209     0.6043     2.8017    95.1741   219.0379    97.2060  -999.2500  -999.2500     0.0052    -0.1204     0.6516     2.7345     1.0000     0.0000  2473.0000     0.2715     0.0000     0.5134     0.2519     0.0000     0.0000     0.0000     0.2347     0.0000
   7598.0000 -9986.3506    -0.5847     0.9836   228.8002     0.0000    -0.0016     0.0532     0.2015     0.0312     8.9589     0.1378     0.0000     0.0033    98.0236    44.8209     0.5988     2.6647    99.5955   219.0379   103.3180  -999.2500  -999.2500    -0.0108  -999.2500     0.7988     2.7348     1.0000     0.0000  2497.0000  -999.2500     0.0000     0.4670     0.2675     0.0000     0.0000     0.0000     0.2655     0.0000
   7598.5000 -9986.3506    -1.0045    -2.3194   228.8002     0.0000    -0.0016     0.0533     0.1964     0.0313     8.4427     0.1436     0.0000     0.0032    97.8316    44.8209     0.5910     2.3299    99.4005   219.0379    99.0916  -999.2500  -999.2500    -0.0154  -999.2500     0.4614     2.7341     1.0000     0.0000  2564.0000  -999.2500     0.0000     0.4534     0.2677     0.0000     0.0000     0.0000     0.2789     0.0000
   7599.0000 -9987.0615     0.6687    -0.1198   228.8002     0.0000    -0.0016     0.0506     0.1957     0.0298     5.6829     0.1491     0.0000     0.0027    90.6322    44.8209     0.5855     2.7402    92.0856   219.0379    95.9706  -999.2500  -999.2500  -999.2500  -999.2500     0.1123     2.7313     1.0000     0.0000  2539.0000  -999.2500     0.0000     0.4513     0.2544     0.0000     0.0000     0.0000     0.2943     0.0000
   7599.5000 -9985.6396    -1.0041     0.7800   228.8002     0.0000    -0.0016     0.0492     0.1953     0.0288     5.3822     0.1522     0.0038     0.0019    83.3209    44.8209     0.5741     2.6907    84.6570   219.0379    81.4710     1.0217     5.8124    -0.0247  -999.2500     0.1494     2.7337     1.0000     0.0000  2501.0000  -999.2500     0.0000     0.4505     0.2472     0.0000     0.0000     0.0071     0.2952     0.0000
   7600.0000 -9987.0615    -1.8491     0.7771   228.8002     0.0000    -0.0016     0.0493     0.1825     0.0292     5.7723     0.1667     0.0023     0.0013    80.3772    44.8209     0.5737     2.5771    81.6661   219.0379    76.7245     1.2779     7.0707    -0.0632  -999.2500     0.3445     2.7307     1.0000     0.0000  2561.0000  -999.2500     0.0000     0.4159     0.2475     0.0000     0.0000     0.0043     0.3322     0.0000
   7600.5000 -9986.3506    -0.1084     3.8470   228.8002     0.0000    -0.0016     0.0528     0.1671     0.0317     8.7709     0.1781     0.0010     0.0011    85.6567    44.8209     0.5843     2.6021    87.0303   219.0379    86.9977     2.5587    13.3625    -0.0554  -999.2500     0.3429     2.7310     1.0000     0.0000  2520.0000  -999.2500     0.0000     0.3745     0.2652     0.0000     0.0000     0.0019     0.3583     0.0000
   7601.0000 -9986.3506    -0.1084     3.1721   228.8002     0.0000    -0.0016     0.0565     0.1466     0.0339     9.0981     0.1954     0.0000     0.0016    93.9920    44.8209     0.6277     2.7362    95.4992   219.0379    98.3113     1.6909     9.0132    -0.0676  -999.2500     0.7550     2.7304     1.0000     0.0000  2530.0000  -999.2500     0.0000     0.3193     0.2839     0.0000     0.0000     0.0000     0.3968     0.0000
   7601.5000 -9987.0615     1.9895     4.2966   228.8002     0.0000    -0.0016     0.0558     0.1420     0.0332     9.2890     0.2022     0.0000     0.0023   100.3674    44.8209     0.6757     2.8065   101.9769   219.0379   102.2126     0.1387     0.2812    -0.0295    -0.0414     0.5901     2.7284     1.0000     0.0000  2511.0000     0.2651     0.0000     0.3070     0.2805     0.0000     0.0000     0.0000     0.4124     0.0000
   7602.0000 -9985.9951    -1.0047     4.5216   228.8002     0.0000     0.0011     0.0508     0.1449     0.0299     6.5065     0.2080     0.0000     0.0029   107.9267    45.4062     0.7240     2.7518   109.6575   219.0379   106.7640  -999.2500  -999.2500    -0.0418     0.0446     0.6090     2.7227     1.0000     0.0000  2509.0000     0.2973     0.0000     0.3147     0.2555     0.0000     0.0000     0.0000     0.4298     0.0000
   7602.5000 -9986.3506    -6.0410     4.9744   228.8002     0.0000     0.0011     0.0464     0.1531     0.0273     7.5129     0.2062     0.0000     0.0026   111.2545    45.9914     0.7143     2.4110   113.0385   219.0379   120.4834  -999.2500  -999.2500    -0.0290  -999.2500     0.1730     2.7194     1.0000     0.0000  2533.0000  -999.2500     0.0000     0.3369     0.2333     0.0000     0.0000     0.0000     0.4298     0.0000
   7603.0000 -9987.4170    -9.1559     2.5643   228.8002     0.0000     0.0011     0.0497     0.1473     0.0269     6.3475     0.2094     0.0186     0.0022   121.6455    44.8209     0.7006     2.7616   123.5963   219.0379   112.3558  -999.2500  -999.2500     0.7906  -999.2500     0.1194     2.7396     1.0000     0.0000  2509.0000  -999.2500     0.0000     0.3211     0.2497     0.0000     0.0000     0.0348     0.3943     0.0000
   7603.5000 -9987.4170    -4.5456     6.6099   228.8002     0.0000     0.0011     0.0538     0.1372     0.0279     5.6642     0.2152     0.0309     0.0019   123.2054    43.6503     0.6819     2.6188   125.1811   219.0379   138.1040  -999.2500  -999.2500     0.7760  -999.2500     0.1648     2.7542     1.0000     0.0000  2511.0000  -999.2500     0.0000     0.2940     0.2706     0.0000     0.0000     0.0578     0.3775     0.0000
   7604.0000 -9987.7725     1.7500     5.0387   228.8002     0.0000     0.0011     0.0550     0.1357     0.0275     1.7151     0.2159     0.0361     0.0021   125.6372    44.2356     0.6862     2.7274   127.6519   219.0379   123.9295    -0.0668     0.2347     0.8130     0.3884     0.1805     2.7593     1.0000     0.0000  2514.0000     0.4261     0.0000     0.2899     0.2764     0.0000     0.0000     0.0590     0.3746     0.0000
   7604.5000 -9987.0615     2.7671     4.8110   228.8002     0.0000    -0.0030     0.0528     0.1418     0.0272     1.8293     0.2117     0.0282     0.0029   115.4861    44.8209     0.7067     2.8733   117.3380   219.0379   119.7682     0.1783     0.0881    -0.0242    -0.0152     1.3348     2.7505     1.0000     0.0000  2514.0000     0.1788     0.0000     0.3064     0.2653     0.0000     0.0000     0.0527     0.3756     0.0000
   7605.0000 -9987.0615    -8.1382     5.2610   228.8002     0.0000   -36.8692     0.0496     0.1511     0.0264     2.7376     0.2055     0.0185     0.0034   113.2303    44.8209     0.7229     2.7053   115.0461   219.0379   107.6743  -999.2500  -999.2500    -0.0211     2.2972     0.2856     2.7391     1.0000     0.0000  2523.0000     3.9663     0.0000     0.3316     0.2493     0.0000     0.0000     0.0345     0.3846     0.0000
   7605.5000 -9986.7061   -10.6615     3.7019   228.8002     0.0000   -36.8692     0.0490     0.1521     0.0264     6.1022     0.2051     0.0138     0.0043   108.2547    44.8209     0.7556     2.6276   109.9907   219.0379   116.3546  -999.2500  -999.2500    -0.0364  -999.2500     0.9941     2.7337     1.0000     0.0000  2502.0000  -999.2500     0.0000     0.3342     0.2463     0.0000     0.0000     0.0259     0.3936     0.0000
