~VERSION INFORMATION
VERS.           1.2   :CWLS Log ASCII Standard - VERSION 1.2
WRAP.           NO    :One Line per depth step
PROD.  Schlumberger   :LAS Producer
PROG.  DLIS to ASCII 17C0-152                          :LAS Program name and version
CREA.        2011/12/13 23:09                          :LAS Creation date {YYYY/MM/DD hh:mm}
DLIS_CREA.  2011-Dec-13 15:28                          :DLIS Creation date and time {YYYY-MMM-DD hh:mm}
SOURCE.     1ba8f76d-360e-4325-8cd9-5cb564d153a7       :DLIS File Name
#--------------------------------------------------
~WELL INFORMATION
#MNEM.UNIT      DATA             DESCRIPTION
#---- ------ --------------   -----------------------------
STRT .F      6646.5000       :START DEPTH     
STOP .F      8231.0000       :STOP DEPTH     
STEP .F       0.5000         :STEP       
NULL .          -999.25      :NULL VALUE
COMP .                 COMPANY:  EOG Resources, Inc.                
WELL .                    WELL:  Garden Creek 32-07M                
FLD  .                   FIELD:  Wildcat                            
LOC  .                LOCATION:  Lat/ Long : 40.9343 / -104.3619    
CNTY .                  COUNTY:  Weld County                        
STAT .                   STATE:  Colorado                           
CTRY .                 COUNTRY:                                     
SRVC .         SERVICE COMPANY:  Schlumberger                       
API  .              API NUMBER:  05-123-34636-00                    
DATE .                LOG DATE:  6-Dec-2011
UWI  .          UNIQUE WELL ID:  5123346360000                      
#-----------------------------------------------------------------------------
~PARAMETER INFORMATION
#MNEM.UNIT    VALUE                      DESCRIPTION
#---- -----   --------------------       ------------------------
CN   .        EOG Resources  Inc.        :Company Name
WN   .        Garden Creek 32-07M        :Well Name
FN   .        Wildcat                    :Field Name
FL   .        Lat/ Long   40.9343 / -104.3619 :Field Location
FL1  .        SHL   1529' FSL X 2266' FEL NWSE :Field Location Line 1
COUN .        Weld County                :County or Rig Name
STAT .        Colorado                   :State or Province
NATI .                                   :Nation
DATE .        6-Dec-2011                 :Date as Month-Day-Year
APIN .        05-123-34636-00            :API Serial Number
SECT .        7                          :Section
TOWN .        11N                        :Township
RANG .        62W                        :Range
DMF  .        Kelly Bushing              :Drilling Measured From
LMF  .        Kelly Bushing              :Log Measured From
PDAT .        Ground Level               :Permanent Datum
ENGI .        Arvin Shi                  :Engineer's Name
WITN .        Danny Cook                 :Witness's Name
LATI .                                   :Latitude
LONG .                                   :Longitude
LUL  .        Fort Morgan                :Logging Unit Location
LUN  .              7006                 :Logging Unit Number
RUN  .        Two                        :Run Number
SON  .        BOAA-00063                 :Service Order Number
BHT  .DEGF     211.99986                 :Bottom Hole Temperature (used in calculations)
BS   .IN         7.87500                 :Bit Size
DFD  .LB/G       9.70000                 :Drilling Fluid Density
DFV  .S         39.00000                 :Drilling Fluid Viscosity
DFL  .                                   :Drilling Fluid Loss
RMFS .OHMM       0.47250                 :Resistivity of Mud Filtrate Sample
EKB  .F       5290.00000                 :Elevation of Kelly Bushing
EGL  .F       5265.00000                 :Elevation of Ground Level
BLI  .F       8212.00000                 :Bottom Log Interval
BSAL .PPM     1000.00000                 :Borehole Salinity
FLEV .                                   :Fluid Level
MCST .DEGF      86.60000                 :Mud Cake Sample Temperature
MFST .DEGF      86.60000                 :Mud Filtrate Sample Temperature
MRT  .DEGF     216.00000                 :Maximum Recorded Temperature
MST  .DEGF      86.60000                 :Mud Sample Temperature
RMCS .OHMM       0.78750                 :Resistivity of Mud Cake Sample
RMS  .OHMM       0.63000                 :Resistivity of Mud Sample
RW   .OHMM       1.00000                 :Resistivity of Connate Water
TDD  .F       8200.00000                 :Total Depth - Driller
TDL  .F       8212.00000                 :Total Depth - Logger
TLI  .F       1340.00000                 :Top Log Interval
HIDE .        Platform Express           :Header Identifier
MATR .        LIME                       :Rock Matrix for Neutron Porosity Corrections
FNUM .           1.00000                 :Form Factor Numerator
FEXP .           2.00000                 :Form Factor Exponent
DFT  .        Water Based Mud            :Drilling Fluid Type
DFPH .           8.00000                 :Drilling Fluid PH
MCSS .        Calculated                 :Mud Cake Sample Source
MFSS .        Calculated                 :Mud Filtrate Sample Source
MSS  .        Mud Flow                   :Mud Sample Source
OS1  .        HNGS                       :Other Services Line 1
OS2  .        MSIP                       :Other Services Line 2
OS3  .        FMI                        :Other Services Line 3
OS4  .        PEX                        :Other Services Line 4
OS5  .                                   :Other Services Line 5
R1   .        This is the first run in hole :Remark Line 1
R2   .                                   :Remark Line 2
R3   .        Toolstring run as per tool sketch :Remark Line 3
R4   .                                   :Remark Line 4
R5   .        Matrix  Limestone (2.71 g/cc) :Remark Line 5
R6   .                                   :Remark Line 6
R7   .        Main log and repeat log correlated to correlation log around 7000-8000 ft :Remark Line 7
R8   .                                   :Remark Line 8
TCS  .        17 30                      :Time Circulation Stopped
TLAB .        11 30                      :Time Logger At Bottom
NMT  .        NOBARITE                   :HILT Nuclear Mud Type
EPD  .F         5265.000000              :Elevation of Permanent Datum above Mean Sea Level
APD  .F          25.000000               :Elevation of Depth Reference (LMF) above Permanent Datum
#-----------------------------------------------------------------------------
~CURVE INFORMATION
#MNEM.UNIT   API CODE                                  DESCRIPTION
#---- -----  --------                                  -----------------------
DEPT .F                                                :DEPTH (BOREHOLE) {F12.4}
CDF  .LBF                                              :Calibrated Downhole Force {F11.4}
CFTC .HZ                                               :Corrected Far Thermal Counting Rate {F11.4}
CNTC .HZ                                               :Corrected Near Thermal Counting Rate {F11.4}
CTEM .DEGF                                             :Cartridge Temperature {F11.4}
DCAL .IN                                               :Differential Caliper {F11.4}
DNPH .CFCF                                             :Delta Thermal Neutron Porosity {F11.4}
DWAL_WALK2.                                            :Dry Weight Fraction Pseudo Aluminum (SpectroLith WALK2 Model) {F11.4}
DWCA_WALK2.                                            :Dry Weight Fraction Calcium (SpectroLith WALK2 Model) {F11.4}
DWFE_WALK2.                                            :Dry Weight Fraction Iron + 0.14 Aluminum (SpectroLith WALK2 Model) {F11.4}
DWGD_WALK2.PPM                                         :Dry Weight Fraction Gadolinium (SpectroLith WALK2 Model) {F11.4}
DWSI_WALK2.                                            :Dry Weight Fraction Silicon (SpectroLith WALK2 Model) {F11.4}
DWSU_WALK2.                                            :Dry Weight Fraction Sulfur (SpectroLith WALK2 Model) {F11.4}
DWTI_WALK2.                                            :Dry Weight Fraction Titanium (SpectroLith WALK2 Model) {F11.4}
ECGR .GAPI                                             :Environmentally Corrected Gamma-Ray {F11.4}
ECST .DEGF                                             :ECS Temperature {F11.4}
ESUF_WALK2.                                            :Elemental Statistical Uncertainty Factor (SpectroLith WALK2 Model) {F11.4}
GDEV .DEG                                              :HGNS Deviation {F11.4}
GR   .GAPI                                             :Gamma-Ray {F11.4}
GTEM .DEGF                                             :Generalized Borehole Temperature {F11.4}
HGR  .GAPI                                             :HiRes Gamma-Ray {F11.4}
HNPO .CFCF                                             :HiRes Enhanced Thermal Neutron Porosity {F11.4}
HTNP .CFCF                                             :HiRes Thermal Neutron Porosity {F11.4}
NPHI .CFCF                                             :Thermal Neutron Porosity (Ratio Method) {F11.4}
NPOR .CFCF                                             :Enhanced Thermal Neutron Porosity {F11.4}
QCPMT.                                                 :Photomultiplier Tube Quality Control {F11.4}
RHGE_WALK2.G/C3                                        :Matrix Density from Elemental Concentrations (SpectroLith WALK2 Model) {F11.4}
RWA  .OHMM                                             :Apparent Water Resistivity {F11.4}
STIT .F                                                :Stuck Tool Indicator, Total {F11.4}
TENS .LBF                                              :Cable Tension {F11.4}
TNPH .CFCF                                             :Thermal Neutron Porosity {F11.4}
WANH_WALK2.                                            :Dry Weight Fraction Anhydrite/Gypsum (SpectroLith WALK2 Model) {F11.4}
WCAR_WALK2.                                            :Dry Weight Fraction Carbonate (SpectroLith WALK2 Model) {F11.4}
WCLA_WALK2.                                            :Dry Weight Fraction Clay (SpectroLith WALK2 Model) {F11.4}
WCOA_WALK2.                                            :Dry Weight Fraction Coal (SpectroLith WALK2 Model) {F11.4}
WEVA_WALK2.                                            :Dry Weight Fraction Salt (SpectroLith WALK2 Model) {F11.4}
WPYR_WALK2.                                            :Dry Weight Fraction Pyrite (SpectroLith WALK2 Model) {F11.4}
WQFM_WALK2.                                            :Dry Weight Fraction Quartz+Feldspar+Mica (QFM) (SpectroLith WALK2 Model) {F11.4}
WSID_WALK2.                                            :Dry Weight Fraction Siderite (SpectroLith WALK2 Model) {F11.4}
#-----------------------------------------------------------------------------
# 
#      DEPT        CDF        CFTC       CNTC       CTEM       DCAL       DNPH    DWAL_WALK2 DWCA_WALK2 DWFE_WALK2 DWGD_WALK2 DWSI_WALK2 DWSU_WALK2 DWTI_WALK2    ECGR       ECST    ESUF_WALK2    GDEV        GR        GTEM       HGR        HNPO       HTNP       NPHI       NPOR      QCPMT    RHGE_WALK2    RWA        STIT       TENS       TNPH    WANH_WALK2 WCAR_WALK2 WCLA_WALK2 WCOA_WALK2 WEVA_WALK2 WPYR_WALK2 WQFM_WALK2 WSID_WALK2
#
~A  
# ...
   7492.0000 -9985.9951    -0.4668    -4.5204   226.8237     0.0000    -0.0032     0.0472     0.1879     0.0271     4.0371     0.1649     0.0072     0.0017   156.5065    45.9914     0.5615     2.5866   159.0163   217.0247   166.0629  -999.2500  -999.2500  -999.2500  -999.2500     0.4173     2.7335     1.0000     0.0000  2517.0000  -999.2500     0.0000     0.4304     0.2370     0.0000     0.0000     0.0135     0.3190     0.0000
   7492.5000 -9986.3506     5.7052    -2.4988   226.8237     0.0000    -0.0032     0.0440     0.1901     0.0261     4.7809     0.1672     0.0000     0.0019   156.8665    45.9914     0.5819     2.7320   159.3820   217.0247   159.9510  -999.2500  -999.2500  -999.2500  -999.2500     0.2631     2.7234     1.0000     0.0000  2530.0000  -999.2500     0.0000     0.4364     0.2209     0.0000     0.0000     0.0000     0.3427     0.0000
   7493.0000 -9986.7061     3.4649    -3.0441   226.8237     0.0000    -0.0032     0.0450     0.1866     0.0266     5.9292     0.1695     0.0000     0.0022   155.5146    45.9914     0.6073     2.9353   158.0084   217.0247   151.1732  -999.2500  -999.2500  -999.2500  -999.2500     0.4185     2.7238     1.0000     0.0000  2543.0000  -999.2500     0.0000     0.4270     0.2262     0.0000     0.0000     0.0000     0.3468     0.0000
   7493.5000 -9985.9951    -0.3185    -0.2179   226.8237     0.0000    -0.0032     0.0441     0.1893     0.0261     6.7537     0.1680     0.0000     0.0020   159.3143    44.8209     0.5959     2.6076   161.8690   217.0247   162.9094  -999.2500  -999.2500  -999.2500  -999.2500     0.3584     2.7233     1.0000     0.0000  2539.0000  -999.2500     0.0000     0.4343     0.2215     0.0000     0.0000     0.0000     0.3442     0.0000
   7494.0000 -9985.9951    -3.2500     0.9094   226.8237     0.0000    -0.0032     0.0447     0.1837     0.0263     6.3263     0.1735     0.0012     0.0021   167.8335    44.8209     0.5941     2.7560   170.5249   217.0247   172.0448  -999.2500  -999.2500    -0.0396  -999.2500     0.1816     2.7241     1.0000     0.0000  2531.0000  -999.2500     0.0000     0.4192     0.2248     0.0000     0.0000     0.0022     0.3539     0.0000
   7494.5000 -9986.3506    -0.1705     4.5054   228.8002     0.0000    -0.0032     0.0438     0.1770     0.0251     6.0989     0.1836     0.0066     0.0019   174.4889    45.9914     0.5853     2.7542   177.2870   217.0247   179.0020    -0.0466     0.0556    -0.0216  -999.2500     0.0000     2.7272     1.0000     0.0000  2523.0000  -999.2500     0.0000     0.4010     0.2203     0.0000     0.0000     0.0123     0.3664     0.0000
   7495.0000 -9985.9951     2.3792     3.5105   228.8002     0.0000    -0.0032     0.0478     0.1609     0.0264     4.8128     0.1964     0.0134     0.0026   153.7307    45.9914     0.6280     2.5383   156.1960   217.0247   182.5782     0.0018     0.2618     0.0192     0.1535     0.2583     2.7347     1.0000     0.0000  2480.0000     0.1331     0.0000     0.3577     0.2405     0.0000     0.0000     0.0251     0.3768     0.0000
   7495.5000 -9985.9951     4.8980     3.1559   228.8002     0.0000    -0.0018     0.0497     0.1599     0.0267     5.5366     0.1949     0.0173     0.0033   134.0685    45.9914     0.6503     2.4034   136.2184   217.0247   108.7797    -0.1119     0.0113     0.1182    -0.0394     0.0000     2.7397     1.0000     0.0000  2525.0000     0.0021     0.0000     0.3551     0.2498     0.0000     0.0000     0.0323     0.3628     0.0000
   7496.0000 -9985.9951     4.8980     0.4573   228.8002     0.0000    -4.3282     0.0512     0.1603     0.0269     5.3249     0.1924     0.0191     0.0044   112.3264    45.9914     0.6947     2.5237   114.1276   217.0247   117.8176    -0.1528    -0.0621     0.3592     5.0230     0.1637     2.7423     1.0000     0.0000  2526.0000     1.5297     0.0000     0.3562     0.2572     0.0000     0.0000     0.0358     0.3509     0.0000
   7496.5000 -9985.9951     5.2920    -2.9168   228.8002     0.0000    -4.3282     0.0485     0.1686     0.0259     5.9829     0.1868     0.0169     0.0036   111.2385    44.8209     0.6689     2.7478   113.0223   217.0247   117.1024  -999.2500  -999.2500     0.3074  -999.2500     0.0000     2.7393     1.0000     0.0000  2527.0000  -999.2500     0.0000     0.3786     0.2439     0.0000     0.0000     0.0316     0.3459     0.0000
   7497.0000 -9985.9951     0.8813    -2.4658   228.8002     0.0000    -4.3282     0.0467     0.1620     0.0251     3.4266     0.1975     0.0169     0.0029   109.4466    44.8209     0.6572     2.6706   111.2017   217.0247   104.9435  -999.2500  -999.2500  -999.2500  -999.2500     0.0000     2.7367     1.0000     0.0000  2528.0000  -999.2500     0.0000     0.3609     0.2349     0.0000     0.0000     0.0317     0.3725     0.0000
   7497.5000 -9985.9951     3.4071    -1.4678   228.8002     0.0000    -4.3282     0.0469     0.1538     0.0255     2.3987     0.2066     0.0167     0.0022   106.0869    44.8209     0.6353     2.4845   107.7881   217.0247   112.3559  -999.2500  -999.2500  -999.2500  -999.2500     0.0000     2.7358     1.0000     0.0000  2512.0000  -999.2500     0.0000     0.3387     0.2355     0.0000     0.0000     0.0312     0.3946     0.0000
   7498.0000 -9985.9951    -1.6341    -0.5709   228.8002     0.0000    -4.3282     0.0468     0.1395     0.0251     3.1052     0.2237     0.0178     0.0026   105.3190    44.8209     0.6514     2.6481   107.0079   217.0247   106.4390  -999.2500  -999.2500  -999.2500  -999.2500     0.0000     2.7340     1.0000     0.0000  2515.0000  -999.2500     0.0000     0.3002     0.2354     0.0000     0.0000     0.0333     0.4311     0.0000
   7498.5000 -9984.5732     2.3567    -1.4682   228.8002     0.0000    -4.3282     0.0470     0.1283     0.0252     6.8749     0.2365     0.0167     0.0032   105.2950    44.8209     0.6944     3.0503   106.9835   217.0247   102.6028  -999.2500  -999.2500  -999.2500  -999.2500     0.0000     2.7309     1.0000     0.0000  2553.0000  -999.2500     0.0000     0.2701     0.2363     0.0000     0.0000     0.0313     0.4623     0.0000
   7499.0000 -9986.3506    -2.6866     1.4532   228.8002     0.0000    -4.3282     0.0467     0.1314     0.0249     9.8037     0.2335     0.0163     0.0037   103.0072    44.8209     0.6903     2.6405   104.6590   217.0247   112.2258  -999.2500  -999.2500     0.0481  -999.2500     0.2682     2.7303     1.0000     0.0000  2522.0000  -999.2500     0.0000     0.2783     0.2349     0.0000     0.0000     0.0305     0.4562     0.0000
   7499.5000 -9985.9951     1.9349     0.5554   228.8002     0.0000    -4.3282     0.0468     0.1404     0.0257    11.3501     0.2222     0.0097     0.0039   105.1030    45.9914     0.6729     2.5758   106.7884   217.0247    99.0916    -0.0758    -0.0190    -0.0054  -999.2500     0.2387     2.7256     1.0000     0.0000  2522.0000  -999.2500     0.0000     0.3027     0.2351     0.0000     0.0000     0.0182     0.4441     0.0000
   7500.0000 -9985.9951     1.5409    -0.6836   228.8002     0.0000    -4.3282     0.0475     0.1521     0.0270    10.6977     0.2064     0.0054     0.0034   110.2465    45.9914     0.6234     2.9041   112.0145   217.0247   110.4702    -0.0985    -0.0031    -0.0131  -999.2500     0.7336     2.7249     1.0000     0.0000  2514.0000  -999.2500     0.0000     0.3343     0.2388     0.0000     0.0000     0.0102     0.4168     0.0000
   7500.5000 -9985.9951     4.0650    -0.4557   228.8002     0.0000    -4.3282     0.0516     0.1467     0.0295     9.5031     0.2053     0.0054     0.0032   116.1340    48.3325     0.6349     2.7329   117.9964   217.0247   127.9608    -0.1372     0.1073  -999.2500  -999.2500     0.3020     2.7287     1.0000     0.0000  2530.0000  -999.2500     0.0000     0.3196     0.2593     0.0000     0.0000     0.0101     0.4110     0.0000
   7501.0000 -9985.9951    -0.5564     1.3411   228.8002     0.0000    -4.3282     0.0572     0.1412     0.0323     7.4506     0.2024     0.0119     0.0025   119.5417    48.3325     0.6404     2.9345   121.4587   217.0247   117.6875  -999.2500  -999.2500    -0.0284  -999.2500     0.0000     2.7405     1.0000     0.0000  2529.0000  -999.2500     0.0000     0.3047     0.2873     0.0000     0.0000     0.0222     0.3858     0.0000
