~VERSION INFORMATION
VERS.           1.2   :CWLS Log ASCII Standard - VERSION 1.2
WRAP.           NO    :One Line per depth step
PROD.  Schlumberger   :LAS Producer
PROG.  DLIS to ASCII 17C0-152                          :LAS Program name and version
CREA.        2011/12/13 23:09                          :LAS Creation date {YYYY/MM/DD hh:mm}
DLIS_CREA.  2011-Dec-13 15:28                          :DLIS Creation date and time {YYYY-MMM-DD hh:mm}
SOURCE.     1ba8f76d-360e-4325-8cd9-5cb564d153a7       :DLIS File Name
#--------------------------------------------------
~WELL INFORMATION
#MNEM.UNIT      DATA             DESCRIPTION
#---- ------ --------------   -----------------------------
STRT .F      6646.5000       :START DEPTH     
STOP .F      8231.0000       :STOP DEPTH     
STEP .F       0.5000         :STEP       
NULL .          -999.25      :NULL VALUE
COMP .                 COMPANY:  EOG Resources, Inc.                
WELL .                    WELL:  Garden Creek 32-07M                
FLD  .                   FIELD:  Wildcat                            
LOC  .                LOCATION:  Lat/ Long : 40.9343 / -104.3619    
CNTY .                  COUNTY:  Weld County                        
STAT .                   STATE:  Colorado                           
CTRY .                 COUNTRY:                                     
SRVC .         SERVICE COMPANY:  Schlumberger                       
API  .              API NUMBER:  05-123-34636-00                    
DATE .                LOG DATE:  6-Dec-2011
UWI  .          UNIQUE WELL ID:  5123346360000                      
#-----------------------------------------------------------------------------
~PARAMETER INFORMATION
#MNEM.UNIT    VALUE                      DESCRIPTION
#---- -----   --------------------       ------------------------
CN   .        EOG Resources  Inc.        :Company Name
WN   .        Garden Creek 32-07M        :Well Name
FN   .        Wildcat                    :Field Name
FL   .        Lat/ Long   40.9343 / -104.3619 :Field Location
FL1  .        SHL   1529' FSL X 2266' FEL NWSE :Field Location Line 1
COUN .        Weld County                :County or Rig Name
STAT .        Colorado                   :State or Province
NATI .                                   :Nation
DATE .        6-Dec-2011                 :Date as Month-Day-Year
APIN .        05-123-34636-00            :API Serial Number
SECT .        7                          :Section
TOWN .        11N                        :Township
RANG .        62W                        :Range
DMF  .        Kelly Bushing              :Drilling Measured From
LMF  .        Kelly Bushing              :Log Measured From
PDAT .        Ground Level               :Permanent Datum
ENGI .        Arvin Shi                  :Engineer's Name
WITN .        Danny Cook                 :Witness's Name
LATI .                                   :Latitude
LONG .                                   :Longitude
LUL  .        Fort Morgan                :Logging Unit Location
LUN  .              7006                 :Logging Unit Number
RUN  .        Two                        :Run Number
SON  .        BOAA-00063                 :Service Order Number
BHT  .DEGF     211.99986                 :Bottom Hole Temperature (used in calculations)
BS   .IN         7.87500                 :Bit Size
DFD  .LB/G       9.70000                 :Drilling Fluid Density
DFV  .S         39.00000                 :Drilling Fluid Viscosity
DFL  .                                   :Drilling Fluid Loss
RMFS .OHMM       0.47250                 :Resistivity of Mud Filtrate Sample
EKB  .F       5290.00000                 :Elevation of Kelly Bushing
EGL  .F       5265.00000                 :Elevation of Ground Level
BLI  .F       8212.00000                 :Bottom Log Interval
BSAL .PPM     1000.00000                 :Borehole Salinity
FLEV .                                   :Fluid Level
MCST .DEGF      86.60000                 :Mud Cake Sample Temperature
MFST .DEGF      86.60000                 :Mud Filtrate Sample Temperature
MRT  .DEGF     216.00000                 :Maximum Recorded Temperature
MST  .DEGF      86.60000                 :Mud Sample Temperature
RMCS .OHMM       0.78750                 :Resistivity of Mud Cake Sample
RMS  .OHMM       0.63000                 :Resistivity of Mud Sample
RW   .OHMM       1.00000                 :Resistivity of Connate Water
TDD  .F       8200.00000                 :Total Depth - Driller
TDL  .F       8212.00000                 :Total Depth - Logger
TLI  .F       1340.00000                 :Top Log Interval
HIDE .        Platform Express           :Header Identifier
MATR .        LIME                       :Rock Matrix for Neutron Porosity Corrections
FNUM .           1.00000                 :Form Factor Numerator
FEXP .           2.00000                 :Form Factor Exponent
DFT  .        Water Based Mud            :Drilling Fluid Type
DFPH .           8.00000                 :Drilling Fluid PH
MCSS .        Calculated                 :Mud Cake Sample Source
MFSS .        Calculated                 :Mud Filtrate Sample Source
MSS  .        Mud Flow                   :Mud Sample Source
OS1  .        HNGS                       :Other Services Line 1
OS2  .        MSIP                       :Other Services Line 2
OS3  .        FMI                        :Other Services Line 3
OS4  .        PEX                        :Other Services Line 4
OS5  .                                   :Other Services Line 5
R1   .        This is the first run in hole :Remark Line 1
R2   .                                   :Remark Line 2
R3   .        Toolstring run as per tool sketch :Remark Line 3
R4   .                                   :Remark Line 4
R5   .        Matrix  Limestone (2.71 g/cc) :Remark Line 5
R6   .                                   :Remark Line 6
R7   .        Main log and repeat log correlated to correlation log around 7000-8000 ft :Remark Line 7
R8   .                                   :Remark Line 8
TCS  .        17 30                      :Time Circulation Stopped
TLAB .        11 30                      :Time Logger At Bottom
NMT  .        NOBARITE                   :HILT Nuclear Mud Type
EPD  .F         5265.000000              :Elevation of Permanent Datum above Mean Sea Level
APD  .F          25.000000               :Elevation of Depth Reference (LMF) above Permanent Datum
#-----------------------------------------------------------------------------
~CURVE INFORMATION
#MNEM.UNIT   API CODE                                  DESCRIPTION
#---- -----  --------                                  -----------------------
DEPT .F                                                :DEPTH (BOREHOLE) {F12.4}
CDF  .LBF                                              :Calibrated Downhole Force {F11.4}
CFTC .HZ                                               :Corrected Far Thermal Counting Rate {F11.4}
CNTC .HZ                                               :Corrected Near Thermal Counting Rate {F11.4}
CTEM .DEGF                                             :Cartridge Temperature {F11.4}
DCAL .IN                                               :Differential Caliper {F11.4}
DNPH .CFCF                                             :Delta Thermal Neutron Porosity {F11.4}
DWAL_WALK2.                                            :Dry Weight Fraction Pseudo Aluminum (SpectroLith WALK2 Model) {F11.4}
DWCA_WALK2.                                            :Dry Weight Fraction Calcium (SpectroLith WALK2 Model) {F11.4}
DWFE_WALK2.                                            :Dry Weight Fraction Iron + 0.14 Aluminum (SpectroLith WALK2 Model) {F11.4}
DWGD_WALK2.PPM                                         :Dry Weight Fraction Gadolinium (SpectroLith WALK2 Model) {F11.4}
DWSI_WALK2.                                            :Dry Weight Fraction Silicon (SpectroLith WALK2 Model) {F11.4}
DWSU_WALK2.                                            :Dry Weight Fraction Sulfur (SpectroLith WALK2 Model) {F11.4}
DWTI_WALK2.                                            :Dry Weight Fraction Titanium (SpectroLith WALK2 Model) {F11.4}
ECGR .GAPI                                             :Environmentally Corrected Gamma-Ray {F11.4}
ECST .DEGF                                             :ECS Temperature {F11.4}
ESUF_WALK2.                                            :Elemental Statistical Uncertainty Factor (SpectroLith WALK2 Model) {F11.4}
GDEV .DEG                                              :HGNS Deviation {F11.4}
GR   .GAPI                                             :Gamma-Ray {F11.4}
GTEM .DEGF                                             :Generalized Borehole Temperature {F11.4}
HGR  .GAPI                                             :HiRes Gamma-Ray {F11.4}
HNPO .CFCF                                             :HiRes Enhanced Thermal Neutron Porosity {F11.4}
HTNP .CFCF                                             :HiRes Thermal Neutron Porosity {F11.4}
NPHI .CFCF                                             :Thermal Neutron Porosity (Ratio Method) {F11.4}
NPOR .CFCF                                             :Enhanced Thermal Neutron Porosity {F11.4}
QCPMT.                                                 :Photomultiplier Tube Quality Control {F11.4}
RHGE_WALK2.G/C3                                        :Matrix Density from Elemental Concentrations (SpectroLith WALK2 Model) {F11.4}
RWA  .OHMM                                             :Apparent Water Resistivity {F11.4}
STIT .F                                                :Stuck Tool Indicator, Total {F11.4}
TENS .LBF                                              :Cable Tension {F11.4}
TNPH .CFCF                                             :Thermal Neutron Porosity {F11.4}
WANH_WALK2.                                            :Dry Weight Fraction Anhydrite/Gypsum (SpectroLith WALK2 Model) {F11.4}
WCAR_WALK2.                                            :Dry Weight Fraction Carbonate (SpectroLith WALK2 Model) {F11.4}
WCLA_WALK2.                                            :Dry Weight Fraction Clay (SpectroLith WALK2 Model) {F11.4}
WCOA_WALK2.                                            :Dry Weight Fraction Coal (SpectroLith WALK2 Model) {F11.4}
WEVA_WALK2.                                            :Dry Weight Fraction Salt (SpectroLith WALK2 Model) {F11.4}
WPYR_WALK2.                                            :Dry Weight Fraction Pyrite (SpectroLith WALK2 Model) {F11.4}
WQFM_WALK2.                                            :Dry Weight Fraction Quartz+Feldspar+Mica (QFM) (SpectroLith WALK2 Model) {F11.4}
WSID_WALK2.                                            :Dry Weight Fraction Siderite (SpectroLith WALK2 Model) {F11.4}
#-----------------------------------------------------------------------------
# 
#      DEPT        CDF        CFTC       CNTC       CTEM       DCAL       DNPH    DWAL_WALK2 DWCA_WALK2 DWFE_WALK2 DWGD_WALK2 DWSI_WALK2 DWSU_WALK2 DWTI_WALK2    ECGR       ECST    ESUF_WALK2    GDEV        GR        GTEM       HGR        HNPO       HTNP       NPHI       NPOR      QCPMT    RHGE_WALK2    RWA        STIT       TENS       TNPH    WANH_WALK2 WCAR_WALK2 WCLA_WALK2 WCOA_WALK2 WEVA_WALK2 WPYR_WALK2 WQFM_WALK2 WSID_WALK2
#
~A  
# ...
   6960.0000 -9981.3740    -5.2048     0.4555   216.9414     0.0000    -0.0031     0.0846     0.0523     0.0507     9.5840     0.2551     0.0000     0.0024   110.0306    48.3325     0.7055     2.8970   111.7950   206.9585   112.7459  -999.2500  -999.2500    -0.0304  -999.2500     0.4322     2.7455     1.0000     0.0000  2328.0000  -999.2500     0.0000     0.0657     0.4331     0.0000     0.0000     0.0000     0.5012     0.0000
   6960.5000 -9982.7959    -1.7925     2.7181   216.9414     0.0000    -0.0031     0.0753     0.0638     0.0451     7.9505     0.2585     0.0000     0.0022   113.5103    49.5030     0.6726     2.8453   115.3305   206.9585   106.8291  -999.2500  -999.2500    -0.0307  -999.2500     0.0521     2.7371     1.0000     0.0000  2341.0000  -999.2500     0.0000     0.0965     0.3783     0.0000     0.0000     0.0000     0.5252     0.0000
   6961.0000 -9981.0186    -5.9898     3.4923   216.9414     0.0000    -0.0031     0.0792     0.0456     0.0466     6.8909     0.2736     0.0061     0.0024   114.8302    48.3325     0.7163     2.8019   116.6716   206.9585   126.5953  -999.2500  -999.2500    -0.0283  -999.2500     0.4748     2.7439     1.0000     0.0000  2380.0000  -999.2500     0.0000     0.0476     0.3980     0.0000     0.0000     0.0114     0.5430     0.0000
   6961.5000 -9982.4404    -5.5702     2.5928   216.9414     0.0000    -0.0031     0.0818     0.0330     0.0487     6.8249     0.2832     0.0030     0.0021   118.4298    47.1620     0.7285     2.9054   120.3290   206.9585   118.5328  -999.2500  -999.2500    -0.0202  -999.2500     0.4937     2.7420     1.0000     0.0000  2343.0000  -999.2500     0.0000     0.0137     0.4142     0.0000     0.0000     0.0056     0.5665     0.0000
   6962.0000 -9981.0186    -7.9309     1.8045   218.9178     0.0000    -0.0031     0.0877     0.0252     0.0524     8.3738     0.2813     0.0018     0.0023   113.6373    47.1620     0.7254     2.8041   115.4596   206.9585   117.4925  -999.2500  -999.2500    -0.0227  -999.2500     0.6074     2.7462     1.0000     0.0000  2313.0000  -999.2500     0.0000     0.0000     0.4539     0.0000     0.0000     0.0034     0.5427     0.0000
   6962.5000 -9981.7295    -5.8324     2.0325   218.9178     0.0000    -0.0031     0.0845     0.0393     0.0508     8.5901     0.2703     0.0000     0.0020   114.7172    47.1620     0.6765     2.9018   116.5568   206.9585   111.0554  -999.2500  -999.2500     0.0109  -999.2500     0.3898     2.7435     1.0000     0.0000  2325.0000  -999.2500     0.0000     0.0308     0.4325     0.0000     0.0000     0.0000     0.5366     0.0000
   6963.0000 -9981.0186    -3.3372    -0.4979   218.9178     0.0000    -0.0031     0.0802     0.0494     0.0481     7.3598     0.2665     0.0000     0.0022   118.1969    47.1620     0.6576     2.8297   120.0923   206.9585   121.4587  -999.2500  -999.2500    -0.0038  -999.2500     0.2324     2.7401     1.0000     0.0000  2363.0000  -999.2500     0.0000     0.0578     0.4037     0.0000     0.0000     0.0000     0.5385     0.0000
   6963.5000 -9981.3740    -2.7108     2.4229   218.9178     0.0000    -0.0031     0.0745     0.0495     0.0446     6.0678     0.2765     0.0006     0.0019   119.2698    47.1620     0.6166     2.8004   121.1824   206.9585   127.5056  -999.2500  -999.2500    -0.0186  -999.2500     0.0000     2.7346     1.0000     0.0000  2394.0000  -999.2500     0.0000     0.0583     0.3743     0.0000     0.0000     0.0012     0.5662     0.0000
   6964.0000 -9981.0186    -3.9699     4.0007   218.9178     0.0000    -0.0031     0.0712     0.0464     0.0423     6.4873     0.2863     0.0039     0.0017   119.0298    47.1620     0.6294     2.5448   120.9386   206.9585   113.5912  -999.2500  -999.2500    -0.0420  -999.2500     0.0000     2.7335     1.0000     0.0000  2372.0000  -999.2500     0.0000     0.0499     0.3581     0.0000     0.0000     0.0073     0.5847     0.0000
   6964.5000 -9982.7959    -8.6912     4.6333   218.9178     0.0000    -0.0031     0.0718     0.0410     0.0433     8.6645     0.2910     0.0000     0.0014   115.3101    47.1620     0.6307     2.5382   117.1592   206.9585   121.5237  -999.2500  -999.2500    -0.0194  -999.2500     0.2236     2.7299     1.0000     0.0000  2347.0000  -999.2500     0.0000     0.0353     0.3609     0.0000     0.0000     0.0000     0.6038     0.0000
   6965.0000 -9983.1514    -6.5935     3.0561   218.9178     0.0000    -0.0031     0.0778     0.0437     0.0468    11.7129     0.2773     0.0000     0.0020   116.7500    47.1620     0.6468     2.6959   118.6222   206.9585   117.2974  -999.2500  -999.2500    -0.0006  -999.2500     0.6884     2.7367     1.0000     0.0000  2386.0000  -999.2500     0.0000     0.0425     0.3911     0.0000     0.0000     0.0000     0.5663     0.0000
   6965.5000 -9983.5068    -5.3344     2.8741   218.9178     0.0000    -0.0031     0.0827     0.0494     0.0495    13.0441     0.2621     0.0000     0.0025   118.5498    47.1620     0.6459     2.6383   120.4509   206.9585   117.4274  -999.2500  -999.2500     0.0023  -999.2500     1.1944     2.7428     1.0000     0.0000  2408.0000  -999.2500     0.0000     0.0578     0.4201     0.0000     0.0000     0.0000     0.5221     0.0000
   6966.0000 -9981.7295    -3.3673    -0.1883   218.9178     0.0000    -0.0031     0.0824     0.0556     0.0492    14.4422     0.2555     0.0000     0.0029   116.9759    47.1620     0.7060     2.7733   118.8517   206.9585   126.2702  -999.2500  -999.2500     0.0110  -999.2500     1.4020     2.7432     1.0000     0.0000  2404.0000  -999.2500     0.0000     0.0745     0.4184     0.0000     0.0000     0.0000     0.5071     0.0000
   6966.5000 -9981.7295    -5.8846    -1.3164   218.9178     0.0000    -0.0031     0.0796     0.0520     0.0457    13.5888     0.2663     0.0118     0.0032   118.6557    47.1620     0.7357     2.7105   120.5585   206.9585   112.1607  -999.2500  -999.2500  -999.2500  -999.2500     0.9691     2.7501     1.0000     0.0000  2386.0000  -999.2500     0.0000     0.0649     0.4002     0.0000     0.0000     0.0221     0.5127     0.0000
   6967.0000 -9981.7295    -5.7028    -0.4728   218.9178     0.0000    -0.0031     0.0829     0.0314     0.0455    12.2692     0.2866     0.0252     0.0043   114.7600    47.1620     0.7864     2.6204   116.6003   206.9585   123.1492  -999.2500  -999.2500  -999.2500  -999.2500     0.1146     2.7618     1.0000     0.0000  2373.0000  -999.2500     0.0000     0.0094     0.4214     0.0000     0.0000     0.0471     0.5221     0.0000
   6967.5000 -9981.7295    -1.6604     0.2044   218.9178     0.0000    -0.0031     0.0865     0.0078     0.0490    10.1302     0.3064     0.0269     0.0055   111.8944    47.1620     0.8237     2.6091   113.6888   206.9585   114.3064  -999.2500  -999.2500     0.0371  -999.2500     0.0164     2.7666     1.0000     0.0000  2362.0000  -999.2500     0.0000     0.0000     0.4453     0.0000     0.0000     0.0504     0.5043     0.0000
   6968.0000 -9982.4404     0.8569     1.3267   218.9178     0.0000    -0.0031     0.0877     0.0000     0.0512     8.8757     0.3120     0.0157     0.0056   107.8148    47.1620     0.8112     2.6683   109.5437   206.9585   102.4727    23.5192   166.5021    -0.0091    -0.0747     0.2875     2.7559     1.0000     0.0000  2318.0000     0.1549     0.0000     0.0000     0.4539     0.0000     0.0000     0.0293     0.5168     0.0000
   6968.5000 -9982.4404     4.8729     2.8182   218.9178     0.0000    -0.0006     0.0855     0.0000     0.0501    10.0564     0.3157     0.0037     0.0054   110.2706    47.1620     0.8052     2.6846   112.0389   206.9585   111.9006    -0.0965    -0.0120    -0.0564     0.8884     0.2812     2.7397     1.0000     0.0000  2326.0000     0.2482     0.0000     0.0000     0.4391     0.0000     0.0000     0.0069     0.5540     0.0000
   6969.0000 -9981.0186     3.5847     4.7604   218.9178     0.0000    -0.0006     0.0813     0.0000     0.0477     9.8741     0.3230     0.0000     0.0050   114.1102    47.1620     0.8071     2.5987   115.9401   206.9585   122.1739  -999.2500  -999.2500    -0.0607  -999.2500     0.5911     2.7310     1.0000     0.0000  2387.0000  -999.2500     0.0000     0.0000     0.4114     0.0000     0.0000     0.0000     0.5886     0.0000
