~VERSION INFORMATION
VERS.           1.2   :CWLS Log ASCII Standard - VERSION 1.2
WRAP.           NO    :One Line per depth step
PROD.  Schlumberger   :LAS Producer
PROG.  DLIS to ASCII 17C0-152                          :LAS Program name and version
CREA.        2011/12/13 23:09                          :LAS Creation date {YYYY/MM/DD hh:mm}
DLIS_CREA.  2011-Dec-13 15:28                          :DLIS Creation date and time {YYYY-MMM-DD hh:mm}
SOURCE.     1ba8f76d-360e-4325-8cd9-5cb564d153a7       :DLIS File Name
#--------------------------------------------------
~WELL INFORMATION
#MNEM.UNIT      DATA             DESCRIPTION
#---- ------ --------------   -----------------------------
STRT .F      6646.5000       :START DEPTH     
STOP .F      8231.0000       :STOP DEPTH     
STEP .F       0.5000         :STEP       
NULL .          -999.25      :NULL VALUE
COMP .                 COMPANY:  EOG Resources, Inc.                
WELL .                    WELL:  Garden Creek 32-07M                
FLD  .                   FIELD:  Wildcat                            
LOC  .                LOCATION:  Lat/ Long : 40.9343 / -104.3619    
CNTY .                  COUNTY:  Weld County                        
STAT .                   STATE:  Colorado                           
CTRY .                 COUNTRY:                                     
SRVC .         SERVICE COMPANY:  Schlumberger                       
API  .              API NUMBER:  05-123-34636-00                    
DATE .                LOG DATE:  6-Dec-2011
UWI  .          UNIQUE WELL ID:  5123346360000                      
#-----------------------------------------------------------------------------
~PARAMETER INFORMATION
#MNEM.UNIT    VALUE                      DESCRIPTION
#---- -----   --------------------       ------------------------
CN   .        EOG Resources  Inc.        :Company Name
WN   .        Garden Creek 32-07M        :Well Name
FN   .        Wildcat                    :Field Name
FL   .        Lat/ Long   40.9343 / -104.3619 :Field Location
FL1  .        SHL   1529' FSL X 2266' FEL NWSE :Field Location Line 1
COUN .        Weld County                :County or Rig Name
STAT .        Colorado                   :State or Province
NATI .                                   :Nation
DATE .        6-Dec-2011                 :Date as Month-Day-Year
APIN .        05-123-34636-00            :API Serial Number
SECT .        7                          :Section
TOWN .        11N                        :Township
RANG .        62W                        :Range
DMF  .        Kelly Bushing              :Drilling Measured From
LMF  .        Kelly Bushing              :Log Measured From
PDAT .        Ground Level               :Permanent Datum
ENGI .        Arvin Shi                  :Engineer's Name
WITN .        Danny Cook                 :Witness's Name
LATI .                                   :Latitude
LONG .                                   :Longitude
LUL  .        Fort Morgan                :Logging Unit Location
LUN  .              7006                 :Logging Unit Number
RUN  .        Two                        :Run Number
SON  .        BOAA-00063                 :Service Order Number
BHT  .DEGF     211.99986                 :Bottom Hole Temperature (used in calculations)
BS   .IN         7.87500                 :Bit Size
DFD  .LB/G       9.70000                 :Drilling Fluid Density
DFV  .S         39.00000                 :Drilling Fluid Viscosity
DFL  .                                   :Drilling Fluid Loss
RMFS .OHMM       0.47250                 :Resistivity of Mud Filtrate Sample
EKB  .F       5290.00000                 :Elevation of Kelly Bushing
EGL  .F       5265.00000                 :Elevation of Ground Level
BLI  .F       8212.00000                 :Bottom Log Interval
BSAL .PPM     1000.00000                 :Borehole Salinity
FLEV .                                   :Fluid Level
MCST .DEGF      86.60000                 :Mud Cake Sample Temperature
MFST .DEGF      86.60000                 :Mud Filtrate Sample Temperature
MRT  .DEGF     216.00000                 :Maximum Recorded Temperature
MST  .DEGF      86.60000                 :Mud Sample Temperature
RMCS .OHMM       0.78750                 :Resistivity of Mud Cake Sample
RMS  .OHMM       0.63000                 :Resistivity of Mud Sample
RW   .OHMM       1.00000                 :Resistivity of Connate Water
TDD  .F       8200.00000                 :Total Depth - Driller
TDL  .F       8212.00000                 :Total Depth - Logger
TLI  .F       1340.00000                 :Top Log Interval
HIDE .        Platform Express           :Header Identifier
MATR .        LIME                       :Rock Matrix for Neutron Porosity Corrections
FNUM .           1.00000                 :Form Factor Numerator
FEXP .           2.00000                 :Form Factor Exponent
DFT  .        Water Based Mud            :Drilling Fluid Type
DFPH .           8.00000                 :Drilling Fluid PH
MCSS .        Calculated                 :Mud Cake Sample Source
MFSS .        Calculated                 :Mud Filtrate Sample Source
MSS  .        Mud Flow                   :Mud Sample Source
OS1  .        HNGS                       :Other Services Line 1
OS2  .        MSIP                       :Other Services Line 2
OS3  .        FMI                        :Other Services Line 3
OS4  .        PEX                        :Other Services Line 4
OS5  .                                   :Other Services Line 5
R1   .        This is the first run in hole :Remark Line 1
R2   .                                   :Remark Line 2
R3   .        Toolstring run as per tool sketch :Remark Line 3
R4   .                                   :Remark Line 4
R5   .        Matrix  Limestone (2.71 g/cc) :Remark Line 5
R6   .                                   :Remark Line 6
R7   .        Main log and repeat log correlated to correlation log around 7000-8000 ft :Remark Line 7
R8   .                                   :Remark Line 8
TCS  .        17 30                      :Time Circulation Stopped
TLAB .        11 30                      :Time Logger At Bottom
NMT  .        NOBARITE                   :HILT Nuclear Mud Type
EPD  .F         5265.000000              :Elevation of Permanent Datum above Mean Sea Level
APD  .F          25.000000               :Elevation of Depth Reference (LMF) above Permanent Datum
#-----------------------------------------------------------------------------
~CURVE INFORMATION
#MNEM.UNIT   API CODE                                  DESCRIPTION
#---- -----  --------                                  -----------------------
DEPT .F                                                :DEPTH (BOREHOLE) {F12.4}
CDF  .LBF                                              :Calibrated Downhole Force {F11.4}
CFTC .HZ                                               :Corrected Far Thermal Counting Rate {F11.4}
CNTC .HZ                                               :Corrected Near Thermal Counting Rate {F11.4}
CTEM .DEGF                                             :Cartridge Temperature {F11.4}
DCAL .IN                                               :Differential Caliper {F11.4}
DNPH .CFCF                                             :Delta Thermal Neutron Porosity {F11.4}
DWAL_WALK2.                                            :Dry Weight Fraction Pseudo Aluminum (SpectroLith WALK2 Model) {F11.4}
DWCA_WALK2.                                            :Dry Weight Fraction Calcium (SpectroLith WALK2 Model) {F11.4}
DWFE_WALK2.                                            :Dry Weight Fraction Iron + 0.14 Aluminum (SpectroLith WALK2 Model) {F11.4}
DWGD_WALK2.PPM                                         :Dry Weight Fraction Gadolinium (SpectroLith WALK2 Model) {F11.4}
DWSI_WALK2.                                            :Dry Weight Fraction Silicon (SpectroLith WALK2 Model) {F11.4}
DWSU_WALK2.                                            :Dry Weight Fraction Sulfur (SpectroLith WALK2 Model) {F11.4}
DWTI_WALK2.                                            :Dry Weight Fraction Titanium (SpectroLith WALK2 Model) {F11.4}
ECGR .GAPI                                             :Environmentally Corrected Gamma-Ray {F11.4}
ECST .DEGF                                             :ECS Temperature {F11.4}
ESUF_WALK2.                                            :Elemental Statistical Uncertainty Factor (SpectroLith WALK2 Model) {F11.4}
GDEV .DEG                                              :HGNS Deviation {F11.4}
GR   .GAPI                                             :Gamma-Ray {F11.4}
GTEM .DEGF                                             :Generalized Borehole Temperature {F11.4}
HGR  .GAPI                                             :HiRes Gamma-Ray {F11.4}
HNPO .CFCF                                             :HiRes Enhanced Thermal Neutron Porosity {F11.4}
HTNP .CFCF                                             :HiRes Thermal Neutron Porosity {F11.4}
NPHI .CFCF                                             :Thermal Neutron Porosity (Ratio Method) {F11.4}
NPOR .CFCF                                             :Enhanced Thermal Neutron Porosity {F11.4}
QCPMT.                                                 :Photomultiplier Tube Quality Control {F11.4}
RHGE_WALK2.G/C3                                        :Matrix Density from Elemental Concentrations (SpectroLith WALK2 Model) {F11.4}
RWA  .OHMM                                             :Apparent Water Resistivity {F11.4}
STIT .F                                                :Stuck Tool Indicator, Total {F11.4}
TENS .LBF                                              :Cable Tension {F11.4}
TNPH .CFCF                                             :Thermal Neutron Porosity {F11.4}
WANH_WALK2.                                            :Dry Weight Fraction Anhydrite/Gypsum (SpectroLith WALK2 Model) {F11.4}
WCAR_WALK2.                                            :Dry Weight Fraction Carbonate (SpectroLith WALK2 Model) {F11.4}
WCLA_WALK2.                                            :Dry Weight Fraction Clay (SpectroLith WALK2 Model) {F11.4}
WCOA_WALK2.                                            :Dry Weight Fraction Coal (SpectroLith WALK2 Model) {F11.4}
WEVA_WALK2.                                            :Dry Weight Fraction Salt (SpectroLith WALK2 Model) {F11.4}
WPYR_WALK2.                                            :Dry Weight Fraction Pyrite (SpectroLith WALK2 Model) {F11.4}
WQFM_WALK2.                                            :Dry Weight Fraction Quartz+Feldspar+Mica (QFM) (SpectroLith WALK2 Model) {F11.4}
WSID_WALK2.                                            :Dry Weight Fraction Siderite (SpectroLith WALK2 Model) {F11.4}
#-----------------------------------------------------------------------------
# 
#      DEPT        CDF        CFTC       CNTC       CTEM       DCAL       DNPH    DWAL_WALK2 DWCA_WALK2 DWFE_WALK2 DWGD_WALK2 DWSI_WALK2 DWSU_WALK2 DWTI_WALK2    ECGR       ECST    ESUF_WALK2    GDEV        GR        GTEM       HGR        HNPO       HTNP       NPHI       NPOR      QCPMT    RHGE_WALK2    RWA        STIT       TENS       TNPH    WANH_WALK2 WCAR_WALK2 WCLA_WALK2 WCOA_WALK2 WEVA_WALK2 WPYR_WALK2 WQFM_WALK2 WSID_WALK2
#
~A  
# ...
   7805.5000 -9988.1279     8.2307    -0.7946   228.8002     0.0000    -0.0011     0.0826     0.0183     0.0472     5.1487     0.3006     0.0211     0.0021   150.7389    44.8209     0.7553     2.5499   153.1562   221.0511   144.6710    -0.1100    -0.0571    -0.0195    -0.0952     0.0618     2.7581     1.0000     0.0000  2601.0000    -0.0399     0.0000     0.0000     0.4200     0.0000     0.0000     0.0395     0.5405     0.0000
   7806.0000 -9987.4170     6.1247     2.3515   228.8002     0.0000    -0.0011     0.0838     0.0156     0.0478     3.4378     0.3018     0.0290     0.0021   150.2270    44.8209     0.7606     2.5264   152.6360   221.0511   168.4035    -0.1101    -0.0318    -0.0064    -0.0871     0.2318     2.7681     1.0000     0.0000  2593.0000    -0.0319     0.0000     0.0000     0.4277     0.0000     0.0000     0.0542     0.5181     0.0000
   7806.5000 -9988.1279     0.2551     2.8044   228.8002     0.0000     0.0011     0.0820     0.0215     0.0464     4.8331     0.2983     0.0236     0.0021   158.3862    43.6503     0.7775     2.4741   160.9261   221.0511   146.8817  -999.2500  -999.2500    -0.0346    -0.0511     0.2918     2.7603     1.0000     0.0000  2595.0000     0.0242     0.0000     0.0000     0.4156     0.0000     0.0000     0.0442     0.5402     0.0000
   7807.0000 -9986.7061    -3.1088     3.2514   228.8002     0.0000     0.0011     0.0860     0.0248     0.0485     5.9197     0.2876     0.0205     0.0030   154.8666    43.6503     0.8228     2.4844   157.3500   221.0511   169.7040  -999.2500  -999.2500    -0.0313  -999.2500     0.1351     2.7610     1.0000     0.0000  2641.0000  -999.2500     0.0000     0.0000     0.4422     0.0000     0.0000     0.0384     0.5194     0.0000
   7807.5000 -9987.7725    -4.7813     3.4796   228.8002     0.0000     0.0011     0.0884     0.0157     0.0503     8.7617     0.2936     0.0177     0.0043   154.2666    47.1620     0.8692     2.4065   156.7404   221.0511   156.0496  -999.2500  -999.2500    -0.0321  -999.2500     0.0439     2.7593     1.0000     0.0000  2624.0000  -999.2500     0.0000     0.0000     0.4586     0.0000     0.0000     0.0332     0.5082     0.0000
   7808.0000 -9987.7725    -8.1407     4.8261   228.8002     0.0000     0.0011     0.0876     0.0094     0.0502     9.4050     0.3020     0.0151     0.0048   147.4272    47.1620     0.8800     2.5269   149.7914   221.0511   143.9558  -999.2500  -999.2500    -0.0319  -999.2500     0.0000     2.7549     1.0000     0.0000  2595.0000  -999.2500     0.0000     0.0000     0.4531     0.0000     0.0000     0.0282     0.5187     0.0000
   7808.5000 -9989.1953    -7.7155     4.1544   228.8002     0.0000     0.0011     0.0831     0.0000     0.0486    10.3099     0.3200     0.0144     0.0051   148.6671    44.8209     0.8863     2.3568   151.0511   221.0511   149.0274  -999.2500  -999.2500    -0.0499  -999.2500     0.0471     2.7496     1.0000     0.0000  2608.0000  -999.2500     0.0000     0.0000     0.4232     0.0000     0.0000     0.0269     0.5499     0.0000
   7809.0000 -9987.7725    -6.4626     5.9504   228.8002     0.0000     0.0011     0.0809     0.0000     0.0472     9.5347     0.3241     0.0157     0.0049   146.9872    44.8209     0.9217     2.4440   149.3443   221.0511   158.9105  -999.2500  -999.2500    -0.0563  -999.2500     0.2292     2.7488     1.0000     0.0000  2629.0000  -999.2500     0.0000     0.0000     0.4084     0.0000     0.0000     0.0295     0.5622     0.0000
   7809.5000 -9987.7725    -0.5849     8.2034   228.8002     0.0000     0.0011     0.0834     0.0000     0.0483     8.8972     0.3200     0.0252     0.0058   145.8913    43.6503     0.9767     2.4281   148.2309   221.0511   140.1196     1.3765     2.7004    -0.0708  -999.2500     0.4720     2.7620     1.0000     0.0000  2593.0000  -999.2500     0.0000     0.0000     0.4250     0.0000     0.0000     0.0472     0.5278     0.0000
   7810.0000 -9988.8389     2.7662     7.9753   228.8002     0.0000     0.0011     0.0899     0.0000     0.0486     6.9696     0.3118     0.0290     0.0062   144.6914    43.6503     0.9938     2.3351   147.0117   221.0511   145.5163     0.4885     0.4004    -0.0547     0.2007     1.0917     2.7666     1.0000     0.0000  2582.0000     0.4170     0.0000     0.0000     0.4685     0.0000     0.0000     0.0543     0.4772     0.0000
   7810.5000 -9986.7061    -1.0051     7.3036   228.8002     0.0000    -0.0015     0.0843     0.0000     0.0487     6.2601     0.3185     0.0302     0.0061   144.2835    43.6503     0.9670     2.4190   146.5972   221.0511   156.3747     1.5376     2.5633    -0.0434     0.1339     0.2677     2.7686     1.0000     0.0000  2601.0000     0.3311     0.0000     0.0000     0.4312     0.0000     0.0000     0.0564     0.5124     0.0000
   7811.0000 -9987.7725    -1.4249     6.6287   228.8002     0.0000    -0.0015     0.0810     0.0131     0.0455     6.4692     0.3101     0.0256     0.0045   146.6993    43.6503     0.8649     2.6076   149.0517   221.0511   138.1039     4.4012     7.7715    -0.0489  -999.2500     0.0000     2.7594     1.0000     0.0000  2627.0000  -999.2500     0.0000     0.0000     0.4094     0.0000     0.0000     0.0478     0.5427     0.0000
   7811.5000 -9987.7725    -2.6837     6.4038   228.8002     0.0000    -0.0015     0.0761     0.0352     0.0425     9.9102     0.2932     0.0213     0.0028   146.9392    45.9914     0.7898     2.6199   149.2956   221.0511   152.4085    18.7193    33.8125    -0.0062  -999.2500     0.0000     2.7524     1.0000     0.0000  2617.0000  -999.2500     0.0000     0.0197     0.3827     0.0000     0.0000     0.0398     0.5578     0.0000
   7812.0000 -9988.1279     1.5139     1.6793   228.8002     0.0000    -0.0015     0.0790     0.0358     0.0433    12.4612     0.2883     0.0288     0.0025   150.8269    45.9914     0.8001     2.4638   153.2456   221.0511   157.3501    12.4344    22.6542    -0.0156  -999.2500     0.2797     2.7629     1.0000     0.0000  2558.0000  -999.2500     0.0000     0.0213     0.3969     0.0000     0.0000     0.0539     0.5279     0.0000
   7812.5000 -9986.7061     3.5789     1.8893   228.8002     0.0000    -0.0015     0.0808     0.0279     0.0446    15.0346     0.2941     0.0324     0.0028   147.4672    45.9914     0.8500     2.4965   149.8320   221.0511   149.9377    -0.1337    -0.0127     0.1022    -0.1331     0.1609     2.7682     1.0000     0.0000  2618.0000    -0.0125     0.0000     0.0000     0.4081     0.0000     0.0000     0.0606     0.5313     0.0000
   7813.0000 -9988.4834    -0.1972    -0.3621   228.8002     0.0000    -0.0027     0.0815     0.0111     0.0460    13.9918     0.3115     0.0365     0.0038   142.1956    45.9914     0.8805     2.5993   144.4759   221.0511   143.1756  -999.2500  -999.2500     0.0824    -0.1310     0.2234     2.7730     1.0000     0.0000  2646.0000    -0.0048     0.0000     0.0000     0.4124     0.0000     0.0000     0.0684     0.5193     0.0000
   7813.5000 -9988.1279     1.3219    -0.6864   228.8002     0.0000    -0.0027     0.0763     0.0172     0.0430    13.0665     0.3136     0.0183     0.0036   143.3956    44.8209     0.8317     2.5626   145.6951   221.0511   140.8348  -999.2500  -999.2500  -999.2500  -999.2500     0.2796     2.7468     1.0000     0.0000  2579.0000  -999.2500     0.0000     0.0000     0.3836     0.0000     0.0000     0.0342     0.5822     0.0000
   7814.0000 -9988.1279     2.1954    -2.7075   228.8002     0.0000    -0.0027     0.0712     0.0248     0.0412    12.4638     0.3125     0.0066     0.0035   145.7953    44.8209     0.7942     2.4843   148.1333   221.0511   153.9690  -999.2500  -999.2500  -999.2500  -999.2500     0.7479     2.7310     1.0000     0.0000  2637.0000  -999.2500     0.0000     0.0000     0.3580     0.0000     0.0000     0.0124     0.6296     0.0000
   7814.5000 -9987.0615     1.7759    -2.0348   228.8002     0.0000    -0.0027     0.0676     0.0407     0.0401    11.6480     0.2995     0.0000     0.0029   148.0991    43.6503     0.7669     2.5476   150.4741   221.0511   149.8727  -999.2500  -999.2500  -999.2500  -999.2500     0.2135     2.7239     1.0000     0.0000  2624.0000  -999.2500     0.0000     0.0345     0.3396     0.0000     0.0000     0.0000     0.6259     0.0000
