~VERSION INFORMATION
VERS.           1.2   :CWLS Log ASCII Standard - VERSION 1.2
WRAP.           NO    :One Line per depth step
PROD.  Schlumberger   :LAS Producer
PROG.  DLIS to ASCII 17C0-152                          :LAS Program name and version
CREA.        2011/12/13 23:09                          :LAS Creation date {YYYY/MM/DD hh:mm}
DLIS_CREA.  2011-Dec-13 15:28                          :DLIS Creation date and time {YYYY-MMM-DD hh:mm}
SOURCE.     1ba8f76d-360e-4325-8cd9-5cb564d153a7       :DLIS File Name
#--------------------------------------------------
~WELL INFORMATION
#MNEM.UNIT      DATA             DESCRIPTION
#---- ------ --------------   -----------------------------
STRT .F      6646.5000       :START DEPTH     
STOP .F      8231.0000       :STOP DEPTH     
STEP .F       0.5000         :STEP       
NULL .          -999.25      :NULL VALUE
COMP .                 COMPANY:  EOG Resources, Inc.                
WELL .                    WELL:  Garden Creek 32-07M                
FLD  .                   FIELD:  Wildcat                            
LOC  .                LOCATION:  Lat/ Long : 40.9343 / -104.3619    
CNTY .                  COUNTY:  Weld County                        
STAT .                   STATE:  Colorado                           
CTRY .                 COUNTRY:                                     
SRVC .         SERVICE COMPANY:  Schlumberger                       
API  .              API NUMBER:  05-123-34636-00                    
DATE .                LOG DATE:  6-Dec-2011
UWI  .          UNIQUE WELL ID:  5123346360000                      
#-----------------------------------------------------------------------------
~PARAMETER INFORMATION
#MNEM.UNIT    VALUE                      DESCRIPTION
#---- -----   --------------------       ------------------------
CN   .        EOG Resources  Inc.        :Company Name
WN   .        Garden Creek 32-07M        :Well Name
FN   .        Wildcat                    :Field Name
FL   .        Lat/ Long   40.9343 / -104.3619 :Field Location
FL1  .        SHL   1529' FSL X 2266' FEL NWSE :Field Location Line 1
COUN .        Weld County                :County or Rig Name
STAT .        Colorado                   :State or Province
NATI .                                   :Nation
DATE .        6-Dec-2011                 :Date as Month-Day-Year
APIN .        05-123-34636-00            :API Serial Number
SECT .        7                          :Section
TOWN .        11N                        :Township
RANG .        62W                        :Range
DMF  .        Kelly Bushing              :Drilling Measured From
LMF  .        Kelly Bushing              :Log Measured From
PDAT .        Ground Level               :Permanent Datum
ENGI .        Arvin Shi                  :Engineer's Name
WITN .        Danny Cook                 :Witness's Name
LATI .                                   :Latitude
LONG .                                   :Longitude
LUL  .        Fort Morgan                :Logging Unit Location
LUN  .              7006                 :Logging Unit Number
RUN  .        Two                        :Run Number
SON  .        BOAA-00063                 :Service Order Number
BHT  .DEGF     211.99986                 :Bottom Hole Temperature (used in calculations)
BS   .IN         7.87500                 :Bit Size
DFD  .LB/G       9.70000                 :Drilling Fluid Density
DFV  .S         39.00000                 :Drilling Fluid Viscosity
DFL  .                                   :Drilling Fluid Loss
RMFS .OHMM       0.47250                 :Resistivity of Mud Filtrate Sample
EKB  .F       5290.00000                 :Elevation of Kelly Bushing
EGL  .F       5265.00000                 :Elevation of Ground Level
BLI  .F       8212.00000                 :Bottom Log Interval
BSAL .PPM     1000.00000                 :Borehole Salinity
FLEV .                                   :Fluid Level
MCST .DEGF      86.60000                 :Mud Cake Sample Temperature
MFST .DEGF      86.60000                 :Mud Filtrate Sample Temperature
MRT  .DEGF     216.00000                 :Maximum Recorded Temperature
MST  .DEGF      86.60000                 :Mud Sample Temperature
RMCS .OHMM       0.78750                 :Resistivity of Mud Cake Sample
RMS  .OHMM       0.63000                 :Resistivity of Mud Sample
RW   .OHMM       1.00000                 :Resistivity of Connate Water
TDD  .F       8200.00000                 :Total Depth - Driller
TDL  .F       8212.00000                 :Total Depth - Logger
TLI  .F       1340.00000                 :Top Log Interval
HIDE .        Platform Express           :Header Identifier
MATR .        LIME                       :Rock Matrix for Neutron Porosity Corrections
FNUM .           1.00000                 :Form Factor Numerator
FEXP .           2.00000                 :Form Factor Exponent
DFT  .        Water Based Mud            :Drilling Fluid Type
DFPH .           8.00000                 :Drilling Fluid PH
MCSS .        Calculated                 :Mud Cake Sample Source
MFSS .        Calculated                 :Mud Filtrate Sample Source
MSS  .        Mud Flow                   :Mud Sample Source
OS1  .        HNGS                       :Other Services Line 1
OS2  .        MSIP                       :Other Services Line 2
OS3  .        FMI                        :Other Services Line 3
OS4  .        PEX                        :Other Services Line 4
OS5  .                                   :Other Services Line 5
R1   .        This is the first run in hole :Remark Line 1
R2   .                                   :Remark Line 2
R3   .        Toolstring run as per tool sketch :Remark Line 3
R4   .                                   :Remark Line 4
R5   .        Matrix  Limestone (2.71 g/cc) :Remark Line 5
R6   .                                   :Remark Line 6
R7   .        Main log and repeat log correlated to correlation log around 7000-8000 ft :Remark Line 7
R8   .                                   :Remark Line 8
TCS  .        17 30                      :Time Circulation Stopped
TLAB .        11 30                      :Time Logger At Bottom
NMT  .        NOBARITE                   :HILT Nuclear Mud Type
EPD  .F         5265.000000              :Elevation of Permanent Datum above Mean Sea Level
APD  .F          25.000000               :Elevation of Depth Reference (LMF) above Permanent Datum
#-----------------------------------------------------------------------------
~CURVE INFORMATION
#MNEM.UNIT   API CODE                                  DESCRIPTION
#---- -----  --------                                  -----------------------
DEPT .F                                                :DEPTH (BOREHOLE) {F12.4}
CDF  .LBF                                              :Calibrated Downhole Force {F11.4}
CFTC .HZ                                               :Corrected Far Thermal Counting Rate {F11.4}
CNTC .HZ                                               :Corrected Near Thermal Counting Rate {F11.4}
CTEM .DEGF                                             :Cartridge Temperature {F11.4}
DCAL .IN                                               :Differential Caliper {F11.4}
DNPH .CFCF                                             :Delta Thermal Neutron Porosity {F11.4}
DWAL_WALK2.                                            :Dry Weight Fraction Pseudo Aluminum (SpectroLith WALK2 Model) {F11.4}
DWCA_WALK2.                                            :Dry Weight Fraction Calcium (SpectroLith WALK2 Model) {F11.4}
DWFE_WALK2.                                            :Dry Weight Fraction Iron + 0.14 Aluminum (SpectroLith WALK2 Model) {F11.4}
DWGD_WALK2.PPM                                         :Dry Weight Fraction Gadolinium (SpectroLith WALK2 Model) {F11.4}
DWSI_WALK2.                                            :Dry Weight Fraction Silicon (SpectroLith WALK2 Model) {F11.4}
DWSU_WALK2.                                            :Dry Weight Fraction Sulfur (SpectroLith WALK2 Model) {F11.4}
DWTI_WALK2.                                            :Dry Weight Fraction Titanium (SpectroLith WALK2 Model) {F11.4}
ECGR .GAPI                                             :Environmentally Corrected Gamma-Ray {F11.4}
ECST .DEGF                                             :ECS Temperature {F11.4}
ESUF_WALK2.                                            :Elemental Statistical Uncertainty Factor (SpectroLith WALK2 Model) {F11.4}
GDEV .DEG                                              :HGNS Deviation {F11.4}
GR   .GAPI                                             :Gamma-Ray {F11.4}
GTEM .DEGF                                             :Generalized Borehole Temperature {F11.4}
HGR  .GAPI                                             :HiRes Gamma-Ray {F11.4}
HNPO .CFCF                                             :HiRes Enhanced Thermal Neutron Porosity {F11.4}
HTNP .CFCF                                             :HiRes Thermal Neutron Porosity {F11.4}
NPHI .CFCF                                             :Thermal Neutron Porosity (Ratio Method) {F11.4}
NPOR .CFCF                                             :Enhanced Thermal Neutron Porosity {F11.4}
QCPMT.                                                 :Photomultiplier Tube Quality Control {F11.4}
RHGE_WALK2.G/C3                                        :Matrix Density from Elemental Concentrations (SpectroLith WALK2 Model) {F11.4}
RWA  .OHMM                                             :Apparent Water Resistivity {F11.4}
STIT .F                                                :Stuck Tool Indicator, Total {F11.4}
TENS .LBF                                              :Cable Tension {F11.4}
TNPH .CFCF                                             :Thermal Neutron Porosity {F11.4}
WANH_WALK2.                                            :Dry Weight Fraction Anhydrite/Gypsum (SpectroLith WALK2 Model) {F11.4}
WCAR_WALK2.                                            :Dry Weight Fraction Carbonate (SpectroLith WALK2 Model) {F11.4}
WCLA_WALK2.                                            :Dry Weight Fraction Clay (SpectroLith WALK2 Model) {F11.4}
WCOA_WALK2.                                            :Dry Weight Fraction Coal (SpectroLith WALK2 Model) {F11.4}
WEVA_WALK2.                                            :Dry Weight Fraction Salt (SpectroLith WALK2 Model) {F11.4}
WPYR_WALK2.                                            :Dry Weight Fraction Pyrite (SpectroLith WALK2 Model) {F11.4}
WQFM_WALK2.                                            :Dry Weight Fraction Quartz+Feldspar+Mica (QFM) (SpectroLith WALK2 Model) {F11.4}
WSID_WALK2.                                            :Dry Weight Fraction Siderite (SpectroLith WALK2 Model) {F11.4}
#-----------------------------------------------------------------------------
# 
#      DEPT        CDF        CFTC       CNTC       CTEM       DCAL       DNPH    DWAL_WALK2 DWCA_WALK2 DWFE_WALK2 DWGD_WALK2 DWSI_WALK2 DWSU_WALK2 DWTI_WALK2    ECGR       ECST    ESUF_WALK2    GDEV        GR        GTEM       HGR        HNPO       HTNP       NPHI       NPOR      QCPMT    RHGE_WALK2    RWA        STIT       TENS       TNPH    WANH_WALK2 WCAR_WALK2 WCLA_WALK2 WCOA_WALK2 WEVA_WALK2 WPYR_WALK2 WQFM_WALK2 WSID_WALK2
#
~A  
# ...
   7701.0000 -9987.7725    -2.4486    -3.1511   230.7767     0.0000    -2.1118     0.0488     0.1828     0.0279     4.8173     0.1682     0.0097     0.0015   126.5251    43.6503     0.5468     2.5424   128.5541   220.0445   125.6200  -999.2500  -999.2500  -999.2500  -999.2500     0.0000     2.7369     1.0000     0.0000  2551.0000  -999.2500     0.0000     0.4168     0.2451     0.0000     0.0000     0.0181     0.3200     0.0000
   7701.5000 -9987.0615    -2.6874    -2.7042   230.7767     0.0000    -2.1118     0.0488     0.1944     0.0283     3.8919     0.1541     0.0067     0.0014   126.0451    44.2356     0.5217     2.6003   128.0664   220.0445   131.9920  -999.2500  -999.2500  -999.2500  -999.2500     0.3730     2.7362     1.0000     0.0000  2523.0000  -999.2500     0.0000     0.4480     0.2453     0.0000     0.0000     0.0125     0.2942     0.0000
   7702.0000 -9988.4834    -6.4591    -1.8353   230.7767     0.0000    -2.1118     0.0504     0.2106     0.0289     2.5122     0.1328     0.0093     0.0016   126.1091    44.8209     0.5034     2.6147   128.1314   220.0445   125.6850  -999.2500  -999.2500  -999.2500  -999.2500     0.5379     2.7430     1.0000     0.0000  2533.0000  -999.2500     0.0000     0.4914     0.2534     0.0000     0.0000     0.0173     0.2379     0.0000
   7702.5000 -9988.4834    -8.7409    -1.0529   230.7767     0.0000    -2.1118     0.0488     0.2200     0.0276     1.6515     0.1249     0.0126     0.0013   124.7813    44.8209     0.5156     2.5353   126.7822   220.0445   125.7500  -999.2500  -999.2500  -999.2500  -999.2500     0.2584     2.7462     1.0000     0.0000  2558.0000  -999.2500     0.0000     0.5168     0.2455     0.0000     0.0000     0.0236     0.2140     0.0000
   7703.0000 -9988.8389    -3.2866     0.0713   230.7767     0.0000    -2.1118     0.0437     0.2354     0.0250     3.8108     0.1156     0.0100     0.0008   122.3815    44.8209     0.5231     2.5889   124.3440   220.0445   128.3508  -999.2500  -999.2500     0.0093  -999.2500     0.0704     2.7410     1.0000     0.0000  2547.0000  -999.2500     0.0000     0.5583     0.2199     0.0000     0.0000     0.0188     0.2030     0.0000
   7703.5000 -9987.7725    -2.0275     1.4211   230.7767     0.0000    -2.1118     0.0416     0.2363     0.0240     6.0716     0.1182     0.0092     0.0002   116.5020    44.8209     0.5264     2.6476   118.3702   220.0445   117.8175  -999.2500  -999.2500     0.0066  -999.2500     0.4082     2.7384     1.0000     0.0000  2538.0000  -999.2500     0.0000     0.5606     0.2090     0.0000     0.0000     0.0172     0.2132     0.0000
   7704.0000 -9988.4834     0.2543     1.4241   230.7767     0.0000    -2.1118     0.0448     0.2293     0.0262     7.6137     0.1203     0.0080     0.0001   119.8697    44.8209     0.5335     2.7876   121.7919   220.0445   107.4792     1.2720     4.9946    -0.0429  -999.2500     0.4081     2.7398     1.0000     0.0000  2562.0000  -999.2500     0.0000     0.5417     0.2252     0.0000     0.0000     0.0149     0.2181     0.0000
   7704.5000 -9987.7725     0.2543     3.2206   230.7767     0.0000    -2.1118     0.0512     0.2133     0.0292     7.7551     0.1283     0.0134     0.0005   142.4357    44.8209     0.5460     2.7618   144.7198   220.0445   138.6241    17.7279    32.5242    -0.0432    28.4284     0.1500     2.7490     1.0000     0.0000  2561.0000    28.7518     0.0000     0.4988     0.2572     0.0000     0.0000     0.0250     0.2189     0.0000
   7705.0000 -9988.4834    -1.8441     3.2548   230.7767     0.0000    -0.0017     0.0532     0.2095     0.0295     6.2206     0.1300     0.0191     0.0009   158.2343    44.8209     0.5701     2.7578   160.7718   220.0445   187.6497  -999.2500  -999.2500    -0.0476    26.3903     0.0000     2.7557     1.0000     0.0000  2529.0000    26.6980     0.0000     0.4884     0.2676     0.0000     0.0000     0.0357     0.2082     0.0000
   7705.5000 -9987.7725    -6.0454     5.5036   230.7767     0.0000    -0.0017     0.0507     0.2147     0.0272     3.9785     0.1293     0.0239     0.0011   153.7947    44.8209     0.5671     2.6546   156.2610   220.0445   156.0496  -999.2500  -999.2500    -0.0276  -999.2500     0.1111     2.7579     1.0000     0.0000  2570.0000  -999.2500     0.0000     0.5024     0.2547     0.0000     0.0000     0.0448     0.1981     0.0000
   7706.0000 -9989.1953   -11.9151     3.4790   230.7767     0.0000    -0.0017     0.0475     0.2186     0.0248     1.0766     0.1309     0.0265     0.0013   131.5247    44.8209     0.5538     2.7871   133.6338   220.0445   126.0101  -999.2500  -999.2500    -0.0376  -999.2500     0.5049     2.7572     1.0000     0.0000  2543.0000  -999.2500     0.0000     0.5129     0.2385     0.0000     0.0000     0.0496     0.1989     0.0000
   7706.5000 -9987.7725    -2.6881     2.8014   230.7767     0.0000    -0.0017     0.0426     0.2154     0.0227     1.3843     0.1425     0.0203     0.0012   118.6058    44.8209     0.5256     2.8328   120.5078   220.0445   119.7681  -999.2500  -999.2500    -0.0454  -999.2500     0.5400     2.7455     1.0000     0.0000  2548.0000  -999.2500     0.0000     0.5044     0.2141     0.0000     0.0000     0.0380     0.2435     0.0000
   7707.0000 -9987.0615     3.1924     3.0296   230.7767     0.0000    -0.0017     0.0393     0.2078     0.0217     3.8771     0.1563     0.0121     0.0016   123.9013    44.8209     0.5190     2.8493   125.8882   220.0445   116.7122    -0.0385     0.0357    -0.0510  -999.2500     0.1708     2.7326     1.0000     0.0000  2558.0000  -999.2500     0.0000     0.4840     0.1976     0.0000     0.0000     0.0226     0.2958     0.0000
   7707.5000 -9986.7061     4.8663     2.8016   230.7767     0.0000    -0.0017     0.0363     0.2023     0.0210     6.7655     0.1672     0.0028     0.0020   125.5252    45.4062     0.5398     2.8800   127.5381   220.0445   141.2249    -0.0465     0.0295    -0.0475  -999.2500     0.3471     2.7193     1.0000     0.0000  2496.0000  -999.2500     0.0000     0.4692     0.1822     0.0000     0.0000     0.0052     0.3434     0.0000
   7708.0000 -9987.7725    -3.5213     3.2555   230.7767     0.0000    -0.0017     0.0379     0.1935     0.0220     6.6497     0.1746     0.0000     0.0030   123.3654    45.9914     0.5698     2.8194   125.3437   220.0445   125.4900  -999.2500  -999.2500    -0.0326  -999.2500     0.3321     2.7163     1.0000     0.0000  2550.0000  -999.2500     0.0000     0.4455     0.1903     0.0000     0.0000     0.0000     0.3642     0.0000
   7708.5000 -9987.4170    -9.8213     4.3776   230.7767     0.0000    -0.0017     0.0407     0.1870     0.0234     4.9210     0.1773     0.0005     0.0035   115.8140    45.4062     0.5771     2.8463   117.6712   220.0445   110.6652  -999.2500  -999.2500    -0.0268  -999.2500     0.3840     2.7186     1.0000     0.0000  2580.0000  -999.2500     0.0000     0.4282     0.2046     0.0000     0.0000     0.0010     0.3663     0.0000
   7709.0000 -9987.7725   -10.2361     3.7054   230.7767     0.0000    -0.0017     0.0419     0.1877     0.0235     2.4798     0.1749     0.0062     0.0032   103.9351    44.8209     0.5507     2.7788   105.6018   220.0445   118.2076  -999.2500  -999.2500    -0.0048  -999.2500     0.4634     2.7256     1.0000     0.0000  2569.0000  -999.2500     0.0000     0.4300     0.2107     0.0000     0.0000     0.0117     0.3476     0.0000
   7709.5000 -9985.9951    -5.6252     1.9031   230.7767     0.0000    -0.0017     0.0399     0.1959     0.0218     3.1287     0.1695     0.0106     0.0027   103.6551    45.9914     0.5435     2.7834   105.3173   220.0445    87.7130    -0.1583    -0.0574    -0.0073  -999.2500     0.5569     2.7290     1.0000     0.0000  2556.0000  -999.2500     0.0000     0.4518     0.2004     0.0000     0.0000     0.0198     0.3279     0.0000
   7710.0000 -9987.7725     0.6748     1.9062   230.7767     0.0000    -0.0017     0.0380     0.2017     0.0204     2.6137     0.1663     0.0138     0.0023   103.3911    47.1620     0.5451     2.8263   105.0491   220.0445   109.2348    -0.1076     0.0509    -0.0322  -999.2500     0.2859     2.7311     1.0000     0.0000  2563.0000  -999.2500     0.0000     0.4676     0.1912     0.0000     0.0000     0.0258     0.3155     0.0000
