~VERSION INFORMATION
VERS.           1.2   :CWLS Log ASCII Standard - VERSION 1.2
WRAP.           NO    :One Line per depth step
PROD.  Schlumberger   :LAS Producer
PROG.  DLIS to ASCII 17C0-152                          :LAS Program name and version
CREA.        2011/12/13 23:09                          :LAS Creation date {YYYY/MM/DD hh:mm}
DLIS_CREA.  2011-Dec-13 15:28                          :DLIS Creation date and time {YYYY-MMM-DD hh:mm}
SOURCE.     1ba8f76d-360e-4325-8cd9-5cb564d153a7       :DLIS File Name
#--------------------------------------------------
~WELL INFORMATION
#MNEM.UNIT      DATA             DESCRIPTION
#---- ------ --------------   -----------------------------
STRT .F      6646.5000       :START DEPTH     
STOP .F      8231.0000       :STOP DEPTH     
STEP .F       0.5000         :STEP       
NULL .          -999.25      :NULL VALUE
COMP .                 COMPANY:  EOG Resources, Inc.                
WELL .                    WELL:  Garden Creek 32-07M                
FLD  .                   FIELD:  Wildcat                            
LOC  .                LOCATION:  Lat/ Long : 40.9343 / -104.3619    
CNTY .                  COUNTY:  Weld County                        
STAT .                   STATE:  Colorado                           
CTRY .                 COUNTRY:                                     
SRVC .         SERVICE COMPANY:  Schlumberger                       
API  .              API NUMBER:  05-123-34636-00                    
DATE .                LOG DATE:  6-Dec-2011
UWI  .          UNIQUE WELL ID:  5123346360000                      
#-----------------------------------------------------------------------------
~PARAMETER INFORMATION
#MNEM.UNIT    VALUE                      DESCRIPTION
#---- -----   --------------------       ------------------------
CN   .        EOG Resources  Inc.        :Company Name
WN   .        Garden Creek 32-07M        :Well Name
FN   .        Wildcat                    :Field Name
FL   .        Lat/ Long   40.9343 / -104.3619 :Field Location
FL1  .        SHL   1529' FSL X 2266' FEL NWSE :Field Location Line 1
COUN .        Weld County                :County or Rig Name
STAT .        Colorado                   :State or Province
NATI .                                   :Nation
DATE .        6-Dec-2011                 :Date as Month-Day-Year
APIN .        05-123-34636-00            :API Serial Number
SECT .        7                          :Section
TOWN .        11N                        :Township
RANG .        62W                        :Range
DMF  .        Kelly Bushing              :Drilling Measured From
LMF  .        Kelly Bushing              :Log Measured From
PDAT .        Ground Level               :Permanent Datum
ENGI .        Arvin Shi                  :Engineer's Name
WITN .        Danny Cook                 :Witness's Name
LATI .                                   :Latitude
LONG .                                   :Longitude
LUL  .        Fort Morgan                :Logging Unit Location
LUN  .              7006                 :Logging Unit Number
RUN  .        Two                        :Run Number
SON  .        BOAA-00063                 :Service Order Number
BHT  .DEGF     211.99986                 :Bottom Hole Temperature (used in calculations)
BS   .IN         7.87500                 :Bit Size
DFD  .LB/G       9.70000                 :Drilling Fluid Density
DFV  .S         39.00000                 :Drilling Fluid Viscosity
DFL  .                                   :Drilling Fluid Loss
RMFS .OHMM       0.47250                 :Resistivity of Mud Filtrate Sample
EKB  .F       5290.00000                 :Elevation of Kelly Bushing
EGL  .F       5265.00000                 :Elevation of Ground Level
BLI  .F       8212.00000                 :Bottom Log Interval
BSAL .PPM     1000.00000                 :Borehole Salinity
FLEV .                                   :Fluid Level
MCST .DEGF      86.60000                 :Mud Cake Sample Temperature
MFST .DEGF      86.60000                 :Mud Filtrate Sample Temperature
MRT  .DEGF     216.00000                 :Maximum Recorded Temperature
MST  .DEGF      86.60000                 :Mud Sample Temperature
RMCS .OHMM       0.78750                 :Resistivity of Mud Cake Sample
RMS  .OHMM       0.63000                 :Resistivity of Mud Sample
RW   .OHMM       1.00000                 :Resistivity of Connate Water
TDD  .F       8200.00000                 :Total Depth - Driller
TDL  .F       8212.00000                 :Total Depth - Logger
TLI  .F       1340.00000                 :Top Log Interval
HIDE .        Platform Express           :Header Identifier
MATR .        LIME                       :Rock Matrix for Neutron Porosity Corrections
FNUM .           1.00000                 :Form Factor Numerator
FEXP .           2.00000                 :Form Factor Exponent
DFT  .        Water Based Mud            :Drilling Fluid Type
DFPH .           8.00000                 :Drilling Fluid PH
MCSS .        Calculated                 :Mud Cake Sample Source
MFSS .        Calculated                 :Mud Filtrate Sample Source
MSS  .        Mud Flow                   :Mud Sample Source
OS1  .        HNGS                       :Other Services Line 1
OS2  .        MSIP                       :Other Services Line 2
OS3  .        FMI                        :Other Services Line 3
OS4  .        PEX                        :Other Services Line 4
OS5  .                                   :Other Services Line 5
R1   .        This is the first run in hole :Remark Line 1
R2   .                                   :Remark Line 2
R3   .        Toolstring run as per tool sketch :Remark Line 3
R4   .                                   :Remark Line 4
R5   .        Matrix  Limestone (2.71 g/cc) :Remark Line 5
R6   .                                   :Remark Line 6
R7   .        Main log and repeat log correlated to correlation log around 7000-8000 ft :Remark Line 7
R8   .                                   :Remark Line 8
TCS  .        17 30                      :Time Circulation Stopped
TLAB .        11 30                      :Time Logger At Bottom
NMT  .        NOBARITE                   :HILT Nuclear Mud Type
EPD  .F         5265.000000              :Elevation of Permanent Datum above Mean Sea Level
APD  .F          25.000000               :Elevation of Depth Reference (LMF) above Permanent Datum
#-----------------------------------------------------------------------------
~CURVE INFORMATION
#MNEM.UNIT   API CODE                                  DESCRIPTION
#---- -----  --------                                  -----------------------
DEPT .F                                                :DEPTH (BOREHOLE) {F12.4}
CDF  .LBF                                              :Calibrated Downhole Force {F11.4}
CFTC .HZ                                               :Corrected Far Thermal Counting Rate {F11.4}
CNTC .HZ                                               :Corrected Near Thermal Counting Rate {F11.4}
CTEM .DEGF                                             :Cartridge Temperature {F11.4}
DCAL .IN                                               :Differential Caliper {F11.4}
DNPH .CFCF                                             :Delta Thermal Neutron Porosity {F11.4}
DWAL_WALK2.                                            :Dry Weight Fraction Pseudo Aluminum (SpectroLith WALK2 Model) {F11.4}
DWCA_WALK2.                                            :Dry Weight Fraction Calcium (SpectroLith WALK2 Model) {F11.4}
DWFE_WALK2.                                            :Dry Weight Fraction Iron + 0.14 Aluminum (SpectroLith WALK2 Model) {F11.4}
DWGD_WALK2.PPM                                         :Dry Weight Fraction Gadolinium (SpectroLith WALK2 Model) {F11.4}
DWSI_WALK2.                                            :Dry Weight Fraction Silicon (SpectroLith WALK2 Model) {F11.4}
DWSU_WALK2.                                            :Dry Weight Fraction Sulfur (SpectroLith WALK2 Model) {F11.4}
DWTI_WALK2.                                            :Dry Weight Fraction Titanium (SpectroLith WALK2 Model) {F11.4}
ECGR .GAPI                                             :Environmentally Corrected Gamma-Ray {F11.4}
ECST .DEGF                                             :ECS Temperature {F11.4}
ESUF_WALK2.                                            :Elemental Statistical Uncertainty Factor (SpectroLith WALK2 Model) {F11.4}
GDEV .DEG                                              :HGNS Deviation {F11.4}
GR   .GAPI                                             :Gamma-Ray {F11.4}
GTEM .DEGF                                             :Generalized Borehole Temperature {F11.4}
HGR  .GAPI                                             :HiRes Gamma-Ray {F11.4}
HNPO .CFCF                                             :HiRes Enhanced Thermal Neutron Porosity {F11.4}
HTNP .CFCF                                             :HiRes Thermal Neutron Porosity {F11.4}
NPHI .CFCF                                             :Thermal Neutron Porosity (Ratio Method) {F11.4}
NPOR .CFCF                                             :Enhanced Thermal Neutron Porosity {F11.4}
QCPMT.                                                 :Photomultiplier Tube Quality Control {F11.4}
RHGE_WALK2.G/C3                                        :Matrix Density from Elemental Concentrations (SpectroLith WALK2 Model) {F11.4}
RWA  .OHMM                                             :Apparent Water Resistivity {F11.4}
STIT .F                                                :Stuck Tool Indicator, Total {F11.4}
TENS .LBF                                              :Cable Tension {F11.4}
TNPH .CFCF                                             :Thermal Neutron Porosity {F11.4}
WANH_WALK2.                                            :Dry Weight Fraction Anhydrite/Gypsum (SpectroLith WALK2 Model) {F11.4}
WCAR_WALK2.                                            :Dry Weight Fraction Carbonate (SpectroLith WALK2 Model) {F11.4}
WCLA_WALK2.                                            :Dry Weight Fraction Clay (SpectroLith WALK2 Model) {F11.4}
WCOA_WALK2.                                            :Dry Weight Fraction Coal (SpectroLith WALK2 Model) {F11.4}
WEVA_WALK2.                                            :Dry Weight Fraction Salt (SpectroLith WALK2 Model) {F11.4}
WPYR_WALK2.                                            :Dry Weight Fraction Pyrite (SpectroLith WALK2 Model) {F11.4}
WQFM_WALK2.                                            :Dry Weight Fraction Quartz+Feldspar+Mica (QFM) (SpectroLith WALK2 Model) {F11.4}
WSID_WALK2.                                            :Dry Weight Fraction Siderite (SpectroLith WALK2 Model) {F11.4}
#-----------------------------------------------------------------------------
# 
#      DEPT        CDF        CFTC       CNTC       CTEM       DCAL       DNPH    DWAL_WALK2 DWCA_WALK2 DWFE_WALK2 DWGD_WALK2 DWSI_WALK2 DWSU_WALK2 DWTI_WALK2    ECGR       ECST    ESUF_WALK2    GDEV        GR        GTEM       HGR        HNPO       HTNP       NPHI       NPOR      QCPMT    RHGE_WALK2    RWA        STIT       TENS       TNPH    WANH_WALK2 WCAR_WALK2 WCLA_WALK2 WCOA_WALK2 WEVA_WALK2 WPYR_WALK2 WQFM_WALK2 WSID_WALK2
#
~A  
# ...
   7273.5000 -9984.5732    -1.0659     1.1644   224.8472     0.0000    -0.0025     0.0519     0.1725     0.0272     3.7512     0.1771     0.0261     0.0023   107.6388    45.9914     0.6477     2.9305   109.3650   212.9982   108.4548  -999.2500  -999.2500    -0.0121  -999.2500     0.3331     2.7532     1.0000     0.0000  2465.0000  -999.2500     0.0000     0.3889     0.2607     0.0000     0.0000     0.0489     0.3015     0.0000
   7274.0000 -9984.5732    -2.7448     0.8446   224.8472     0.0000    -0.0025     0.0471     0.1687     0.0261     4.8431     0.1883     0.0140     0.0018   113.7823    45.9914     0.6467     2.7784   115.6069   212.9982   110.7956  -999.2500  -999.2500     0.1869  -999.2500     0.2423     2.7364     1.0000     0.0000  2480.0000  -999.2500     0.0000     0.3788     0.2367     0.0000     0.0000     0.0262     0.3582     0.0000
   7274.5000 -9984.5732     2.6514     4.4600   224.8472     0.0000    -0.0025     0.0493     0.1493     0.0277     4.1851     0.2069     0.0109     0.0022   119.1578    45.9914     0.6371     2.5286   121.0687   212.9982   127.5709  -999.2500  -999.2500     0.1234  -999.2500     0.4275     2.7324     1.0000     0.0000  2448.0000  -999.2500     0.0000     0.3265     0.2476     0.0000     0.0000     0.0205     0.4054     0.0000
   7275.0000 -9982.7959    -1.9917     4.9100   224.8472     0.0000    -0.0025     0.0516     0.1434     0.0294     3.5971     0.2093     0.0093     0.0022   125.0453    48.3325     0.6589     2.6284   127.0506   212.9982   124.8400    26.7456    82.3096     0.0721  -999.2500     0.6852     2.7325     1.0000     0.0000  2459.0000  -999.2500     0.0000     0.3106     0.2594     0.0000     0.0000     0.0173     0.4126     0.0000
   7275.5000 -9983.1514     2.6514     5.1510   224.8472     0.0000    -0.0025     0.0549     0.1429     0.0308     3.2206     0.2045     0.0134     0.0021   119.0299    48.3325     0.6599     2.9257   120.9386   212.9982   128.7413    -0.0793     0.2019    -0.0266    -0.0604     0.3131     2.7399     1.0000     0.0000  2478.0000     0.2178     0.0000     0.3094     0.2758     0.0000     0.0000     0.0251     0.3898     0.0000
   7276.0000 -9984.5732    -4.5431     4.1872   224.8472     0.0000    -0.0023     0.0537     0.1608     0.0303     3.3439     0.1855     0.0124     0.0018   119.1578    45.9914     0.6537     2.7897   121.0687   212.9982   109.2351  -999.2500  -999.2500    -0.0215    -0.0589     0.5846     2.7410     1.0000     0.0000  2519.0000     0.2044     0.0000     0.3576     0.2697     0.0000     0.0000     0.0233     0.3494     0.0000
   7276.5000 -9982.7959    -2.4497     4.8595   224.8472     0.0000    -0.0023     0.0497     0.1875     0.0285     4.3261     0.1610     0.0103     0.0012   114.8062    45.9914     0.6064     2.6423   116.6473   212.9982   125.2301  -999.2500  -999.2500    -0.0111  -999.2500     0.3556     2.7395     1.0000     0.0000  2501.0000  -999.2500     0.0000     0.4293     0.2500     0.0000     0.0000     0.0192     0.3015     0.0000
   7277.0000 -9982.7959    -6.9411     0.0419   224.8472     0.0000    -0.0023     0.0434     0.2152     0.0248     3.8239     0.1398     0.0098     0.0007   117.1100    45.9914     0.5615     2.6754   118.9880   212.9982   115.4771  -999.2500  -999.2500    -0.0272  -999.2500     0.2715     2.7370     1.0000     0.0000  2485.0000  -999.2500     0.0000     0.5040     0.2179     0.0000     0.0000     0.0183     0.2598     0.0000
   7277.5000 -9983.1514    -6.0419     1.4378   224.8472     0.0000    -0.0023     0.0356     0.2323     0.0202     4.4698     0.1336     0.0105     0.0003   107.8948    45.9914     0.5720     2.8052   109.6250   212.9982   116.2573  -999.2500  -999.2500    -0.0318  -999.2500     0.2011     2.7322     1.0000     0.0000  2474.0000  -999.2500     0.0000     0.5500     0.1791     0.0000     0.0000     0.0196     0.2512     0.0000
   7278.0000 -9983.1514    -3.5245     1.0029   224.8472     0.0000    -0.0023     0.0278     0.2390     0.0156     3.2817     0.1398     0.0087     0.0004   104.6951    44.8209     0.5971     2.8145   106.3740   213.2499    97.1412  -999.2500  -999.2500    -0.0306  -999.2500     0.0211     2.7227     1.0000     0.0000  2502.0000  -999.2500     0.0000     0.5679     0.1397     0.0000     0.0000     0.0163     0.2761     0.0000
   7278.5000 -9983.1514    -3.0747     1.4874   224.8472     0.0000    -0.0023     0.0263     0.2306     0.0144     3.5392     0.1525     0.0086     0.0011   103.7992    44.8209     0.6467     2.7206   105.4637   213.5015   105.7240  -999.2500  -999.2500    -0.0179  -999.2500     0.1633     2.7189     1.0000     0.0000  2509.0000  -999.2500     0.0000     0.5454     0.1320     0.0000     0.0000     0.0161     0.3065     0.0000
   7279.0000 -9984.5732    -3.5243     1.3758   224.8472     0.0000    -0.0023     0.0301     0.2167     0.0166     3.0800     0.1621     0.0082     0.0016   108.7907    45.4062     0.6822     2.7094   110.5353   213.5015   113.5264  -999.2500  -999.2500    -0.0194  -999.2500     0.0000     2.7201     1.0000     0.0000  2456.0000  -999.2500     0.0000     0.5078     0.1514     0.0000     0.0000     0.0153     0.3255     0.0000
   7279.5000 -9982.4404    -6.4612     2.6090   224.8472     0.0000    -0.0023     0.0399     0.2019     0.0220     5.8157     0.1622     0.0108     0.0023   112.5024    45.9914     0.6830     2.7166   114.3065   213.5015   112.3561  -999.2500  -999.2500    -0.0221  -999.2500     0.0014     2.7306     1.0000     0.0000  2429.0000  -999.2500     0.0000     0.4682     0.2007     0.0000     0.0000     0.0202     0.3109     0.0000
   7280.0000 -9984.5732    -5.1174     0.6811   224.8472     0.0000    -0.0023     0.0448     0.1979     0.0251     7.7417     0.1581     0.0096     0.0025   108.5348    45.9914     0.6236     2.6546   110.2752   213.5015   117.0375  -999.2500  -999.2500    -0.0239  -999.2500     0.0566     2.7342     1.0000     0.0000  2489.0000  -999.2500     0.0000     0.4572     0.2253     0.0000     0.0000     0.0179     0.2996     0.0000
   7280.5000 -9983.8623    -6.4615    -0.0861   224.8472     0.0000    -0.0023     0.0479     0.2007     0.0270     8.5758     0.1492     0.0087     0.0028   109.0467    45.9914     0.6157     2.7162   110.7954   213.5015   101.4326  -999.2500  -999.2500    -0.0290  -999.2500     0.1475     2.7371     1.0000     0.0000  2493.0000  -999.2500     0.0000     0.4650     0.2408     0.0000     0.0000     0.0164     0.2779     0.0000
   7281.0000 -9983.8623    -4.8411     2.3211   224.8472     0.0000    -0.0023     0.0420     0.2061     0.0239     7.8388     0.1530     0.0060     0.0024    99.7035    45.9914     0.6272     2.7891   101.3024   213.5015   113.9166  -999.2500  -999.2500    -0.0340  -999.2500     0.0224     2.7292     1.0000     0.0000  2466.0000  -999.2500     0.0000     0.4794     0.2113     0.0000     0.0000     0.0113     0.2980     0.0000
   7281.5000 -9983.8623    -5.5322     3.3320   224.8472     0.0000    -0.0023     0.0358     0.2133     0.0204     6.2638     0.1555     0.0055     0.0018    95.3519    45.9914     0.6554     2.7094    96.8810   213.5015    88.5585  -999.2500  -999.2500    -0.0271  -999.2500     0.5930     2.7233     1.0000     0.0000  2462.0000  -999.2500     0.0000     0.4988     0.1799     0.0000     0.0000     0.0103     0.3111     0.0000
   7282.0000 -9984.5732    -1.0339     2.3400   224.8472     0.0000    -0.0023     0.0306     0.2132     0.0171     6.5381     0.1651     0.0077     0.0014    88.5685    45.9914     0.6530     2.8316    89.9888   213.5015    88.1684     0.0336     3.8638    -0.0933  -999.2500     0.3181     2.7198     1.0000     0.0000  2466.0000  -999.2500     0.0000     0.4984     0.1540     0.0000     0.0000     0.0144     0.3332     0.0000
   7282.5000 -9983.8623     2.3809     1.9696   224.8472     0.0000    -0.0023     0.0335     0.2139     0.0181     6.6251     0.1598     0.0134     0.0014    90.2324    45.9914     0.6217     2.6687    91.6793   213.5015    93.2400    -0.0235     0.0316     3.0745    -0.0394     0.2397     2.7284     1.0000     0.0000  2484.0000     0.0300     0.0000     0.5004     0.1683     0.0000     0.0000     0.0250     0.3063     0.0000
