~VERSION INFORMATION
VERS.           1.2   :CWLS Log ASCII Standard - VERSION 1.2
WRAP.           NO    :One Line per depth step
PROD.  Schlumberger   :LAS Producer
PROG.  DLIS to ASCII 17C0-152                          :LAS Program name and version
CREA.        2011/12/13 23:09                          :LAS Creation date {YYYY/MM/DD hh:mm}
DLIS_CREA.  2011-Dec-13 15:28                          :DLIS Creation date and time {YYYY-MMM-DD hh:mm}
SOURCE.     1ba8f76d-360e-4325-8cd9-5cb564d153a7       :DLIS File Name
#--------------------------------------------------
~WELL INFORMATION
#MNEM.UNIT      DATA             DESCRIPTION
#---- ------ --------------   -----------------------------
STRT .F      6646.5000       :START DEPTH     
STOP .F      8231.0000       :STOP DEPTH     
STEP .F       0.5000         :STEP       
NULL .          -999.25      :NULL VALUE
COMP .                 COMPANY:  EOG Resources, Inc.                
WELL .                    WELL:  Garden Creek 32-07M                
FLD  .                   FIELD:  Wildcat                            
LOC  .                LOCATION:  Lat/ Long : 40.9343 / -104.3619    
CNTY .                  COUNTY:  Weld County                        
STAT .                   STATE:  Colorado                           
CTRY .                 COUNTRY:                                     
SRVC .         SERVICE COMPANY:  Schlumberger                       
API  .              API NUMBER:  05-123-34636-00                    
DATE .                LOG DATE:  6-Dec-2011
UWI  .          UNIQUE WELL ID:  5123346360000                      
#-----------------------------------------------------------------------------
~PARAMETER INFORMATION
#MNEM.UNIT    VALUE                      DESCRIPTION
#---- -----   --------------------       ------------------------
CN   .        EOG Resources  Inc.        :Company Name
WN   .        Garden Creek 32-07M        :Well Name
FN   .        Wildcat                    :Field Name
FL   .        Lat/ Long   40.9343 / -104.3619 :Field Location
FL1  .        SHL   1529' FSL X 2266' FEL NWSE :Field Location Line 1
COUN .        Weld County                :County or Rig Name
STAT .        Colorado                   :State or Province
NATI .                                   :Nation
DATE .        6-Dec-2011                 :Date as Month-Day-Year
APIN .        05-123-34636-00            :API Serial Number
SECT .        7                          :Section
TOWN .        11N                        :Township
RANG .        62W                        :Range
DMF  .        Kelly Bushing              :Drilling Measured From
LMF  .        Kelly Bushing              :Log Measured From
PDAT .        Ground Level               :Permanent Datum
ENGI .        Arvin Shi                  :Engineer's Name
WITN .        Danny Cook                 :Witness's Name
LATI .                                   :Latitude
LONG .                                   :Longitude
LUL  .        Fort Morgan                :Logging Unit Location
LUN  .              7006                 :Logging Unit Number
RUN  .        Two                        :Run Number
SON  .        BOAA-00063                 :Service Order Number
BHT  .DEGF     211.99986                 :Bottom Hole Temperature (used in calculations)
BS   .IN         7.87500                 :Bit Size
DFD  .LB/G       9.70000                 :Drilling Fluid Density
DFV  .S         39.00000                 :Drilling Fluid Viscosity
DFL  .                                   :Drilling Fluid Loss
RMFS .OHMM       0.47250                 :Resistivity of Mud Filtrate Sample
EKB  .F       5290.00000                 :Elevation of Kelly Bushing
EGL  .F       5265.00000                 :Elevation of Ground Level
BLI  .F       8212.00000                 :Bottom Log Interval
BSAL .PPM     1000.00000                 :Borehole Salinity
FLEV .                                   :Fluid Level
MCST .DEGF      86.60000                 :Mud Cake Sample Temperature
MFST .DEGF      86.60000                 :Mud Filtrate Sample Temperature
MRT  .DEGF     216.00000                 :Maximum Recorded Temperature
MST  .DEGF      86.60000                 :Mud Sample Temperature
RMCS .OHMM       0.78750                 :Resistivity of Mud Cake Sample
RMS  .OHMM       0.63000                 :Resistivity of Mud Sample
RW   .OHMM       1.00000                 :Resistivity of Connate Water
TDD  .F       8200.00000                 :Total Depth - Driller
TDL  .F       8212.00000                 :Total Depth - Logger
TLI  .F       1340.00000                 :Top Log Interval
HIDE .        Platform Express           :Header Identifier
MATR .        LIME                       :Rock Matrix for Neutron Porosity Corrections
FNUM .           1.00000                 :Form Factor Numerator
FEXP .           2.00000                 :Form Factor Exponent
DFT  .        Water Based Mud            :Drilling Fluid Type
DFPH .           8.00000                 :Drilling Fluid PH
MCSS .        Calculated                 :Mud Cake Sample Source
MFSS .        Calculated                 :Mud Filtrate Sample Source
MSS  .        Mud Flow                   :Mud Sample Source
OS1  .        HNGS                       :Other Services Line 1
OS2  .        MSIP                       :Other Services Line 2
OS3  .        FMI                        :Other Services Line 3
OS4  .        PEX                        :Other Services Line 4
OS5  .                                   :Other Services Line 5
R1   .        This is the first run in hole :Remark Line 1
R2   .                                   :Remark Line 2
R3   .        Toolstring run as per tool sketch :Remark Line 3
R4   .                                   :Remark Line 4
R5   .        Matrix  Limestone (2.71 g/cc) :Remark Line 5
R6   .                                   :Remark Line 6
R7   .        Main log and repeat log correlated to correlation log around 7000-8000 ft :Remark Line 7
R8   .                                   :Remark Line 8
TCS  .        17 30                      :Time Circulation Stopped
TLAB .        11 30                      :Time Logger At Bottom
NMT  .        NOBARITE                   :HILT Nuclear Mud Type
EPD  .F         5265.000000              :Elevation of Permanent Datum above Mean Sea Level
APD  .F          25.000000               :Elevation of Depth Reference (LMF) above Permanent Datum
#-----------------------------------------------------------------------------
~CURVE INFORMATION
#MNEM.UNIT   API CODE                                  DESCRIPTION
#---- -----  --------                                  -----------------------
DEPT .F                                                :DEPTH (BOREHOLE) {F12.4}
CDF  .LBF                                              :Calibrated Downhole Force {F11.4}
CFTC .HZ                                               :Corrected Far Thermal Counting Rate {F11.4}
CNTC .HZ                                               :Corrected Near Thermal Counting Rate {F11.4}
CTEM .DEGF                                             :Cartridge Temperature {F11.4}
DCAL .IN                                               :Differential Caliper {F11.4}
DNPH .CFCF                                             :Delta Thermal Neutron Porosity {F11.4}
DWAL_WALK2.                                            :Dry Weight Fraction Pseudo Aluminum (SpectroLith WALK2 Model) {F11.4}
DWCA_WALK2.                                            :Dry Weight Fraction Calcium (SpectroLith WALK2 Model) {F11.4}
DWFE_WALK2.                                            :Dry Weight Fraction Iron + 0.14 Aluminum (SpectroLith WALK2 Model) {F11.4}
DWGD_WALK2.PPM                                         :Dry Weight Fraction Gadolinium (SpectroLith WALK2 Model) {F11.4}
DWSI_WALK2.                                            :Dry Weight Fraction Silicon (SpectroLith WALK2 Model) {F11.4}
DWSU_WALK2.                                            :Dry Weight Fraction Sulfur (SpectroLith WALK2 Model) {F11.4}
DWTI_WALK2.                                            :Dry Weight Fraction Titanium (SpectroLith WALK2 Model) {F11.4}
ECGR .GAPI                                             :Environmentally Corrected Gamma-Ray {F11.4}
ECST .DEGF                                             :ECS Temperature {F11.4}
ESUF_WALK2.                                            :Elemental Statistical Uncertainty Factor (SpectroLith WALK2 Model) {F11.4}
GDEV .DEG                                              :HGNS Deviation {F11.4}
GR   .GAPI                                             :Gamma-Ray {F11.4}
GTEM .DEGF                                             :Generalized Borehole Temperature {F11.4}
HGR  .GAPI                                             :HiRes Gamma-Ray {F11.4}
HNPO .CFCF                                             :HiRes Enhanced Thermal Neutron Porosity {F11.4}
HTNP .CFCF                                             :HiRes Thermal Neutron Porosity {F11.4}
NPHI .CFCF                                             :Thermal Neutron Porosity (Ratio Method) {F11.4}
NPOR .CFCF                                             :Enhanced Thermal Neutron Porosity {F11.4}
QCPMT.                                                 :Photomultiplier Tube Quality Control {F11.4}
RHGE_WALK2.G/C3                                        :Matrix Density from Elemental Concentrations (SpectroLith WALK2 Model) {F11.4}
RWA  .OHMM                                             :Apparent Water Resistivity {F11.4}
STIT .F                                                :Stuck Tool Indicator, Total {F11.4}
TENS .LBF                                              :Cable Tension {F11.4}
TNPH .CFCF                                             :Thermal Neutron Porosity {F11.4}
WANH_WALK2.                                            :Dry Weight Fraction Anhydrite/Gypsum (SpectroLith WALK2 Model) {F11.4}
WCAR_WALK2.                                            :Dry Weight Fraction Carbonate (SpectroLith WALK2 Model) {F11.4}
WCLA_WALK2.                                            :Dry Weight Fraction Clay (SpectroLith WALK2 Model) {F11.4}
WCOA_WALK2.                                            :Dry Weight Fraction Coal (SpectroLith WALK2 Model) {F11.4}
WEVA_WALK2.                                            :Dry Weight Fraction Salt (SpectroLith WALK2 Model) {F11.4}
WPYR_WALK2.                                            :Dry Weight Fraction Pyrite (SpectroLith WALK2 Model) {F11.4}
WQFM_WALK2.                                            :Dry Weight Fraction Quartz+Feldspar+Mica (QFM) (SpectroLith WALK2 Model) {F11.4}
WSID_WALK2.                                            :Dry Weight Fraction Siderite (SpectroLith WALK2 Model) {F11.4}
#-----------------------------------------------------------------------------
# 
#      DEPT        CDF        CFTC       CNTC       CTEM       DCAL       DNPH    DWAL_WALK2 DWCA_WALK2 DWFE_WALK2 DWGD_WALK2 DWSI_WALK2 DWSU_WALK2 DWTI_WALK2    ECGR       ECST    ESUF_WALK2    GDEV        GR        GTEM       HGR        HNPO       HTNP       NPHI       NPOR      QCPMT    RHGE_WALK2    RWA        STIT       TENS       TNPH    WANH_WALK2 WCAR_WALK2 WCLA_WALK2 WCOA_WALK2 WEVA_WALK2 WPYR_WALK2 WQFM_WALK2 WSID_WALK2
#
~A  
# ...
   7064.5000 -9981.3740    -1.2949     0.5568   220.8943     0.0000    -0.0004     0.1070     0.0000     0.0637     8.8816     0.2767     0.0000     0.0041   135.8283    47.1620     0.7707     2.5192   138.0065   208.9717   139.7945  -999.2500  -999.2500    -0.0131    -0.0932     0.9493     2.7605     1.0000     0.0000  2375.0000     0.1120     0.0000     0.0000     0.5904     0.0000     0.0000     0.0000     0.4096     0.0000
   7065.0000 -9983.1514    -4.8098     0.7651   220.8943     0.0000    -0.0004     0.1093     0.0000     0.0652     6.1011     0.2723     0.0000     0.0039   139.5480    47.1620     0.7530     2.4597   141.7858   208.9717   139.9896  -999.2500  -999.2500    -0.1385  -999.2500     0.5319     2.7634     1.0000     0.0000  2451.0000  -999.2500     0.0000     0.0000     0.6084     0.0000     0.0000     0.0000     0.3916     0.0000
   7065.5000 -9982.4404    -1.0315    -2.1596   220.8943     0.0000    -0.0004     0.1152     0.0000     0.0646     3.3311     0.2657     0.0003     0.0044   140.3597    47.1620     0.7607     2.4120   142.6105   208.9717   146.9468  -999.2500  -999.2500    -0.1371  -999.2500     0.5307     2.7620     1.0000     0.0000  2434.0000  -999.2500     0.0000     0.0000     0.6532     0.0000     0.0000     0.0005     0.3464     0.0000
   7066.0000 -9982.0850     4.2969     0.0927   220.8943     0.0000    -0.0004     0.1109     0.0000     0.0610     1.7142     0.2744     0.0017     0.0051   142.8795    47.1620     0.7577     2.6754   145.1707   208.9717   142.0052  -999.2500  -999.2500    -0.1357    -0.1299     0.6755     2.7570     1.0000     0.0000  2416.0000    -0.0750     0.0000     0.0000     0.6198     0.0000     0.0000     0.0032     0.3770     0.0000
   7066.5000 -9982.0850    12.5643     1.0196   220.8943     0.0000    -0.0010     0.0983     0.0000     0.0580     3.7974     0.2926     0.0000     0.0053   142.6395    47.1620     0.7816     2.6746   144.9269   208.9717   147.8571    -0.1516    -0.0667    -0.0113    -0.1198     0.5115     2.7499     1.0000     0.0000  2411.0000    -0.0568     0.0000     0.0000     0.5274     0.0000     0.0000     0.0000     0.4726     0.0000
   7067.0000 -9982.7959    10.0390     3.3651   220.8943     0.0000    -0.0010     0.0900     0.0042     0.0531     6.5171     0.3025     0.0000     0.0046   145.4275    47.1620     0.7434     2.5440   147.7596   208.9717   146.0365    -0.1131    -0.0372    -0.0446    -0.1098     0.6202     2.7417     1.0000     0.0000  2400.0000    -0.0385     0.0000     0.0000     0.4690     0.0000     0.0000     0.0000     0.5310     0.0000
   7067.5000 -9982.0850     5.1041     5.4766   220.8943     0.0000    -0.0028     0.0859     0.0280     0.0510     9.1769     0.2816     0.0000     0.0038   138.5881    47.1620     0.6936     2.4191   140.8105   208.9717   149.6126     0.1781     0.8476    -0.0450     0.1055     0.2947     2.7418     1.0000     0.0000  2392.0000     0.0629     0.0000     0.0003     0.4419     0.0000     0.0000     0.0000     0.5579     0.0000
   7068.0000 -9981.7295    -3.4200     6.8264   220.8943     0.0000    -0.0013     0.0885     0.0362     0.0525     9.2104     0.2676     0.0000     0.0039   132.9486    45.9914     0.6825     2.5188   135.0806   208.9717   125.6851  -999.2500  -999.2500    -0.0349     0.0789     0.6952     2.7459     1.0000     0.0000  2389.0000     0.0533     0.0000     0.0223     0.4587     0.0000     0.0000     0.0000     0.5189     0.0000
   7068.5000 -9982.0850    -7.1958     5.4735   220.8943     0.0000    -0.0013     0.0951     0.0331     0.0564     8.3864     0.2594     0.0000     0.0044   132.7580    45.9914     0.7284     2.4458   134.8869   208.9717   129.0011  -999.2500  -999.2500    -0.0307  -999.2500     0.4574     2.7526     1.0000     0.0000  2389.0000  -999.2500     0.0000     0.0140     0.5047     0.0000     0.0000     0.0000     0.4813     0.0000
   7069.0000 -9981.7295    -6.8024     5.8953   220.8943     0.0000    -0.0013     0.1027     0.0053     0.0606     6.8755     0.2786     0.0000     0.0053   141.6372    47.1620     0.7700     2.5313   143.9085   208.9717   150.1328  -999.2500  -999.2500    -0.0321  -999.2500     0.7133     2.7557     1.0000     0.0000  2385.0000  -999.2500     0.0000     0.0000     0.5587     0.0000     0.0000     0.0000     0.4413     0.0000
   7069.5000 -9982.0850    -4.2840     4.7739   220.8943     0.0000    -0.0013     0.1013     0.0000     0.0599     6.5787     0.2871     0.0024     0.0049   145.7169    47.1620     0.7685     2.4061   148.0536   208.9717   153.7090  -999.2500  -999.2500    -0.0294  -999.2500     0.5172     2.7564     1.0000     0.0000  2362.0000  -999.2500     0.0000     0.0000     0.5489     0.0000     0.0000     0.0045     0.4466     0.0000
   7070.0000 -9981.7295    -3.2630     2.4516   220.8943     0.0000    -0.0013     0.0964     0.0000     0.0570     6.1874     0.2959     0.0010     0.0047   143.6276    47.1620     0.7579     2.4162   145.9309   208.9717   139.7946  -999.2500  -999.2500    -0.0143  -999.2500     0.2493     2.7493     1.0000     0.0000  2382.0000  -999.2500     0.0000     0.0000     0.5136     0.0000     0.0000     0.0019     0.4845     0.0000
   7070.5000 -9982.0850    -2.0803     2.0017   220.8943     0.0000    -0.0013     0.0962     0.0000     0.0572     7.9952     0.2959     0.0000     0.0041   143.6276    47.1620     0.7501     2.5201   145.9309   208.9717   144.9312  -999.2500  -999.2500    -0.0441  -999.2500     0.3280     2.7484     1.0000     0.0000  2418.0000  -999.2500     0.0000     0.0000     0.5127     0.0000     0.0000     0.0000     0.4873     0.0000
   7071.0000 -9982.0850     1.5641     2.6924   220.8943     0.0000    -0.0013     0.0988     0.0000     0.0585     8.3291     0.2915     0.0000     0.0045   142.4277    45.9914     0.7493     2.5024   144.7117   208.9717   152.8637     0.2557     0.2945     0.6346  -999.2500     0.4043     2.7510     1.0000     0.0000  2420.0000  -999.2500     0.0000     0.0000     0.5306     0.0000     0.0000     0.0000     0.4694     0.0000
   7071.5000 -9982.0850     6.4170     0.4417   220.8943     0.0000    -0.0013     0.1110     0.0000     0.0614     8.9451     0.2738     0.0042     0.0047   145.9075    45.9914     0.7417     2.5075   148.2472   208.9717   136.6736    -0.1297    -0.0325     0.6217  -999.2500     0.3115     2.7608     1.0000     0.0000  2380.0000  -999.2500     0.0000     0.0000     0.6212     0.0000     0.0000     0.0079     0.3709     0.0000
   7072.0000 -9981.7295     2.0868     0.9045   220.8943     0.0000    -0.0013     0.1093     0.0000     0.0676     7.9250     0.2701     0.0136     0.0052   143.6277    49.5030     0.7968     2.5197   145.9309   208.9717   154.3592    -0.1329    -0.0188     0.7506    -0.1340     0.2498     2.7842     1.0000     0.0000  2416.0000    -0.0238     0.0000     0.0000     0.6081     0.0000     0.0000     0.0255     0.3664     0.0000
   7072.5000 -9983.1514    -5.3348     2.1594   220.8943     0.0000    -0.0032     0.1134     0.0215     0.0685     7.0825     0.2391     0.0186     0.0040   144.8205    49.5030     0.7814     2.3874   147.1428   208.9717   147.7921  -999.2500  -999.2500    -0.0223    -0.1272     0.2609     2.7954     1.0000     0.0000  2405.0000    -0.0140     0.0000     0.0000     0.6395     0.0000     0.0000     0.0349     0.3256     0.0000
   7073.0000 -9982.0850    -9.1112     1.4823   220.8943     0.0000    -0.0032     0.1157     0.0442     0.0646     7.4345     0.2134     0.0067     0.0026   138.3411    47.1620     0.7455     2.3028   140.5595   208.9717   140.2497  -999.2500  -999.2500    -0.0121  -999.2500     0.3104     2.7773     1.0000     0.0000  2394.0000  -999.2500     0.0000     0.0439     0.6568     0.0000     0.0000     0.0125     0.2868     0.0000
   7073.5000 -9981.7295    -6.7507    -0.2047   220.8943     0.0000    -0.0032     0.1054     0.0484     0.0636     7.8818     0.2222     0.0000     0.0019   137.2612    47.1620     0.7746     2.3190   139.4623   208.9717   134.1378  -999.2500  -999.2500    -0.0192  -999.2500     0.9131     2.7687     1.0000     0.0000  2435.0000  -999.2500     0.0000     0.0552     0.5787     0.0000     0.0000     0.0000     0.3661     0.0000
