~VERSION INFORMATION
VERS.           1.2   :CWLS Log ASCII Standard - VERSION 1.2
WRAP.           NO    :One Line per depth step
PROD.  Schlumberger   :LAS Producer
PROG.  DLIS to ASCII 17C0-152                          :LAS Program name and version
CREA.        2011/12/13 23:09                          :LAS Creation date {YYYY/MM/DD hh:mm}
DLIS_CREA.  2011-Dec-13 15:28                          :DLIS Creation date and time {YYYY-MMM-DD hh:mm}
SOURCE.     1ba8f76d-360e-4325-8cd9-5cb564d153a7       :DLIS File Name
#--------------------------------------------------
~WELL INFORMATION
#MNEM.UNIT      DATA             DESCRIPTION
#---- ------ --------------   -----------------------------
STRT .F      6646.5000       :START DEPTH     
STOP .F      8231.0000       :STOP DEPTH     
STEP .F       0.5000         :STEP       
NULL .          -999.25      :NULL VALUE
COMP .                 COMPANY:  EOG Resources, Inc.                
WELL .                    WELL:  Garden Creek 32-07M                
FLD  .                   FIELD:  Wildcat                            
LOC  .                LOCATION:  Lat/ Long : 40.9343 / -104.3619    
CNTY .                  COUNTY:  Weld County                        
STAT .                   STATE:  Colorado                           
CTRY .                 COUNTRY:                                     
SRVC .         SERVICE COMPANY:  Schlumberger                       
API  .              API NUMBER:  05-123-34636-00                    
DATE .                LOG DATE:  6-Dec-2011
UWI  .          UNIQUE WELL ID:  5123346360000                      
#-----------------------------------------------------------------------------
~PARAMETER INFORMATION
#MNEM.UNIT    VALUE                      DESCRIPTION
#---- -----   --------------------       ------------------------
CN   .        EOG Resources  Inc.        :Company Name
WN   .        Garden Creek 32-07M        :Well Name
FN   .        Wildcat                    :Field Name
FL   .        Lat/ Long   40.9343 / -104.3619 :Field Location
FL1  .        SHL   1529' FSL X 2266' FEL NWSE :Field Location Line 1
COUN .        Weld County                :County or Rig Name
STAT .        Colorado                   :State or Province
NATI .                                   :Nation
DATE .        6-Dec-2011                 :Date as Month-Day-Year
APIN .        05-123-34636-00            :API Serial Number
SECT .        7                          :Section
TOWN .        11N                        :Township
RANG .        62W                        :Range
DMF  .        Kelly Bushing              :Drilling Measured From
LMF  .        Kelly Bushing              :Log Measured From
PDAT .        Ground Level               :Permanent Datum
ENGI .        Arvin Shi                  :Engineer's Name
WITN .        Danny Cook                 :Witness's Name
LATI .                                   :Latitude
LONG .                                   :Longitude
LUL  .        Fort Morgan                :Logging Unit Location
LUN  .              7006                 :Logging Unit Number
RUN  .        Two                        :Run Number
SON  .        BOAA-00063                 :Service Order Number
BHT  .DEGF     211.99986                 :Bottom Hole Temperature (used in calculations)
BS   .IN         7.87500                 :Bit Size
DFD  .LB/G       9.70000                 :Drilling Fluid Density
DFV  .S         39.00000                 :Drilling Fluid Viscosity
DFL  .                                   :Drilling Fluid Loss
RMFS .OHMM       0.47250                 :Resistivity of Mud Filtrate Sample
EKB  .F       5290.00000                 :Elevation of Kelly Bushing
EGL  .F       5265.00000                 :Elevation of Ground Level
BLI  .F       8212.00000                 :Bottom Log Interval
BSAL .PPM     1000.00000                 :Borehole Salinity
FLEV .                                   :Fluid Level
MCST .DEGF      86.60000                 :Mud Cake Sample Temperature
MFST .DEGF      86.60000                 :Mud Filtrate Sample Temperature
MRT  .DEGF     216.00000                 :Maximum Recorded Temperature
MST  .DEGF      86.60000                 :Mud Sample Temperature
RMCS .OHMM       0.78750                 :Resistivity of Mud Cake Sample
RMS  .OHMM       0.63000                 :Resistivity of Mud Sample
RW   .OHMM       1.00000                 :Resistivity of Connate Water
TDD  .F       8200.00000                 :Total Depth - Driller
TDL  .F       8212.00000                 :Total Depth - Logger
TLI  .F       1340.00000                 :Top Log Interval
HIDE .        Platform Express           :Header Identifier
MATR .        LIME                       :Rock Matrix for Neutron Porosity Corrections
FNUM .           1.00000                 :Form Factor Numerator
FEXP .           2.00000                 :Form Factor Exponent
DFT  .        Water Based Mud            :Drilling Fluid Type
DFPH .           8.00000                 :Drilling Fluid PH
MCSS .        Calculated                 :Mud Cake Sample Source
MFSS .        Calculated                 :Mud Filtrate Sample Source
MSS  .        Mud Flow                   :Mud Sample Source
OS1  .        HNGS                       :Other Services Line 1
OS2  .        MSIP                       :Other Services Line 2
OS3  .        FMI                        :Other Services Line 3
OS4  .        PEX                        :Other Services Line 4
OS5  .                                   :Other Services Line 5
R1   .        This is the first run in hole :Remark Line 1
R2   .                                   :Remark Line 2
R3   .        Toolstring run as per tool sketch :Remark Line 3
R4   .                                   :Remark Line 4
R5   .        Matrix  Limestone (2.71 g/cc) :Remark Line 5
R6   .                                   :Remark Line 6
R7   .        Main log and repeat log correlated to correlation log around 7000-8000 ft :Remark Line 7
R8   .                                   :Remark Line 8
TCS  .        17 30                      :Time Circulation Stopped
TLAB .        11 30                      :Time Logger At Bottom
NMT  .        NOBARITE                   :HILT Nuclear Mud Type
EPD  .F         5265.000000              :Elevation of Permanent Datum above Mean Sea Level
APD  .F          25.000000               :Elevation of Depth Reference (LMF) above Permanent Datum
#-----------------------------------------------------------------------------
~CURVE INFORMATION
#MNEM.UNIT   API CODE                                  DESCRIPTION
#---- -----  --------                                  -----------------------
DEPT .F                                                :DEPTH (BOREHOLE) {F12.4}
CDF  .LBF                                              :Calibrated Downhole Force {F11.4}
CFTC .HZ                                               :Corrected Far Thermal Counting Rate {F11.4}
CNTC .HZ                                               :Corrected Near Thermal Counting Rate {F11.4}
CTEM .DEGF                                             :Cartridge Temperature {F11.4}
DCAL .IN                                               :Differential Caliper {F11.4}
DNPH .CFCF                                             :Delta Thermal Neutron Porosity {F11.4}
DWAL_WALK2.                                            :Dry Weight Fraction Pseudo Aluminum (SpectroLith WALK2 Model) {F11.4}
DWCA_WALK2.                                            :Dry Weight Fraction Calcium (SpectroLith WALK2 Model) {F11.4}
DWFE_WALK2.                                            :Dry Weight Fraction Iron + 0.14 Aluminum (SpectroLith WALK2 Model) {F11.4}
DWGD_WALK2.PPM                                         :Dry Weight Fraction Gadolinium (SpectroLith WALK2 Model) {F11.4}
DWSI_WALK2.                                            :Dry Weight Fraction Silicon (SpectroLith WALK2 Model) {F11.4}
DWSU_WALK2.                                            :Dry Weight Fraction Sulfur (SpectroLith WALK2 Model) {F11.4}
DWTI_WALK2.                                            :Dry Weight Fraction Titanium (SpectroLith WALK2 Model) {F11.4}
ECGR .GAPI                                             :Environmentally Corrected Gamma-Ray {F11.4}
ECST .DEGF                                             :ECS Temperature {F11.4}
ESUF_WALK2.                                            :Elemental Statistical Uncertainty Factor (SpectroLith WALK2 Model) {F11.4}
GDEV .DEG                                              :HGNS Deviation {F11.4}
GR   .GAPI                                             :Gamma-Ray {F11.4}
GTEM .DEGF                                             :Generalized Borehole Temperature {F11.4}
HGR  .GAPI                                             :HiRes Gamma-Ray {F11.4}
HNPO .CFCF                                             :HiRes Enhanced Thermal Neutron Porosity {F11.4}
HTNP .CFCF                                             :HiRes Thermal Neutron Porosity {F11.4}
NPHI .CFCF                                             :Thermal Neutron Porosity (Ratio Method) {F11.4}
NPOR .CFCF                                             :Enhanced Thermal Neutron Porosity {F11.4}
QCPMT.                                                 :Photomultiplier Tube Quality Control {F11.4}
RHGE_WALK2.G/C3                                        :Matrix Density from Elemental Concentrations (SpectroLith WALK2 Model) {F11.4}
RWA  .OHMM                                             :Apparent Water Resistivity {F11.4}
STIT .F                                                :Stuck Tool Indicator, Total {F11.4}
TENS .LBF                                              :Cable Tension {F11.4}
TNPH .CFCF                                             :Thermal Neutron Porosity {F11.4}
WANH_WALK2.                                            :Dry Weight Fraction Anhydrite/Gypsum (SpectroLith WALK2 Model) {F11.4}
WCAR_WALK2.                                            :Dry Weight Fraction Carbonate (SpectroLith WALK2 Model) {F11.4}
WCLA_WALK2.                                            :Dry Weight Fraction Clay (SpectroLith WALK2 Model) {F11.4}
WCOA_WALK2.                                            :Dry Weight Fraction Coal (SpectroLith WALK2 Model) {F11.4}
WEVA_WALK2.                                            :Dry Weight Fraction Salt (SpectroLith WALK2 Model) {F11.4}
WPYR_WALK2.                                            :Dry Weight Fraction Pyrite (SpectroLith WALK2 Model) {F11.4}
WQFM_WALK2.                                            :Dry Weight Fraction Quartz+Feldspar+Mica (QFM) (SpectroLith WALK2 Model) {F11.4}
WSID_WALK2.                                            :Dry Weight Fraction Siderite (SpectroLith WALK2 Model) {F11.4}
#-----------------------------------------------------------------------------
# 
#      DEPT        CDF        CFTC       CNTC       CTEM       DCAL       DNPH    DWAL_WALK2 DWCA_WALK2 DWFE_WALK2 DWGD_WALK2 DWSI_WALK2 DWSU_WALK2 DWTI_WALK2    ECGR       ECST    ESUF_WALK2    GDEV        GR        GTEM       HGR        HNPO       HTNP       NPHI       NPOR      QCPMT    RHGE_WALK2    RWA        STIT       TENS       TNPH    WANH_WALK2 WCAR_WALK2 WCLA_WALK2 WCOA_WALK2 WEVA_WALK2 WPYR_WALK2 WQFM_WALK2 WSID_WALK2
#
~A  
# ...
   8223.5000 -9978.8857     1.2053     6.3198   195.2002     0.0000    -0.0077     0.0580     0.0403     0.0323     9.3234     0.3191     0.0110     0.0040   161.2659    42.4798     1.1087  -999.2500   163.8520   209.9783   163.8520     3.3434     6.6078    -0.0334     3.2658     0.8463     2.7223     1.0000     0.0000  1837.0000     2.2664     0.0000     0.0334     0.2914     0.0000     0.0000     0.0205     0.6547     0.0000
   8224.0000 -9976.7520    -0.2252     5.5529   195.2002     0.0000     0.0005     0.0580     0.0403     0.0323     9.3234     0.3191     0.0110     0.0040   161.2659    42.4798     1.1087  -999.2500   163.8520   209.9783   163.8520  -999.2500  -999.2500    -0.0355     2.9339     0.8463     2.7223     1.0000     0.0000  1821.0000     2.0285     0.0000     0.0334     0.2914     0.0000     0.0000     0.0205     0.6547     0.0000
   8224.5000 -9978.1748    -3.3726     4.6327   195.2002     0.0000     0.0005     0.0580     0.0403     0.0323     9.3234     0.3191     0.0110     0.0040   161.2659    42.4798     1.1087  -999.2500   163.8520   209.9783   163.8520  -999.2500  -999.2500    -0.0315  -999.2500     0.8463     2.7223     1.0000     0.0000  1864.0000  -999.2500     0.0000     0.0334     0.2914     0.0000     0.0000     0.0205     0.6547     0.0000
   8225.0000 -9977.4629    -8.5227     4.0193   195.2002     0.0000     0.0005     0.0580     0.0403     0.0323     9.3234     0.3191     0.0110     0.0040   161.2659    42.4798     1.1087  -999.2500   163.8520   209.9783   163.8520  -999.2500  -999.2500    -0.0327  -999.2500     0.8463     2.7223     1.0000     0.0000  1874.0000  -999.2500     0.0000     0.0334     0.2914     0.0000     0.0000     0.0205     0.6547     0.0000
   8225.5000 -9978.8857    -5.0852     4.6349   195.2002     0.0000     0.0005     0.0580     0.0403     0.0323     9.3234     0.3191     0.0110     0.0040   161.2659    42.4798     1.1087  -999.2500   163.8520   209.9783   163.8520  -999.2500  -999.2500    -0.0284  -999.2500     0.8463     2.7223     1.0000     0.0000  1851.0000  -999.2500     0.0000     0.0334     0.2914     0.0000     0.0000     0.0205     0.6547     0.0000
   8226.0000 -9976.7520    -6.5156     3.4082   195.2002     0.0000     0.0005     0.0580     0.0403     0.0323     9.3234     0.3191     0.0110     0.0040   161.2659    42.4798     1.1087  -999.2500   163.8520   209.9783   163.8520  -999.2500  -999.2500    -0.0276  -999.2500     0.8463     2.7223     1.0000     0.0000  1837.0000  -999.2500     0.0000     0.0334     0.2914     0.0000     0.0000     0.0205     0.6547     0.0000
   8226.5000 -9977.4629    -2.7962     2.3346   195.2002     0.0000     0.0005     0.0580     0.0403     0.0323     9.3234     0.3191     0.0110     0.0040   161.2659    42.4798     1.1087  -999.2500   163.8520   209.9783   163.8520  -999.2500  -999.2500    -0.0262  -999.2500     0.8463     2.7223     1.0000     0.0000  1848.0000  -999.2500     0.0000     0.0334     0.2914     0.0000     0.0000     0.0205     0.6547     0.0000
   8227.0000 -9975.6855    -3.9449     2.6414   195.2002     0.0000     0.0005     0.0580     0.0403     0.0323     9.3234     0.3191     0.0110     0.0040   161.2659    42.4798     1.1087  -999.2500   163.8520   209.9783   163.8520  -999.2500  -999.2500    -0.0303  -999.2500     0.8463     2.7223     1.0000     0.0000  1843.0000  -999.2500     0.0000     0.0334     0.2914     0.0000     0.0000     0.0205     0.6547     0.0000
   8227.5000 -9977.4629     1.2052     3.1014   195.2002     0.0000     0.0005     0.0580     0.0403     0.0323     9.3234     0.3191     0.0110     0.0040   161.2659    42.4798     1.1087  -999.2500   163.8520   209.9783   163.8520     0.0280     0.3441    -0.0231     0.6111     0.8463     2.7223     1.0000     0.0000  1845.0000     0.3633     0.0000     0.0334     0.2914     0.0000     0.0000     0.0205     0.6547     0.0000
   8228.0000 -9978.8857     1.4913     1.5657   195.2002     0.0000    -0.0028     0.0580     0.0403     0.0323     9.3234     0.3191     0.0110     0.0040   161.2659    42.4798     1.1087  -999.2500   163.8520   209.9783   163.8520    -0.0219     0.0444    -0.0151    -0.0921     0.8463     2.7223     1.0000     0.0000  1827.0000     0.0658     0.0000     0.0334     0.2914     0.0000     0.0000     0.0205     0.6547     0.0000
   8228.5000 -9977.4629     9.1672     3.2342   195.2002     0.0000    -0.0010     0.0580     0.0403     0.0323     9.3234     0.3191     0.0110     0.0040   161.2659    42.4798     1.1087  -999.2500   163.8520   209.9783   163.8520    -0.1318    -0.0020    -0.0221    -0.0466     0.8463     2.7223     1.0000     0.0000  1836.0000    -0.0363     0.0000     0.0334     0.2914     0.0000     0.0000     0.0205     0.6547     0.0000
   8229.0000 -9976.7520     8.2746     4.1361   195.2002     0.0000    -0.0014     0.0580     0.0403     0.0323     9.3234     0.3191     0.0110     0.0040   161.2659    42.4798     1.1087  -999.2500   163.8520   209.9783   163.8520    -0.1839     0.1087    -0.0372    -0.0550     0.8463     2.7223     1.0000     0.0000  1873.0000    -0.0271     0.0000     0.0334     0.2914     0.0000     0.0000     0.0205     0.6547     0.0000
   8229.5000 -9977.1074     8.5266     4.2711   195.2002     0.0000    -0.0014     0.0580     0.0403     0.0323     9.3234     0.3191     0.0110     0.0040   161.2659    42.4798     1.1087  -999.2500   163.8520   209.9783   163.8520    -0.0164     0.0509    -0.0455    -0.0635     0.8463     2.7223     1.0000     0.0000  1837.0000    -0.0178     0.0000     0.0334     0.2914     0.0000     0.0000     0.0205     0.6547     0.0000
   8230.0000 -9977.8193     2.2472     4.8663   195.2002     0.0000    -0.0016     0.0580     0.0403     0.0323     9.3234     0.3191     0.0110     0.0040   161.2659    42.4798     1.1087  -999.2500   163.8520   209.9783   163.8520     0.1889     0.2813    -0.0454     0.1646     0.8463     2.7223     1.0000     0.0000  1805.0000     0.2645     0.0000     0.0334     0.2914     0.0000     0.0000     0.0205     0.6547     0.0000
   8230.5000 -9976.0410     2.2472     6.5348   195.2002     0.0000     0.0011     0.0580     0.0403     0.0323     9.3234     0.3191     0.0110     0.0040   161.2659    42.4798     1.1087  -999.2500   163.8520   209.9783   163.8520     0.4272     0.4272    -0.0453     0.4272     0.8463     2.7223     1.0000     0.0000  1848.0000     0.4272     0.0000     0.0334     0.2914     0.0000     0.0000     0.0205     0.6547     0.0000
   8231.0000 -9977.1074     2.2472     6.5348   195.2002     0.0000     0.0011     0.0580     0.0403     0.0323     9.3234     0.3191     0.0110     0.0040   161.2659    42.4798     1.1087  -999.2500   163.8520   209.9783   163.8520     0.4272     0.4272    -0.0453     0.4272     0.8463     2.7223     1.0000     0.0000  1827.0000     0.4272     0.0000     0.0334     0.2914     0.0000     0.0000     0.0205     0.6547     0.0000
