~VERSION INFORMATION
VERS.           1.2   :CWLS Log ASCII Standard - VERSION 1.2
WRAP.           NO    :One Line per depth step
PROD.  Schlumberger   :LAS Producer
PROG.  DLIS to ASCII 17C0-152                          :LAS Program name and version
CREA.        2011/12/13 23:09                          :LAS Creation date {YYYY/MM/DD hh:mm}
DLIS_CREA.  2011-Dec-13 15:28                          :DLIS Creation date and time {YYYY-MMM-DD hh:mm}
SOURCE.     1ba8f76d-360e-4325-8cd9-5cb564d153a7       :DLIS File Name
#--------------------------------------------------
~WELL INFORMATION
#MNEM.UNIT      DATA             DESCRIPTION
#---- ------ --------------   -----------------------------
STRT .F      6646.5000       :START DEPTH     
STOP .F      8231.0000       :STOP DEPTH     
STEP .F       0.5000         :STEP       
NULL .          -999.25      :NULL VALUE
COMP .                 COMPANY:  EOG Resources, Inc.                
WELL .                    WELL:  Garden Creek 32-07M                
FLD  .                   FIELD:  Wildcat                            
LOC  .                LOCATION:  Lat/ Long : 40.9343 / -104.3619    
CNTY .                  COUNTY:  Weld County                        
STAT .                   STATE:  Colorado                           
CTRY .                 COUNTRY:                                     
SRVC .         SERVICE COMPANY:  Schlumberger                       
API  .              API NUMBER:  05-123-34636-00                    
DATE .                LOG DATE:  6-Dec-2011
UWI  .          UNIQUE WELL ID:  5123346360000                      
#-----------------------------------------------------------------------------
~PARAMETER INFORMATION
#MNEM.UNIT    VALUE                      DESCRIPTION
#---- -----   --------------------       ------------------------
CN   .        EOG Resources  Inc.        :Company Name
WN   .        Garden Creek 32-07M        :Well Name
FN   .        Wildcat                    :Field Name
FL   .        Lat/ Long   40.9343 / -104.3619 :Field Location
FL1  .        SHL   1529' FSL X 2266' FEL NWSE :Field Location Line 1
COUN .        Weld County                :County or Rig Name
STAT .        Colorado                   :State or Province
NATI .                                   :Nation
DATE .        6-Dec-2011                 :Date as Month-Day-Year
APIN .        05-123-34636-00            :API Serial Number
SECT .        7                          :Section
TOWN .        11N                        :Township
RANG .        62W                        :Range
DMF  .        Kelly Bushing              :Drilling Measured From
LMF  .        Kelly Bushing              :Log Measured From
PDAT .        Ground Level               :Permanent Datum
ENGI .        Arvin Shi                  :Engineer's Name
WITN .        Danny Cook                 :Witness's Name
LATI .                                   :Latitude
LONG .                                   :Longitude
LUL  .        Fort Morgan                :Logging Unit Location
LUN  .              7006                 :Logging Unit Number
RUN  .        Two                        :Run Number
SON  .        BOAA-00063                 :Service Order Number
BHT  .DEGF     211.99986                 :Bottom Hole Temperature (used in calculations)
BS   .IN         7.87500                 :Bit Size
DFD  .LB/G       9.70000                 :Drilling Fluid Density
DFV  .S         39.00000                 :Drilling Fluid Viscosity
DFL  .                                   :Drilling Fluid Loss
RMFS .OHMM       0.47250                 :Resistivity of Mud Filtrate Sample
EKB  .F       5290.00000                 :Elevation of Kelly Bushing
EGL  .F       5265.00000                 :Elevation of Ground Level
BLI  .F       8212.00000                 :Bottom Log Interval
BSAL .PPM     1000.00000                 :Borehole Salinity
FLEV .                                   :Fluid Level
MCST .DEGF      86.60000                 :Mud Cake Sample Temperature
MFST .DEGF      86.60000                 :Mud Filtrate Sample Temperature
MRT  .DEGF     216.00000                 :Maximum Recorded Temperature
MST  .DEGF      86.60000                 :Mud Sample Temperature
RMCS .OHMM       0.78750                 :Resistivity of Mud Cake Sample
RMS  .OHMM       0.63000                 :Resistivity of Mud Sample
RW   .OHMM       1.00000                 :Resistivity of Connate Water
TDD  .F       8200.00000                 :Total Depth - Driller
TDL  .F       8212.00000                 :Total Depth - Logger
TLI  .F       1340.00000                 :Top Log Interval
HIDE .        Platform Express           :Header Identifier
MATR .        LIME                       :Rock Matrix for Neutron Porosity Corrections
FNUM .           1.00000                 :Form Factor Numerator
FEXP .           2.00000                 :Form Factor Exponent
DFT  .        Water Based Mud            :Drilling Fluid Type
DFPH .           8.00000                 :Drilling Fluid PH
MCSS .        Calculated                 :Mud Cake Sample Source
MFSS .        Calculated                 :Mud Filtrate Sample Source
MSS  .        Mud Flow                   :Mud Sample Source
OS1  .        HNGS                       :Other Services Line 1
OS2  .        MSIP                       :Other Services Line 2
OS3  .        FMI                        :Other Services Line 3
OS4  .        PEX                        :Other Services Line 4
OS5  .                                   :Other Services Line 5
R1   .        This is the first run in hole :Remark Line 1
R2   .                                   :Remark Line 2
R3   .        Toolstring run as per tool sketch :Remark Line 3
R4   .                                   :Remark Line 4
R5   .        Matrix  Limestone (2.71 g/cc) :Remark Line 5
R6   .                                   :Remark Line 6
R7   .        Main log and repeat log correlated to correlation log around 7000-8000 ft :Remark Line 7
R8   .                                   :Remark Line 8
TCS  .        17 30                      :Time Circulation Stopped
TLAB .        11 30                      :Time Logger At Bottom
NMT  .        NOBARITE                   :HILT Nuclear Mud Type
EPD  .F         5265.000000              :Elevation of Permanent Datum above Mean Sea Level
APD  .F          25.000000               :Elevation of Depth Reference (LMF) above Permanent Datum
#-----------------------------------------------------------------------------
~CURVE INFORMATION
#MNEM.UNIT   API CODE                                  DESCRIPTION
#---- -----  --------                                  -----------------------
DEPT .F                                                :DEPTH (BOREHOLE) {F12.4}
CDF  .LBF                                              :Calibrated Downhole Force {F11.4}
CFTC .HZ                                               :Corrected Far Thermal Counting Rate {F11.4}
CNTC .HZ                                               :Corrected Near Thermal Counting Rate {F11.4}
CTEM .DEGF                                             :Cartridge Temperature {F11.4}
DCAL .IN                                               :Differential Caliper {F11.4}
DNPH .CFCF                                             :Delta Thermal Neutron Porosity {F11.4}
DWAL_WALK2.                                            :Dry Weight Fraction Pseudo Aluminum (SpectroLith WALK2 Model) {F11.4}
DWCA_WALK2.                                            :Dry Weight Fraction Calcium (SpectroLith WALK2 Model) {F11.4}
DWFE_WALK2.                                            :Dry Weight Fraction Iron + 0.14 Aluminum (SpectroLith WALK2 Model) {F11.4}
DWGD_WALK2.PPM                                         :Dry Weight Fraction Gadolinium (SpectroLith WALK2 Model) {F11.4}
DWSI_WALK2.                                            :Dry Weight Fraction Silicon (SpectroLith WALK2 Model) {F11.4}
DWSU_WALK2.                                            :Dry Weight Fraction Sulfur (SpectroLith WALK2 Model) {F11.4}
DWTI_WALK2.                                            :Dry Weight Fraction Titanium (SpectroLith WALK2 Model) {F11.4}
ECGR .GAPI                                             :Environmentally Corrected Gamma-Ray {F11.4}
ECST .DEGF                                             :ECS Temperature {F11.4}
ESUF_WALK2.                                            :Elemental Statistical Uncertainty Factor (SpectroLith WALK2 Model) {F11.4}
GDEV .DEG                                              :HGNS Deviation {F11.4}
GR   .GAPI                                             :Gamma-Ray {F11.4}
GTEM .DEGF                                             :Generalized Borehole Temperature {F11.4}
HGR  .GAPI                                             :HiRes Gamma-Ray {F11.4}
HNPO .CFCF                                             :HiRes Enhanced Thermal Neutron Porosity {F11.4}
HTNP .CFCF                                             :HiRes Thermal Neutron Porosity {F11.4}
NPHI .CFCF                                             :Thermal Neutron Porosity (Ratio Method) {F11.4}
NPOR .CFCF                                             :Enhanced Thermal Neutron Porosity {F11.4}
QCPMT.                                                 :Photomultiplier Tube Quality Control {F11.4}
RHGE_WALK2.G/C3                                        :Matrix Density from Elemental Concentrations (SpectroLith WALK2 Model) {F11.4}
RWA  .OHMM                                             :Apparent Water Resistivity {F11.4}
STIT .F                                                :Stuck Tool Indicator, Total {F11.4}
TENS .LBF                                              :Cable Tension {F11.4}
TNPH .CFCF                                             :Thermal Neutron Porosity {F11.4}
WANH_WALK2.                                            :Dry Weight Fraction Anhydrite/Gypsum (SpectroLith WALK2 Model) {F11.4}
WCAR_WALK2.                                            :Dry Weight Fraction Carbonate (SpectroLith WALK2 Model) {F11.4}
WCLA_WALK2.                                            :Dry Weight Fraction Clay (SpectroLith WALK2 Model) {F11.4}
WCOA_WALK2.                                            :Dry Weight Fraction Coal (SpectroLith WALK2 Model) {F11.4}
WEVA_WALK2.                                            :Dry Weight Fraction Salt (SpectroLith WALK2 Model) {F11.4}
WPYR_WALK2.                                            :Dry Weight Fraction Pyrite (SpectroLith WALK2 Model) {F11.4}
WQFM_WALK2.                                            :Dry Weight Fraction Quartz+Feldspar+Mica (QFM) (SpectroLith WALK2 Model) {F11.4}
WSID_WALK2.                                            :Dry Weight Fraction Siderite (SpectroLith WALK2 Model) {F11.4}
#-----------------------------------------------------------------------------
# 
#      DEPT        CDF        CFTC       CNTC       CTEM       DCAL       DNPH    DWAL_WALK2 DWCA_WALK2 DWFE_WALK2 DWGD_WALK2 DWSI_WALK2 DWSU_WALK2 DWTI_WALK2    ECGR       ECST    ESUF_WALK2    GDEV        GR        GTEM       HGR        HNPO       HTNP       NPHI       NPOR      QCPMT    RHGE_WALK2    RWA        STIT       TENS       TNPH    WANH_WALK2 WCAR_WALK2 WCLA_WALK2 WCOA_WALK2 WEVA_WALK2 WPYR_WALK2 WQFM_WALK2 WSID_WALK2
#
~A  
# ...
   7378.0000 -9985.6396    -4.9948     1.1001   226.8237     0.0000    -0.0040     0.0692     0.1474     0.0377     8.8352     0.1752     0.0268     0.0021   202.3106    45.9914     0.6853     2.7652   205.5548   215.0114   199.3536  -999.2500  -999.2500    -0.0446  -999.2500     0.3493     2.7693     1.0000     0.0000  2454.0000  -999.2500     0.0000     0.3214     0.3477     0.0000     0.0000     0.0501     0.2807     0.0000
   7378.5000 -9984.5732    -5.4444     4.1862   226.8237     0.0000    -0.0040     0.0688     0.1555     0.0373     6.4951     0.1666     0.0275     0.0024   189.1997    45.9914     0.6943     2.5358   192.2337   215.0114   198.3132  -999.2500  -999.2500    -0.0362  -999.2500     0.2626     2.7706     1.0000     0.0000  2456.0000  -999.2500     0.0000     0.3433     0.3459     0.0000     0.0000     0.0515     0.2593     0.0000
   7379.0000 -9984.9287    -3.3457     5.7608   226.8237     0.0000    -0.0040     0.0619     0.1748     0.0346     5.3967     0.1551     0.0172     0.0022   181.9043    45.9914     0.6669     2.6482   184.8214   215.0114   179.8474  -999.2500  -999.2500    -0.0309  -999.2500     0.0000     2.7567     1.0000     0.0000  2469.0000  -999.2500     0.0000     0.3952     0.3111     0.0000     0.0000     0.0321     0.2615     0.0000
   7379.5000 -9984.9287    -3.3457     6.3382   226.8237     0.0000    -0.0040     0.0648     0.1787     0.0358     4.4558     0.1459     0.0192     0.0029   175.5449    45.9914     0.6690     2.6743   178.3599   215.0114   177.1165  -999.2500  -999.2500    -0.0245  -999.2500     0.0179     2.7620     1.0000     0.0000  2453.0000  -999.2500     0.0000     0.4056     0.3257     0.0000     0.0000     0.0360     0.2327     0.0000
   7380.0000 -9984.2178    -0.1648     5.6631   226.8237     0.0000    -0.0040     0.0654     0.1769     0.0360     4.7204     0.1471     0.0207     0.0028   183.2242    45.9914     0.6506     2.7357   186.1624   215.0114   178.4169     6.2422    12.6315     0.0476  -999.2500     0.1493     2.7639     1.0000     0.0000  2478.0000  -999.2500     0.0000     0.4008     0.3287     0.0000     0.0000     0.0388     0.2317     0.0000
   7380.5000 -9984.9287     2.3473     3.1899   226.8237     0.0000    -0.0040     0.0643     0.1759     0.0346     3.4072     0.1509     0.0268     0.0024   185.4000    45.9914     0.6577     2.7055   188.3731   215.0114   203.2548     0.0964     0.1043     0.0351  -999.2500     0.0000     2.7684     1.0000     0.0000  2462.0000  -999.2500     0.0000     0.3980     0.3232     0.0000     0.0000     0.0502     0.2285     0.0000
   7381.0000 -9984.5732     2.3259    -0.1812   226.8237     0.0000    -0.0040     0.0591     0.1777     0.0319     2.7220     0.1577     0.0250     0.0018   181.9203    48.3325     0.6544     2.6699   184.8376   215.0114   183.7486  -999.2500  -999.2500     0.0312  -999.2500     0.0000     2.7616     1.0000     0.0000  2425.0000  -999.2500     0.0000     0.4029     0.2969     0.0000     0.0000     0.0468     0.2534     0.0000
   7381.5000 -9985.2842     2.7394    -1.9825   226.8237     0.0000    -0.0040     0.0521     0.1862     0.0287     3.8272     0.1594     0.0186     0.0014   174.7529    48.3325     0.6661     2.7721   177.5553   215.0114   167.1033  -999.2500  -999.2500  -999.2500  -999.2500     0.0000     2.7495     1.0000     0.0000  2435.0000  -999.2500     0.0000     0.4259     0.2617     0.0000     0.0000     0.0348     0.2776     0.0000
   7382.0000 -9984.5732     2.3521    -1.8370   226.8237     0.0000    -0.0040     0.0467     0.1956     0.0266     6.5668     0.1570     0.0096     0.0015   160.6662    45.9914     0.6462     2.8640   163.2426   215.0114   181.4079  -999.2500  -999.2500  -999.2500  -999.2500     0.1521     2.7366     1.0000     0.0000  2439.0000  -999.2500     0.0000     0.4511     0.2345     0.0000     0.0000     0.0179     0.2964     0.0000
   7382.5000 -9984.2178    -3.4965    -4.3117   226.8237     0.0000    -0.0040     0.0437     0.2016     0.0251     7.8733     0.1550     0.0067     0.0018   149.9951    45.9914     0.6428     2.6808   152.4004   215.5147   140.7700  -999.2500  -999.2500  -999.2500  -999.2500     0.7878     2.7314     1.0000     0.0000  2469.0000  -999.2500     0.0000     0.4674     0.2198     0.0000     0.0000     0.0125     0.3004     0.0000
   7383.0000 -9984.9287    -6.0138    -2.5130   226.8237     0.0000    -0.0040     0.0471     0.2005     0.0266     6.6577     0.1507     0.0105     0.0020   127.7251    45.9914     0.6205     2.6341   129.7733   215.5147   134.9832  -999.2500  -999.2500  -999.2500  -999.2500     0.7360     2.7384     1.0000     0.0000  2459.0000  -999.2500     0.0000     0.4645     0.2369     0.0000     0.0000     0.0196     0.2791     0.0000
   7383.5000 -9984.2178    -9.6056    -2.7541   226.8237     0.0000    -0.0040     0.0516     0.1911     0.0287     3.5796     0.1543     0.0135     0.0025   115.0062    45.9914     0.6370     2.5648   116.8504   215.5147   113.5264  -999.2500  -999.2500  -999.2500  -999.2500     0.7911     2.7443     1.0000     0.0000  2459.0000  -999.2500     0.0000     0.4390     0.2594     0.0000     0.0000     0.0253     0.2763     0.0000
   7384.0000 -9984.9287     0.4607    -0.2808   226.8237     0.0000    -0.0040     0.0561     0.1807     0.0316     2.3453     0.1581     0.0131     0.0020   105.5350    45.9914     0.6471     2.7566   107.2274   215.5147   102.2128  -999.2500  -999.2500  -999.2500  -999.2500     0.0422     2.7476     1.0000     0.0000  2494.0000  -999.2500     0.0000     0.4111     0.2819     0.0000     0.0000     0.0246     0.2825     0.0000
   7384.5000 -9986.3506     1.7249    -0.4237   226.8237     0.0000    -0.0040     0.0555     0.1743     0.0316     1.1278     0.1664     0.0122     0.0015   108.4787    45.9914     0.6617     2.6595   110.2183   215.5147   106.1140    -0.1371    -0.0017  -999.2500  -999.2500     0.0000     2.7454     1.0000     0.0000  2463.0000  -999.2500     0.0000     0.3937     0.2789     0.0000     0.0000     0.0228     0.3045     0.0000
   7385.0000 -9984.5732     2.7670    -0.4258   226.8237     0.0000    -0.0040     0.0535     0.1855     0.0301     0.9633     0.1570     0.0172     0.0006   118.9178    45.9914     0.6215     2.8842   120.8248   215.5147   122.4992    -0.1148     0.0412  -999.2500  -999.2500     0.1317     2.7504     1.0000     0.0000  2461.0000  -999.2500     0.0000     0.4241     0.2691     0.0000     0.0000     0.0323     0.2745     0.0000
   7385.5000 -9986.3506    -1.0075    -0.7622   226.8237     0.0000    -0.0040     0.0480     0.2057     0.0263     0.0000     0.1438     0.0210     0.0003   127.7490    45.9914     0.5642     2.8355   129.7976   215.5147   133.6828  -999.2500  -999.2500  -999.2500  -999.2500     0.3572     2.7513     1.0000     0.0000  2474.0000  -999.2500     0.0000     0.4782     0.2414     0.0000     0.0000     0.0392     0.2412     0.0000
   7386.0000 -9984.9287    -0.5877    -1.3579   226.8237     0.0000    -0.0040     0.0439     0.2257     0.0238     0.0000     0.1278     0.0209     0.0004   128.1330    45.9914     0.5406     2.7274   130.1878   215.5147   133.0325  -999.2500  -999.2500  -999.2500  -999.2500     1.3434     2.7500     1.0000     0.0000  2471.0000  -999.2500     0.0000     0.5322     0.2208     0.0000     0.0000     0.0392     0.2078     0.0000
   7386.5000 -9984.5732    -2.2658    -2.9319   226.8237     0.0000    -0.0040     0.0425     0.2328     0.0229     1.0266     0.1222     0.0196     0.0009   128.4930    45.9914     0.5452     2.9404   130.5535   215.5147   123.6696  -999.2500  -999.2500  -999.2500  -999.2500     0.1912     2.7479     1.0000     0.0000  2479.0000  -999.2500     0.0000     0.5513     0.2134     0.0000     0.0000     0.0367     0.1986     0.0000
   7387.0000 -9984.5732    -1.3593    -4.7146   226.8237     0.0000    -0.0040     0.0444     0.2365     0.0238     5.6623     0.1147     0.0192     0.0018   129.6449    44.8209     0.5789     2.7479   131.7239   215.5147   135.1132  -999.2500  -999.2500  -999.2500  -999.2500     0.0000     2.7496     1.0000     0.0000  2446.0000  -999.2500     0.0000     0.5612     0.2229     0.0000     0.0000     0.0359     0.1800     0.0000
