~VERSION INFORMATION
VERS.           1.2   :CWLS Log ASCII Standard - VERSION 1.2
WRAP.           NO    :One Line per depth step
PROD.  Schlumberger   :LAS Producer
PROG.  DLIS to ASCII 17C0-152                          :LAS Program name and version
CREA.        2011/12/13 23:09                          :LAS Creation date {YYYY/MM/DD hh:mm}
DLIS_CREA.  2011-Dec-13 15:28                          :DLIS Creation date and time {YYYY-MMM-DD hh:mm}
SOURCE.     1ba8f76d-360e-4325-8cd9-5cb564d153a7       :DLIS File Name
#--------------------------------------------------
~WELL INFORMATION
#MNEM.UNIT      DATA             DESCRIPTION
#---- ------ --------------   -----------------------------
STRT .F      6646.5000       :START DEPTH     
STOP .F      8231.0000       :STOP DEPTH     
STEP .F       0.5000         :STEP       
NULL .          -999.25      :NULL VALUE
COMP .                 COMPANY:  EOG Resources, Inc.                
WELL .                    WELL:  Garden Creek 32-07M                
FLD  .                   FIELD:  Wildcat                            
LOC  .                LOCATION:  Lat/ Long : 40.9343 / -104.3619    
CNTY .                  COUNTY:  Weld County                        
STAT .                   STATE:  Colorado                           
CTRY .                 COUNTRY:                                     
SRVC .         SERVICE COMPANY:  Schlumberger                       
API  .              API NUMBER:  05-123-34636-00                    
DATE .                LOG DATE:  6-Dec-2011
UWI  .          UNIQUE WELL ID:  5123346360000                      
#-----------------------------------------------------------------------------
~PARAMETER INFORMATION
#MNEM.UNIT    VALUE                      DESCRIPTION
#---- -----   --------------------       ------------------------
CN   .        EOG Resources  Inc.        :Company Name
WN   .        Garden Creek 32-07M        :Well Name
FN   .        Wildcat                    :Field Name
FL   .        Lat/ Long   40.9343 / -104.3619 :Field Location
FL1  .        SHL   1529' FSL X 2266' FEL NWSE :Field Location Line 1
COUN .        Weld County                :County or Rig Name
STAT .        Colorado                   :State or Province
NATI .                                   :Nation
DATE .        6-Dec-2011                 :Date as Month-Day-Year
APIN .        05-123-34636-00            :API Serial Number
SECT .        7                          :Section
TOWN .        11N                        :Township
RANG .        62W                        :Range
DMF  .        Kelly Bushing              :Drilling Measured From
LMF  .        Kelly Bushing              :Log Measured From
PDAT .        Ground Level               :Permanent Datum
ENGI .        Arvin Shi                  :Engineer's Name
WITN .        Danny Cook                 :Witness's Name
LATI .                                   :Latitude
LONG .                                   :Longitude
LUL  .        Fort Morgan                :Logging Unit Location
LUN  .              7006                 :Logging Unit Number
RUN  .        Two                        :Run Number
SON  .        BOAA-00063                 :Service Order Number
BHT  .DEGF     211.99986                 :Bottom Hole Temperature (used in calculations)
BS   .IN         7.87500                 :Bit Size
DFD  .LB/G       9.70000                 :Drilling Fluid Density
DFV  .S         39.00000                 :Drilling Fluid Viscosity
DFL  .                                   :Drilling Fluid Loss
RMFS .OHMM       0.47250                 :Resistivity of Mud Filtrate Sample
EKB  .F       5290.00000                 :Elevation of Kelly Bushing
EGL  .F       5265.00000                 :Elevation of Ground Level
BLI  .F       8212.00000                 :Bottom Log Interval
BSAL .PPM     1000.00000                 :Borehole Salinity
FLEV .                                   :Fluid Level
MCST .DEGF      86.60000                 :Mud Cake Sample Temperature
MFST .DEGF      86.60000                 :Mud Filtrate Sample Temperature
MRT  .DEGF     216.00000                 :Maximum Recorded Temperature
MST  .DEGF      86.60000                 :Mud Sample Temperature
RMCS .OHMM       0.78750                 :Resistivity of Mud Cake Sample
RMS  .OHMM       0.63000                 :Resistivity of Mud Sample
RW   .OHMM       1.00000                 :Resistivity of Connate Water
TDD  .F       8200.00000                 :Total Depth - Driller
TDL  .F       8212.00000                 :Total Depth - Logger
TLI  .F       1340.00000                 :Top Log Interval
HIDE .        Platform Express           :Header Identifier
MATR .        LIME                       :Rock Matrix for Neutron Porosity Corrections
FNUM .           1.00000                 :Form Factor Numerator
FEXP .           2.00000                 :Form Factor Exponent
DFT  .        Water Based Mud            :Drilling Fluid Type
DFPH .           8.00000                 :Drilling Fluid PH
MCSS .        Calculated                 :Mud Cake Sample Source
MFSS .        Calculated                 :Mud Filtrate Sample Source
MSS  .        Mud Flow                   :Mud Sample Source
OS1  .        HNGS                       :Other Services Line 1
OS2  .        MSIP                       :Other Services Line 2
OS3  .        FMI                        :Other Services Line 3
OS4  .        PEX                        :Other Services Line 4
OS5  .                                   :Other Services Line 5
R1   .        This is the first run in hole :Remark Line 1
R2   .                                   :Remark Line 2
R3   .        Toolstring run as per tool sketch :Remark Line 3
R4   .                                   :Remark Line 4
R5   .        Matrix  Limestone (2.71 g/cc) :Remark Line 5
R6   .                                   :Remark Line 6
R7   .        Main log and repeat log correlated to correlation log around 7000-8000 ft :Remark Line 7
R8   .                                   :Remark Line 8
TCS  .        17 30                      :Time Circulation Stopped
TLAB .        11 30                      :Time Logger At Bottom
NMT  .        NOBARITE                   :HILT Nuclear Mud Type
EPD  .F         5265.000000              :Elevation of Permanent Datum above Mean Sea Level
APD  .F          25.000000               :Elevation of Depth Reference (LMF) above Permanent Datum
#-----------------------------------------------------------------------------
~CURVE INFORMATION
#MNEM.UNIT   API CODE                                  DESCRIPTION
#---- -----  --------                                  -----------------------
DEPT .F                                                :DEPTH (BOREHOLE) {F12.4}
CDF  .LBF                                              :Calibrated Downhole Force {F11.4}
CFTC .HZ                                               :Corrected Far Thermal Counting Rate {F11.4}
CNTC .HZ                                               :Corrected Near Thermal Counting Rate {F11.4}
CTEM .DEGF                                             :Cartridge Temperature {F11.4}
DCAL .IN                                               :Differential Caliper {F11.4}
DNPH .CFCF                                             :Delta Thermal Neutron Porosity {F11.4}
DWAL_WALK2.                                            :Dry Weight Fraction Pseudo Aluminum (SpectroLith WALK2 Model) {F11.4}
DWCA_WALK2.                                            :Dry Weight Fraction Calcium (SpectroLith WALK2 Model) {F11.4}
DWFE_WALK2.                                            :Dry Weight Fraction Iron + 0.14 Aluminum (SpectroLith WALK2 Model) {F11.4}
DWGD_WALK2.PPM                                         :Dry Weight Fraction Gadolinium (SpectroLith WALK2 Model) {F11.4}
DWSI_WALK2.                                            :Dry Weight Fraction Silicon (SpectroLith WALK2 Model) {F11.4}
DWSU_WALK2.                                            :Dry Weight Fraction Sulfur (SpectroLith WALK2 Model) {F11.4}
DWTI_WALK2.                                            :Dry Weight Fraction Titanium (SpectroLith WALK2 Model) {F11.4}
ECGR .GAPI                                             :Environmentally Corrected Gamma-Ray {F11.4}
ECST .DEGF                                             :ECS Temperature {F11.4}
ESUF_WALK2.                                            :Elemental Statistical Uncertainty Factor (SpectroLith WALK2 Model) {F11.4}
GDEV .DEG                                              :HGNS Deviation {F11.4}
GR   .GAPI                                             :Gamma-Ray {F11.4}
GTEM .DEGF                                             :Generalized Borehole Temperature {F11.4}
HGR  .GAPI                                             :HiRes Gamma-Ray {F11.4}
HNPO .CFCF                                             :HiRes Enhanced Thermal Neutron Porosity {F11.4}
HTNP .CFCF                                             :HiRes Thermal Neutron Porosity {F11.4}
NPHI .CFCF                                             :Thermal Neutron Porosity (Ratio Method) {F11.4}
NPOR .CFCF                                             :Enhanced Thermal Neutron Porosity {F11.4}
QCPMT.                                                 :Photomultiplier Tube Quality Control {F11.4}
RHGE_WALK2.G/C3                                        :Matrix Density from Elemental Concentrations (SpectroLith WALK2 Model) {F11.4}
RWA  .OHMM                                             :Apparent Water Resistivity {F11.4}
STIT .F                                                :Stuck Tool Indicator, Total {F11.4}
TENS .LBF                                              :Cable Tension {F11.4}
TNPH .CFCF                                             :Thermal Neutron Porosity {F11.4}
WANH_WALK2.                                            :Dry Weight Fraction Anhydrite/Gypsum (SpectroLith WALK2 Model) {F11.4}
WCAR_WALK2.                                            :Dry Weight Fraction Carbonate (SpectroLith WALK2 Model) {F11.4}
WCLA_WALK2.                                            :Dry Weight Fraction Clay (SpectroLith WALK2 Model) {F11.4}
WCOA_WALK2.                                            :Dry Weight Fraction Coal (SpectroLith WALK2 Model) {F11.4}
WEVA_WALK2.                                            :Dry Weight Fraction Salt (SpectroLith WALK2 Model) {F11.4}
WPYR_WALK2.                                            :Dry Weight Fraction Pyrite (SpectroLith WALK2 Model) {F11.4}
WQFM_WALK2.                                            :Dry Weight Fraction Quartz+Feldspar+Mica (QFM) (SpectroLith WALK2 Model) {F11.4}
WSID_WALK2.                                            :Dry Weight Fraction Siderite (SpectroLith WALK2 Model) {F11.4}
#-----------------------------------------------------------------------------
# 
#      DEPT        CDF        CFTC       CNTC       CTEM       DCAL       DNPH    DWAL_WALK2 DWCA_WALK2 DWFE_WALK2 DWGD_WALK2 DWSI_WALK2 DWSU_WALK2 DWTI_WALK2    ECGR       ECST    ESUF_WALK2    GDEV        GR        GTEM       HGR        HNPO       HTNP       NPHI       NPOR      QCPMT    RHGE_WALK2    RWA        STIT       TENS       TNPH    WANH_WALK2 WCAR_WALK2 WCLA_WALK2 WCOA_WALK2 WEVA_WALK2 WPYR_WALK2 WQFM_WALK2 WSID_WALK2
#
~A  
# ...
   7169.0000 -9982.7959     0.5833     4.3156   222.8708     0.0000    -0.0354     0.0210     0.3363     0.0125     2.5999     0.0375     0.0021     0.0000   158.3223    47.1620     0.4779     2.8133   160.8612   210.9850   158.7807  -999.2500  -999.2500    -0.0538  -999.2500     1.7004     2.7257     1.0000     0.0000  2472.0000  -999.2500     0.0000     0.8295     0.1054     0.0000     0.0000     0.0039     0.0611     0.0000
   7169.5000 -9983.5068    -1.2150     2.6290   222.8708     0.0000    -0.0354     0.0194     0.3396     0.0114     1.9703     0.0366     0.0035     0.0000   147.4433    47.1620     0.4749     2.8434   149.8077   210.9850   151.4009  -999.2500  -999.2500    -0.0312  -999.2500     1.2579     2.7258     1.0000     0.0000  2456.0000  -999.2500     0.0000     0.8386     0.0975     0.0000     0.0000     0.0065     0.0573     0.0000
   7170.0000 -9983.1514    -5.2613     3.6877   222.8708     0.0000    -0.0354     0.0251     0.3361     0.0143     3.4065     0.0309     0.0070     0.0000   143.9476    47.1620     0.4658     2.7717   146.2559   210.9850   140.9325  -999.2500  -999.2500    -0.0112  -999.2500     1.2049     2.7349     1.0000     0.0000  2422.0000  -999.2500     0.0000     0.8292     0.1261     0.0000     0.0000     0.0131     0.0317     0.0000
   7170.5000 -9983.1514    -5.6811     3.5608   222.8708     0.0000    -0.0354     0.0283     0.3239     0.0185     2.0760     0.0313     0.0131     0.0000   145.4834    48.3325     0.5171     2.8834   147.8164   210.9850   147.0120  -999.2500  -999.2500    -0.0216  -999.2500     0.3890     2.7476     1.0000     0.0000  2445.0000  -999.2500     0.0000     0.8211     0.1423     0.0000     0.0000     0.0245     0.0122     0.0000
   7171.0000 -9983.1514    -4.3324     1.6328   222.8708     0.0000    -0.0354     0.0382     0.2872     0.0278     3.5582     0.0422     0.0266     0.0012   184.8400    48.3325     0.5693     2.9072   187.8041   210.9850   154.1967  -999.2500  -999.2500     0.7790  -999.2500     0.3491     2.7745     1.0000     0.0000  2449.0000  -999.2500     0.0000     0.7606     0.1900     0.0000     0.0000     0.0494     0.0000     0.0000
   7171.5000 -9982.4404     1.3601    -1.2942   222.8708     0.0000    -0.0354     0.0597     0.2371     0.0378     2.6280     0.0660     0.0435     0.0017   273.7043    45.9914     0.6153     2.9219   278.0934   210.9850   265.3820  -999.2500  -999.2500     0.6425  -999.2500     0.2559     2.8044     1.0000     0.0000  2408.0000  -999.2500     0.0000     0.6225     0.2972     0.0000     0.0000     0.0804     0.0000     0.0000
   7172.0000 -9982.7959    -2.7455    -2.7382   222.8708     0.0000    -0.0354     0.0774     0.1958     0.0451     4.5626     0.0855     0.0472     0.0018   374.6874    45.9914     0.6284     2.8592   380.6960   210.9850   418.9933  -999.2500  -999.2500  -999.2500  -999.2500     0.1833     2.8149     1.0000     0.0000  2421.0000  -999.2500     0.0000     0.5292     0.3836     0.0000     0.0000     0.0871     0.0000     0.0000
   7172.5000 -9984.2178    -0.0478    -1.2923   222.8708     0.0000    -0.0354     0.0879     0.1764     0.0495     5.0955     0.0972     0.0470     0.0011   429.9146    45.9914     0.6539     2.9085   436.8087   210.9850   462.6872  -999.2500  -999.2500  -999.2500  -999.2500     0.0684     2.8195     1.0000     0.0000  2415.0000  -999.2500     0.0000     0.4703     0.4418     0.0000     0.0000     0.0879     0.0000     0.0000
   7173.0000 -9983.1514    -5.7404    -1.8883   222.8708     0.0000    -0.0354     0.0935     0.1659     0.0514     6.9659     0.1034     0.0411     0.0006   422.3633    45.9914     0.7137     2.8099   429.1363   210.9850   428.7464  -999.2500  -999.2500  -999.2500  -999.2500     0.0815     2.8143     1.0000     0.0000  2420.0000  -999.2500     0.0000     0.4385     0.4699     0.0000     0.0000     0.0769     0.0147     0.0000
   7173.5000 -9982.7959    -7.5135    -1.4075   222.8708     0.0000    -0.0354     0.0940     0.1695     0.0522     6.5913     0.1039     0.0421     0.0002   416.0919    45.9914     0.7212     2.8436   422.7643   210.9850   395.9760  -999.2500  -999.2500  -999.2500  -999.2500     0.0154     2.8180     1.0000     0.0000  2427.0000  -999.2500     0.0000     0.4137     0.4725     0.0000     0.0000     0.0788     0.0350     0.0000
   7174.0000 -9983.1514    -8.8562     2.0516   222.8708     0.0000    -0.0354     0.0918     0.1790     0.0493     3.6213     0.1015     0.0426     0.0000   393.0539    45.9914     0.7131     2.8195   399.3569   211.2366   443.5711  -999.2500  -999.2500    -0.0402  -999.2500     0.3481     2.8147     1.0000     0.0000  2411.0000  -999.2500     0.0000     0.4170     0.4614     0.0000     0.0000     0.0797     0.0420     0.0000
   7174.5000 -9983.8623    -5.2594     5.1822   222.8708     0.0000    -0.0354     0.0836     0.1940     0.0464     0.0000     0.0924     0.0420     0.0003   363.3605    45.9914     0.6941     2.8433   369.1873   210.9850   358.5241  -999.2500  -999.2500    -0.0350  -999.2500     0.9973     2.8112     1.0000     0.0000  2407.0000  -999.2500     0.0000     0.4671     0.4200     0.0000     0.0000     0.0785     0.0344     0.0000
   7175.0000 -9984.9287    -3.1622     2.9001   222.8708     0.0000    -0.0354     0.0829     0.1965     0.0449     0.0000     0.0944     0.0399     0.0006   304.3576    45.9914     0.7089     2.8733   309.2383   211.4883   305.4673  -999.2500  -999.2500    -0.0312  -999.2500     0.6993     2.8063     1.0000     0.0000  2435.0000  -999.2500     0.0000     0.4536     0.4218     0.0000     0.0000     0.0746     0.0500     0.0000
   7175.5000 -9983.5068    -5.8611     6.7604   222.8708     0.0000    -0.0354     0.0844     0.1930     0.0464     0.4954     0.0953     0.0332     0.0015   274.6368    45.9914     0.6748     2.9107   279.0409   211.4883   263.7240  -999.2500  -999.2500    -0.0470  -999.2500     0.2784     2.8006     1.0000     0.0000  2431.0000  -999.2500     0.0000     0.4442     0.4314     0.0000     0.0000     0.0621     0.0623     0.0000
   7176.0000 -9982.7959    -4.5121     6.7616   222.8708     0.0000    -0.0354     0.0827     0.1851     0.0463     4.6576     0.1067     0.0245     0.0022   268.4933    45.9914     0.6676     2.8592   272.7989   211.4883   266.7475   106.9835   109.7288    -0.0621  -999.2500     0.4037     2.7888     1.0000     0.0000  2411.0000  -999.2500     0.0000     0.4229     0.4202     0.0000     0.0000     0.0459     0.1110     0.0000
   7176.5000 -9983.1514     0.9419     6.0009   222.8708     0.0000    -0.0354     0.0784     0.1911     0.0445     8.0058     0.1066     0.0185     0.0022   267.7254    45.9914     0.6459     2.8079   272.0186   211.4883   285.7660     0.0909     0.6274    -0.0557     1.7625     0.1649     2.7794     1.0000     0.0000  2413.0000     4.2871     0.0000     0.4390     0.3941     0.0000     0.0000     0.0347     0.1323     0.0000
   7177.0000 -9983.5068     1.8362     6.2419   222.8708     0.0000     0.0009     0.0713     0.1984     0.0404     7.3767     0.1106     0.0183     0.0017   262.7887    45.9914     0.6193     2.8295   267.0028   211.4883   261.3833     0.0209     0.4715    -0.0452     0.5276     0.1757     2.7728     1.0000     0.0000  2398.0000     0.5658     0.0000     0.4587     0.3584     0.0000     0.0000     0.0343     0.1486     0.0000
   7177.5000 -9984.5732     0.4939     7.5634   222.8708     0.0000    -4.7346     0.0644     0.2194     0.0359     5.9090     0.0987     0.0226     0.0008   242.2705    46.5767     0.5853     2.7808   246.1555   211.4883   254.1660    12.6706    17.2070    -0.0076    35.7282     0.4116     2.7733     1.0000     0.0000  2454.0000    41.3184     0.0000     0.5152     0.3238     0.0000     0.0000     0.0423     0.1186     0.0000
   7178.0000 -9983.1514     2.1725     5.4208   222.8708     0.0000    -0.0000     0.0608     0.2317     0.0331     3.9329     0.0914     0.0278     0.0005   228.5117    47.1620     0.5502     2.7692   232.1761   211.4883   224.4516   111.0899    47.3238     0.0653     0.6856     0.5780     2.7763     1.0000     0.0000  2430.0000     0.3351     0.0000     0.5483     0.3056     0.0000     0.0000     0.0520     0.0941     0.0000
