~VERSION INFORMATION
VERS.           1.2   :CWLS Log ASCII Standard - VERSION 1.2
WRAP.           NO    :One Line per depth step
PROD.  Schlumberger   :LAS Producer
PROG.  DLIS to ASCII 17C0-152                          :LAS Program name and version
CREA.        2011/12/13 23:09                          :LAS Creation date {YYYY/MM/DD hh:mm}
DLIS_CREA.  2011-Dec-13 15:28                          :DLIS Creation date and time {YYYY-MMM-DD hh:mm}
SOURCE.     1ba8f76d-360e-4325-8cd9-5cb564d153a7       :DLIS File Name
#--------------------------------------------------
~WELL INFORMATION
#MNEM.UNIT      DATA             DESCRIPTION
#---- ------ --------------   -----------------------------
STRT .F      6646.5000       :START DEPTH     
STOP .F      8231.0000       :STOP DEPTH     
STEP .F       0.5000         :STEP       
NULL .          -999.25      :NULL VALUE
COMP .                 COMPANY:  EOG Resources, Inc.                
WELL .                    WELL:  Garden Creek 32-07M                
FLD  .                   FIELD:  Wildcat                            
LOC  .                LOCATION:  Lat/ Long : 40.9343 / -104.3619    
CNTY .                  COUNTY:  Weld County                        
STAT .                   STATE:  Colorado                           
CTRY .                 COUNTRY:                                     
SRVC .         SERVICE COMPANY:  Schlumberger                       
API  .              API NUMBER:  05-123-34636-00                    
DATE .                LOG DATE:  6-Dec-2011
UWI  .          UNIQUE WELL ID:  5123346360000                      
#-----------------------------------------------------------------------------
~PARAMETER INFORMATION
#MNEM.UNIT    VALUE                      DESCRIPTION
#---- -----   --------------------       ------------------------
CN   .        EOG Resources  Inc.        :Company Name
WN   .        Garden Creek 32-07M        :Well Name
FN   .        Wildcat                    :Field Name
FL   .        Lat/ Long   40.9343 / -104.3619 :Field Location
FL1  .        SHL   1529' FSL X 2266' FEL NWSE :Field Location Line 1
COUN .        Weld County                :County or Rig Name
STAT .        Colorado                   :State or Province
NATI .                                   :Nation
DATE .        6-Dec-2011                 :Date as Month-Day-Year
APIN .        05-123-34636-00            :API Serial Number
SECT .        7                          :Section
TOWN .        11N                        :Township
RANG .        62W                        :Range
DMF  .        Kelly Bushing              :Drilling Measured From
LMF  .        Kelly Bushing              :Log Measured From
PDAT .        Ground Level               :Permanent Datum
ENGI .        Arvin Shi                  :Engineer's Name
WITN .        Danny Cook                 :Witness's Name
LATI .                                   :Latitude
LONG .                                   :Longitude
LUL  .        Fort Morgan                :Logging Unit Location
LUN  .              7006                 :Logging Unit Number
RUN  .        Two                        :Run Number
SON  .        BOAA-00063                 :Service Order Number
BHT  .DEGF     211.99986                 :Bottom Hole Temperature (used in calculations)
BS   .IN         7.87500                 :Bit Size
DFD  .LB/G       9.70000                 :Drilling Fluid Density
DFV  .S         39.00000                 :Drilling Fluid Viscosity
DFL  .                                   :Drilling Fluid Loss
RMFS .OHMM       0.47250                 :Resistivity of Mud Filtrate Sample
EKB  .F       5290.00000                 :Elevation of Kelly Bushing
EGL  .F       5265.00000                 :Elevation of Ground Level
BLI  .F       8212.00000                 :Bottom Log Interval
BSAL .PPM     1000.00000                 :Borehole Salinity
FLEV .                                   :Fluid Level
MCST .DEGF      86.60000                 :Mud Cake Sample Temperature
MFST .DEGF      86.60000                 :Mud Filtrate Sample Temperature
MRT  .DEGF     216.00000                 :Maximum Recorded Temperature
MST  .DEGF      86.60000                 :Mud Sample Temperature
RMCS .OHMM       0.78750                 :Resistivity of Mud Cake Sample
RMS  .OHMM       0.63000                 :Resistivity of Mud Sample
RW   .OHMM       1.00000                 :Resistivity of Connate Water
TDD  .F       8200.00000                 :Total Depth - Driller
TDL  .F       8212.00000                 :Total Depth - Logger
TLI  .F       1340.00000                 :Top Log Interval
HIDE .        Platform Express           :Header Identifier
MATR .        LIME                       :Rock Matrix for Neutron Porosity Corrections
FNUM .           1.00000                 :Form Factor Numerator
FEXP .           2.00000                 :Form Factor Exponent
DFT  .        Water Based Mud            :Drilling Fluid Type
DFPH .           8.00000                 :Drilling Fluid PH
MCSS .        Calculated                 :Mud Cake Sample Source
MFSS .        Calculated                 :Mud Filtrate Sample Source
MSS  .        Mud Flow                   :Mud Sample Source
OS1  .        HNGS                       :Other Services Line 1
OS2  .        MSIP                       :Other Services Line 2
OS3  .        FMI                        :Other Services Line 3
OS4  .        PEX                        :Other Services Line 4
OS5  .                                   :Other Services Line 5
R1   .        This is the first run in hole :Remark Line 1
R2   .                                   :Remark Line 2
R3   .        Toolstring run as per tool sketch :Remark Line 3
R4   .                                   :Remark Line 4
R5   .        Matrix  Limestone (2.71 g/cc) :Remark Line 5
R6   .                                   :Remark Line 6
R7   .        Main log and repeat log correlated to correlation log around 7000-8000 ft :Remark Line 7
R8   .                                   :Remark Line 8
TCS  .        17 30                      :Time Circulation Stopped
TLAB .        11 30                      :Time Logger At Bottom
NMT  .        NOBARITE                   :HILT Nuclear Mud Type
EPD  .F         5265.000000              :Elevation of Permanent Datum above Mean Sea Level
APD  .F          25.000000               :Elevation of Depth Reference (LMF) above Permanent Datum
#-----------------------------------------------------------------------------
~CURVE INFORMATION
#MNEM.UNIT   API CODE                                  DESCRIPTION
#---- -----  --------                                  -----------------------
DEPT .F                                                :DEPTH (BOREHOLE) {F12.4}
CDF  .LBF                                              :Calibrated Downhole Force {F11.4}
CFTC .HZ                                               :Corrected Far Thermal Counting Rate {F11.4}
CNTC .HZ                                               :Corrected Near Thermal Counting Rate {F11.4}
CTEM .DEGF                                             :Cartridge Temperature {F11.4}
DCAL .IN                                               :Differential Caliper {F11.4}
DNPH .CFCF                                             :Delta Thermal Neutron Porosity {F11.4}
DWAL_WALK2.                                            :Dry Weight Fraction Pseudo Aluminum (SpectroLith WALK2 Model) {F11.4}
DWCA_WALK2.                                            :Dry Weight Fraction Calcium (SpectroLith WALK2 Model) {F11.4}
DWFE_WALK2.                                            :Dry Weight Fraction Iron + 0.14 Aluminum (SpectroLith WALK2 Model) {F11.4}
DWGD_WALK2.PPM                                         :Dry Weight Fraction Gadolinium (SpectroLith WALK2 Model) {F11.4}
DWSI_WALK2.                                            :Dry Weight Fraction Silicon (SpectroLith WALK2 Model) {F11.4}
DWSU_WALK2.                                            :Dry Weight Fraction Sulfur (SpectroLith WALK2 Model) {F11.4}
DWTI_WALK2.                                            :Dry Weight Fraction Titanium (SpectroLith WALK2 Model) {F11.4}
ECGR .GAPI                                             :Environmentally Corrected Gamma-Ray {F11.4}
ECST .DEGF                                             :ECS Temperature {F11.4}
ESUF_WALK2.                                            :Elemental Statistical Uncertainty Factor (SpectroLith WALK2 Model) {F11.4}
GDEV .DEG                                              :HGNS Deviation {F11.4}
GR   .GAPI                                             :Gamma-Ray {F11.4}
GTEM .DEGF                                             :Generalized Borehole Temperature {F11.4}
HGR  .GAPI                                             :HiRes Gamma-Ray {F11.4}
HNPO .CFCF                                             :HiRes Enhanced Thermal Neutron Porosity {F11.4}
HTNP .CFCF                                             :HiRes Thermal Neutron Porosity {F11.4}
NPHI .CFCF                                             :Thermal Neutron Porosity (Ratio Method) {F11.4}
NPOR .CFCF                                             :Enhanced Thermal Neutron Porosity {F11.4}
QCPMT.                                                 :Photomultiplier Tube Quality Control {F11.4}
RHGE_WALK2.G/C3                                        :Matrix Density from Elemental Concentrations (SpectroLith WALK2 Model) {F11.4}
RWA  .OHMM                                             :Apparent Water Resistivity {F11.4}
STIT .F                                                :Stuck Tool Indicator, Total {F11.4}
TENS .LBF                                              :Cable Tension {F11.4}
TNPH .CFCF                                             :Thermal Neutron Porosity {F11.4}
WANH_WALK2.                                            :Dry Weight Fraction Anhydrite/Gypsum (SpectroLith WALK2 Model) {F11.4}
WCAR_WALK2.                                            :Dry Weight Fraction Carbonate (SpectroLith WALK2 Model) {F11.4}
WCLA_WALK2.                                            :Dry Weight Fraction Clay (SpectroLith WALK2 Model) {F11.4}
WCOA_WALK2.                                            :Dry Weight Fraction Coal (SpectroLith WALK2 Model) {F11.4}
WEVA_WALK2.                                            :Dry Weight Fraction Salt (SpectroLith WALK2 Model) {F11.4}
WPYR_WALK2.                                            :Dry Weight Fraction Pyrite (SpectroLith WALK2 Model) {F11.4}
WQFM_WALK2.                                            :Dry Weight Fraction Quartz+Feldspar+Mica (QFM) (SpectroLith WALK2 Model) {F11.4}
WSID_WALK2.                                            :Dry Weight Fraction Siderite (SpectroLith WALK2 Model) {F11.4}
#-----------------------------------------------------------------------------
# 
#      DEPT        CDF        CFTC       CNTC       CTEM       DCAL       DNPH    DWAL_WALK2 DWCA_WALK2 DWFE_WALK2 DWGD_WALK2 DWSI_WALK2 DWSU_WALK2 DWTI_WALK2    ECGR       ECST    ESUF_WALK2    GDEV        GR        GTEM       HGR        HNPO       HTNP       NPHI       NPOR      QCPMT    RHGE_WALK2    RWA        STIT       TENS       TNPH    WANH_WALK2 WCAR_WALK2 WCLA_WALK2 WCOA_WALK2 WEVA_WALK2 WPYR_WALK2 WQFM_WALK2 WSID_WALK2
#
~A  
# ...
   8014.5000 -9984.9287    -8.0839    -1.7921   218.9178     0.0000    -0.0007     0.0152     0.0054     0.0047     3.9269     0.4381     0.0158     0.0012    43.7722    44.8209     0.4619     2.5658    44.4741   218.5346    39.0124  -999.2500  -999.2500    -0.0145  -999.2500     0.5760     2.6710     1.0000     0.0000  2651.0000  -999.2500     0.0000     0.0000     0.0765     0.0000     0.0000     0.0102     0.9133     0.0000
   8015.0000 -9984.5732    -6.1622    -3.5889   218.9178     0.0000    -0.0007     0.0137     0.0106     0.0043     3.5007     0.4344     0.0114     0.0010    45.5640    43.6503     0.4392     2.5642    46.2947   218.5346    53.0569  -999.2500  -999.2500  -999.2500  -999.2500     0.2416     2.6658     1.0000     0.0000  2653.0000  -999.2500     0.0000     0.0000     0.0687     0.0000     0.0000     0.0092     0.9221     0.0000
   8015.5000 -9984.9287    -2.4745    -3.5915   218.9178     0.0000    -0.0007     0.0167     0.0088     0.0063     3.5493     0.4309     0.0074     0.0011    47.4839    43.6503     0.4276     2.5571    48.2453   218.5346    47.0750  -999.2500  -999.2500  -999.2500  -999.2500     0.5019     2.6644     1.0000     0.0000  2661.0000  -999.2500     0.0000     0.0000     0.0837     0.0000     0.0000     0.0135     0.9028     0.0000
   8016.0000 -9984.9287    -0.6720    -4.0393   218.9178     0.0000    -0.0007     0.0209     0.0087     0.0086     3.1094     0.4236     0.0082     0.0010    43.1322    43.6503     0.4118     2.5329    43.8239   218.5346    44.8643  -999.2500  -999.2500  -999.2500  -999.2500     0.6874     2.6698     1.0000     0.0000  2661.0000  -999.2500     0.0000     0.0000     0.1048     0.0000     0.0000     0.0154     0.8798     0.0000
   8016.5000 -9984.9287     2.3520    -3.9743   218.9178     0.0000    -0.0007     0.0242     0.0054     0.0109     2.8395     0.4213     0.0063     0.0011    40.4445    43.6503     0.4009     2.4814    41.0930   218.5346    39.7927  -999.2500  -999.2500  -999.2500  -999.2500     0.6765     2.6710     1.0000     0.0000  2630.0000  -999.2500     0.0000     0.0000     0.1215     0.0000     0.0000     0.0118     0.8667     0.0000
   8017.0000 -9984.9287     7.0557    -1.5338   218.9178     0.0000    -0.0007     0.0243     0.0037     0.0106     1.3774     0.4235     0.0044     0.0010    37.0048    45.9914     0.3906     2.4090    37.5982   218.5346    38.6223  -999.2500  -999.2500  -999.2500  -999.2500     0.2954     2.6680     1.0000     0.0000  2621.0000  -999.2500     0.0000     0.0000     0.1220     0.0000     0.0000     0.0083     0.8697     0.0000
   8017.5000 -9984.5732    10.6492     0.1837   218.9178     0.0000    -0.0007     0.0216     0.0000     0.0088     1.2243     0.4328     0.0000     0.0011    33.0005    45.9914     0.3824     2.5085    33.5297   218.5346    34.1359  -999.2500  -999.2500    -0.0454  -999.2500     0.5525     2.6587     1.0000     0.0000  2671.0000  -999.2500     0.0000     0.0000     0.1084     0.0000     0.0000     0.0000     0.8916     0.0000
   8018.0000 -9984.5732    10.2067     2.1151   218.9178     0.0000    -0.0007     0.0167     0.0000     0.0064     1.5379     0.4409     0.0000     0.0012    28.0090    43.6503     0.3712     2.5490    28.4581   218.5346    27.4063    -0.1407    -0.0551    -0.1205    -0.1051     0.6290     2.6544     1.0000     0.0000  2684.0000    -0.0537     0.0000     0.0000     0.0841     0.0000     0.0000     0.0000     0.9159     0.0000
   8018.5000 -9985.9951     9.3674     0.7628   218.9178     0.0000    -0.0005     0.0128     0.0000     0.0047     3.0350     0.4474     0.0000     0.0014    24.2893    43.6503     0.3701     2.5963    24.6788   218.5346    23.2774    -0.1210    -0.0608    -0.1156    -0.0458     1.3529     2.6513     1.0000     0.0000  2658.0000    -0.0682     0.0000     0.0000     0.0644     0.0000     0.0000     0.0000     0.9356     0.0000
   8019.0000 -9985.6396     3.0723     1.4856   218.9178     0.0000    -0.0014     0.0140     0.0000     0.0052     3.6949     0.4454     0.0000     0.0013    26.1177    42.4798     0.3644     2.5872    26.5365   218.5346    23.2124    -0.1364    -0.0283    -0.1120    -0.1237     1.4268     2.6522     1.0000     0.0000  2654.0000    -0.0180     0.0000     0.0000     0.0706     0.0000     0.0000     0.0000     0.9294     0.0000
   8019.5000 -9984.9287     0.9104     2.1637   218.9178     0.0000     0.0010     0.0172     0.0000     0.0066     3.6706     0.4402     0.0000     0.0010    27.5256    42.4798     0.3816     2.3554    27.9670   218.5346    33.1606    -0.0827     0.2417     4.5241    -0.0358     1.3852     2.6547     1.0000     0.0000  2699.0000     0.0325     0.0000     0.0000     0.0864     0.0000     0.0000     0.0000     0.9136     0.0000
   8020.0000 -9985.6396     0.6433     0.4771   218.9178     0.0000     0.0010     0.0197     0.0012     0.0079     3.0113     0.4345     0.0034     0.0009    28.7975    43.6503     0.3796     2.5434    29.2593   218.5346    27.6988  -999.2500  -999.2500     4.7650  -999.2500     0.9536     2.6614     1.0000     0.0000  2671.0000  -999.2500     0.0000     0.0000     0.0988     0.0000     0.0000     0.0063     0.8949     0.0000
   8020.5000 -9983.8623     0.6433    -2.1770   218.9178     0.0000     0.0010     0.0180     0.0044     0.0069     2.3211     0.4338     0.0036     0.0010    29.6934    43.6503     0.3895     2.8250    30.1696   218.5346    26.9186  -999.2500  -999.2500     3.9640  -999.2500     0.5112     2.6603     1.0000     0.0000  2654.0000  -999.2500     0.0000     0.0000     0.0904     0.0000     0.0000     0.0067     0.9029     0.0000
   8021.0000 -9984.5732    -4.8128    -2.1746   218.9178     0.0000     0.0010     0.0145     0.0061     0.0054     2.4506     0.4375     0.0004     0.0011    30.9733    43.6503     0.3997     2.6515    31.4700   218.5346    35.8914  -999.2500  -999.2500  -999.2500  -999.2500     0.2877     2.6541     1.0000     0.0000  2620.0000  -999.2500     0.0000     0.0000     0.0730     0.0000     0.0000     0.0008     0.9262     0.0000
   8021.5000 -9983.8623    -9.7587    -2.6565   218.9178     0.0000     0.0010     0.0116     0.0056     0.0042     3.2021     0.4428     0.0000     0.0013    33.2771    43.6503     0.4045     2.7015    33.8107   218.5346    31.6001  -999.2500  -999.2500  -999.2500  -999.2500     0.9018     2.6513     1.0000     0.0000  2611.0000  -999.2500     0.0000     0.0000     0.0581     0.0000     0.0000     0.0000     0.9419     0.0000
   8022.0000 -9985.6396   -11.2587    -2.6599   218.9178     0.0000     0.0010     0.0143     0.0109     0.0054     4.7474     0.4322     0.0000     0.0014    30.9813    44.8209     0.3720     2.4580    31.4781   218.5346    33.9408  -999.2500  -999.2500  -999.2500  -999.2500     1.4297     2.6545     1.0000     0.0000  2651.0000  -999.2500     0.0000     0.0000     0.0718     0.0000     0.0000     0.0000     0.9282     0.0000
   8022.5000 -9984.5732    -5.3829    -0.6663   218.9178     0.0000     0.0010     0.0170     0.0134     0.0067     5.3015     0.4247     0.0000     0.0013    28.9335    45.9914     0.3606     2.5500    29.3975   218.5346    28.8692  -999.2500  -999.2500  -999.2500  -999.2500     0.8067     2.6573     1.0000     0.0000  2663.0000  -999.2500     0.0000     0.0000     0.0854     0.0000     0.0000     0.0000     0.9146     0.0000
   8023.0000 -9984.9287    -1.7860     2.4663   218.9178     0.0000     0.0010     0.0189     0.0167     0.0077     5.1873     0.4177     0.0012     0.0011    25.7338    44.8209     0.3510     2.7152    26.1464   218.5346    25.6507     9.6007     7.7682    -0.0411  -999.2500     0.2619     2.6609     1.0000     0.0000  2636.0000  -999.2500     0.0000     0.0000     0.0949     0.0000     0.0000     0.0022     0.9028     0.0000
   8023.5000 -9983.8623     1.0628     3.0591   218.9178     0.0000     0.0010     0.0194     0.0110     0.0076     3.4053     0.4237     0.0075     0.0008    24.9578    43.6503     0.3521     2.8059    25.3580   218.5346    24.1877    -0.0529     0.3259    -0.1484     0.6675     0.4101     2.6674     1.0000     0.0000  2628.0000     0.4367     0.0000     0.0000     0.0974     0.0000     0.0000     0.0140     0.8886     0.0000
