~VERSION INFORMATION
VERS.           1.2   :CWLS Log ASCII Standard - VERSION 1.2
WRAP.           NO    :One Line per depth step
PROD.  Schlumberger   :LAS Producer
PROG.  DLIS to ASCII 17C0-152                          :LAS Program name and version
CREA.        2011/12/13 23:09                          :LAS Creation date {YYYY/MM/DD hh:mm}
DLIS_CREA.  2011-Dec-13 15:28                          :DLIS Creation date and time {YYYY-MMM-DD hh:mm}
SOURCE.     1ba8f76d-360e-4325-8cd9-5cb564d153a7       :DLIS File Name
#--------------------------------------------------
~WELL INFORMATION
#MNEM.UNIT      DATA             DESCRIPTION
#---- ------ --------------   -----------------------------
STRT .F      6646.5000       :START DEPTH     
STOP .F      8231.0000       :STOP DEPTH     
STEP .F       0.5000         :STEP       
NULL .          -999.25      :NULL VALUE
COMP .                 COMPANY:  EOG Resources, Inc.                
WELL .                    WELL:  Garden Creek 32-07M                
FLD  .                   FIELD:  Wildcat                            
LOC  .                LOCATION:  Lat/ Long : 40.9343 / -104.3619    
CNTY .                  COUNTY:  Weld County                        
STAT .                   STATE:  Colorado                           
CTRY .                 COUNTRY:                                     
SRVC .         SERVICE COMPANY:  Schlumberger                       
API  .              API NUMBER:  05-123-34636-00                    
DATE .                LOG DATE:  6-Dec-2011
UWI  .          UNIQUE WELL ID:  5123346360000                      
#-----------------------------------------------------------------------------
~PARAMETER INFORMATION
#MNEM.UNIT    VALUE                      DESCRIPTION
#---- -----   --------------------       ------------------------
CN   .        EOG Resources  Inc.        :Company Name
WN   .        Garden Creek 32-07M        :Well Name
FN   .        Wildcat                    :Field Name
FL   .        Lat/ Long   40.9343 / -104.3619 :Field Location
FL1  .        SHL   1529' FSL X 2266' FEL NWSE :Field Location Line 1
COUN .        Weld County                :County or Rig Name
STAT .        Colorado                   :State or Province
NATI .                                   :Nation
DATE .        6-Dec-2011                 :Date as Month-Day-Year
APIN .        05-123-34636-00            :API Serial Number
SECT .        7                          :Section
TOWN .        11N                        :Township
RANG .        62W                        :Range
DMF  .        Kelly Bushing              :Drilling Measured From
LMF  .        Kelly Bushing              :Log Measured From
PDAT .        Ground Level               :Permanent Datum
ENGI .        Arvin Shi                  :Engineer's Name
WITN .        Danny Cook                 :Witness's Name
LATI .                                   :Latitude
LONG .                                   :Longitude
LUL  .        Fort Morgan                :Logging Unit Location
LUN  .              7006                 :Logging Unit Number
RUN  .        Two                        :Run Number
SON  .        BOAA-00063                 :Service Order Number
BHT  .DEGF     211.99986                 :Bottom Hole Temperature (used in calculations)
BS   .IN         7.87500                 :Bit Size
DFD  .LB/G       9.70000                 :Drilling Fluid Density
DFV  .S         39.00000                 :Drilling Fluid Viscosity
DFL  .                                   :Drilling Fluid Loss
RMFS .OHMM       0.47250                 :Resistivity of Mud Filtrate Sample
EKB  .F       5290.00000                 :Elevation of Kelly Bushing
EGL  .F       5265.00000                 :Elevation of Ground Level
BLI  .F       8212.00000                 :Bottom Log Interval
BSAL .PPM     1000.00000                 :Borehole Salinity
FLEV .                                   :Fluid Level
MCST .DEGF      86.60000                 :Mud Cake Sample Temperature
MFST .DEGF      86.60000                 :Mud Filtrate Sample Temperature
MRT  .DEGF     216.00000                 :Maximum Recorded Temperature
MST  .DEGF      86.60000                 :Mud Sample Temperature
RMCS .OHMM       0.78750                 :Resistivity of Mud Cake Sample
RMS  .OHMM       0.63000                 :Resistivity of Mud Sample
RW   .OHMM       1.00000                 :Resistivity of Connate Water
TDD  .F       8200.00000                 :Total Depth - Driller
TDL  .F       8212.00000                 :Total Depth - Logger
TLI  .F       1340.00000                 :Top Log Interval
HIDE .        Platform Express           :Header Identifier
MATR .        LIME                       :Rock Matrix for Neutron Porosity Corrections
FNUM .           1.00000                 :Form Factor Numerator
FEXP .           2.00000                 :Form Factor Exponent
DFT  .        Water Based Mud            :Drilling Fluid Type
DFPH .           8.00000                 :Drilling Fluid PH
MCSS .        Calculated                 :Mud Cake Sample Source
MFSS .        Calculated                 :Mud Filtrate Sample Source
MSS  .        Mud Flow                   :Mud Sample Source
OS1  .        HNGS                       :Other Services Line 1
OS2  .        MSIP                       :Other Services Line 2
OS3  .        FMI                        :Other Services Line 3
OS4  .        PEX                        :Other Services Line 4
OS5  .                                   :Other Services Line 5
R1   .        This is the first run in hole :Remark Line 1
R2   .                                   :Remark Line 2
R3   .        Toolstring run as per tool sketch :Remark Line 3
R4   .                                   :Remark Line 4
R5   .        Matrix  Limestone (2.71 g/cc) :Remark Line 5
R6   .                                   :Remark Line 6
R7   .        Main log and repeat log correlated to correlation log around 7000-8000 ft :Remark Line 7
R8   .                                   :Remark Line 8
TCS  .        17 30                      :Time Circulation Stopped
TLAB .        11 30                      :Time Logger At Bottom
NMT  .        NOBARITE                   :HILT Nuclear Mud Type
EPD  .F         5265.000000              :Elevation of Permanent Datum above Mean Sea Level
APD  .F          25.000000               :Elevation of Depth Reference (LMF) above Permanent Datum
#-----------------------------------------------------------------------------
~CURVE INFORMATION
#MNEM.UNIT   API CODE                                  DESCRIPTION
#---- -----  --------                                  -----------------------
DEPT .F                                                :DEPTH (BOREHOLE) {F12.4}
CDF  .LBF                                              :Calibrated Downhole Force {F11.4}
CFTC .HZ                                               :Corrected Far Thermal Counting Rate {F11.4}
CNTC .HZ                                               :Corrected Near Thermal Counting Rate {F11.4}
CTEM .DEGF                                             :Cartridge Temperature {F11.4}
DCAL .IN                                               :Differential Caliper {F11.4}
DNPH .CFCF                                             :Delta Thermal Neutron Porosity {F11.4}
DWAL_WALK2.                                            :Dry Weight Fraction Pseudo Aluminum (SpectroLith WALK2 Model) {F11.4}
DWCA_WALK2.                                            :Dry Weight Fraction Calcium (SpectroLith WALK2 Model) {F11.4}
DWFE_WALK2.                                            :Dry Weight Fraction Iron + 0.14 Aluminum (SpectroLith WALK2 Model) {F11.4}
DWGD_WALK2.PPM                                         :Dry Weight Fraction Gadolinium (SpectroLith WALK2 Model) {F11.4}
DWSI_WALK2.                                            :Dry Weight Fraction Silicon (SpectroLith WALK2 Model) {F11.4}
DWSU_WALK2.                                            :Dry Weight Fraction Sulfur (SpectroLith WALK2 Model) {F11.4}
DWTI_WALK2.                                            :Dry Weight Fraction Titanium (SpectroLith WALK2 Model) {F11.4}
ECGR .GAPI                                             :Environmentally Corrected Gamma-Ray {F11.4}
ECST .DEGF                                             :ECS Temperature {F11.4}
ESUF_WALK2.                                            :Elemental Statistical Uncertainty Factor (SpectroLith WALK2 Model) {F11.4}
GDEV .DEG                                              :HGNS Deviation {F11.4}
GR   .GAPI                                             :Gamma-Ray {F11.4}
GTEM .DEGF                                             :Generalized Borehole Temperature {F11.4}
HGR  .GAPI                                             :HiRes Gamma-Ray {F11.4}
HNPO .CFCF                                             :HiRes Enhanced Thermal Neutron Porosity {F11.4}
HTNP .CFCF                                             :HiRes Thermal Neutron Porosity {F11.4}
NPHI .CFCF                                             :Thermal Neutron Porosity (Ratio Method) {F11.4}
NPOR .CFCF                                             :Enhanced Thermal Neutron Porosity {F11.4}
QCPMT.                                                 :Photomultiplier Tube Quality Control {F11.4}
RHGE_WALK2.G/C3                                        :Matrix Density from Elemental Concentrations (SpectroLith WALK2 Model) {F11.4}
RWA  .OHMM                                             :Apparent Water Resistivity {F11.4}
STIT .F                                                :Stuck Tool Indicator, Total {F11.4}
TENS .LBF                                              :Cable Tension {F11.4}
TNPH .CFCF                                             :Thermal Neutron Porosity {F11.4}
WANH_WALK2.                                            :Dry Weight Fraction Anhydrite/Gypsum (SpectroLith WALK2 Model) {F11.4}
WCAR_WALK2.                                            :Dry Weight Fraction Carbonate (SpectroLith WALK2 Model) {F11.4}
WCLA_WALK2.                                            :Dry Weight Fraction Clay (SpectroLith WALK2 Model) {F11.4}
WCOA_WALK2.                                            :Dry Weight Fraction Coal (SpectroLith WALK2 Model) {F11.4}
WEVA_WALK2.                                            :Dry Weight Fraction Salt (SpectroLith WALK2 Model) {F11.4}
WPYR_WALK2.                                            :Dry Weight Fraction Pyrite (SpectroLith WALK2 Model) {F11.4}
WQFM_WALK2.                                            :Dry Weight Fraction Quartz+Feldspar+Mica (QFM) (SpectroLith WALK2 Model) {F11.4}
WSID_WALK2.                                            :Dry Weight Fraction Siderite (SpectroLith WALK2 Model) {F11.4}
#-----------------------------------------------------------------------------
# 
#      DEPT        CDF        CFTC       CNTC       CTEM       DCAL       DNPH    DWAL_WALK2 DWCA_WALK2 DWFE_WALK2 DWGD_WALK2 DWSI_WALK2 DWSU_WALK2 DWTI_WALK2    ECGR       ECST    ESUF_WALK2    GDEV        GR        GTEM       HGR        HNPO       HTNP       NPHI       NPOR      QCPMT    RHGE_WALK2    RWA        STIT       TENS       TNPH    WANH_WALK2 WCAR_WALK2 WCLA_WALK2 WCOA_WALK2 WEVA_WALK2 WPYR_WALK2 WQFM_WALK2 WSID_WALK2
#
~A  
# ...
   6855.5000 -9980.3076     0.3314     1.7365   214.9649     0.0000    -0.0108     0.0820     0.0000     0.0486     7.3046     0.3214     0.0120     0.0035    97.1917    47.7472     0.8091     2.5887    98.7502   204.9453   106.5689    -0.1135     0.1277    -0.0032     1.8785     0.1558     2.7469     1.0000     0.0000  2333.0000     2.5884     0.0000     0.0000     0.4160     0.0000     0.0000     0.0225     0.5615     0.0000
   6856.0000 -9979.2412    -0.1704     2.8609   214.9649     0.0000    -0.0022     0.0824     0.0104     0.0472     7.3684     0.3100     0.0206     0.0036    95.4718    48.3325     0.8137     2.4590    97.0028   204.9453    87.2578  -999.2500  -999.2500    -0.0228     1.5484     0.0000     2.7561     1.0000     0.0000  2383.0000     2.1612     0.0000     0.0000     0.4186     0.0000     0.0000     0.0386     0.5429     0.0000
   6856.5000 -9980.3076    -2.1338     0.4692   214.9649     0.0000    -0.0022     0.0779     0.0390     0.0429     6.6661     0.2863     0.0240     0.0035    93.8767    47.7472     0.7691     2.3612    95.3821   204.9453    97.5310  -999.2500  -999.2500    -0.0178  -999.2500     0.0000     2.7569     1.0000     0.0000  2364.0000  -999.2500     0.0000     0.0298     0.3914     0.0000     0.0000     0.0448     0.5339     0.0000
   6857.0000 -9981.3740    -4.2326    -1.3856   214.9649     0.0000    -0.0022     0.0685     0.0547     0.0377     5.8651     0.2843     0.0220     0.0029   100.5961    47.1620     0.7164     2.6212   102.2092   204.9453   101.9524  -999.2500  -999.2500    -0.0304  -999.2500     0.0040     2.7477     1.0000     0.0000  2390.0000  -999.2500     0.0000     0.0720     0.3445     0.0000     0.0000     0.0411     0.5423     0.0000
   6857.5000 -9981.3740    -2.9739     1.7626   214.9649     0.0000    -0.0022     0.0619     0.0624     0.0348     7.7806     0.2862     0.0138     0.0028   102.2599    47.1620     0.6838     2.5215   103.8998   204.9453   107.9993  -999.2500  -999.2500    -0.0431  -999.2500     0.2850     2.7339     1.0000     0.0000  2383.0000  -999.2500     0.0000     0.0927     0.3110     0.0000     0.0000     0.0257     0.5706     0.0000
   6858.0000 -9979.9521    -1.8438     4.2375   214.9649     0.0000    -0.0022     0.0625     0.0545     0.0357    10.3256     0.2939     0.0097     0.0029   105.0550    47.1620     0.6710     2.4714   106.7397   204.9453   102.6026     0.0606     0.5098    -0.2169  -999.2500     0.4432     2.7295     1.0000     0.0000  2333.0000  -999.2500     0.0000     0.0716     0.3139     0.0000     0.0000     0.0181     0.5964     0.0000
   6858.5000 -9979.2412     3.4533     2.7775   214.9649     0.0000    -0.0022     0.0687     0.0551     0.0396    13.3501     0.2818     0.0071     0.0034   106.0149    47.7472     0.6703     2.4778   107.7150   204.9453   109.4948    -0.1208     0.0256    -0.2135    -0.1022     0.4092     2.7338     1.0000     0.0000  2380.0000     0.0253     0.0000     0.0733     0.3454     0.0000     0.0000     0.0133     0.5680     0.0000
   6859.0000 -9980.6631     3.0337     2.4666   214.9649     0.0000    -0.0022     0.0765     0.0498     0.0444    13.3195     0.2739     0.0068     0.0035   108.5907    48.3325     0.6712     2.5334   110.3321   204.9453   111.1203    -0.1314     0.0229    -0.2103    -0.1165     1.0868     2.7414     1.0000     0.0000  2388.0000     0.0271     0.0000     0.0590     0.3844     0.0000     0.0000     0.0128     0.5438     0.0000
   6859.5000 -9980.6631     5.8385     4.5323   214.9649     0.0000    -0.0006     0.0820     0.0416     0.0487    13.1969     0.2728     0.0010     0.0032   101.3913    48.3325     0.6946     2.5656   103.0172   204.9453   110.2751    -0.0305     0.0142     0.5296    -0.1209     0.8036     2.7410     1.0000     0.0000  2379.0000    -0.0017     0.0000     0.0370     0.4154     0.0000     0.0000     0.0019     0.5457     0.0000
   6860.0000 -9981.3740     5.5789     2.0611   214.9649     0.0000    -0.0006     0.0860     0.0136     0.0512    11.6741     0.2982     0.0000     0.0033   101.7513    48.3325     0.7659     2.5654   103.3830   204.9453    87.5828    -0.0293     0.0145     0.4851  -999.2500     0.7553     2.7398     1.0000     0.0000  2383.0000  -999.2500     0.0000     0.0000     0.4423     0.0000     0.0000     0.0000     0.5577     0.0000
   6860.5000 -9980.3076     5.9985     0.9327   214.9649     0.0000    -0.0006     0.0840     0.0000     0.0497     9.4852     0.3180     0.0000     0.0041    99.1680    48.3325     0.8003     2.6157   100.7582   204.9453   112.6808    -0.1450    -0.0556     0.5189    -0.1295     0.7141     2.7346     1.0000     0.0000  2394.0000    -0.0594     0.0000     0.0000     0.4288     0.0000     0.0000     0.0000     0.5712     0.0000
   6861.0000 -9981.3740     2.7739     1.4961   214.9649     0.0000    -0.0023     0.0794     0.0000     0.0465     6.9783     0.3266     0.0000     0.0051   103.9036    48.3325     0.7605     2.6352   105.5698   204.9453   103.2528  -999.2500  -999.2500    -0.0190    -0.1017     0.8014     2.7287     1.0000     0.0000  2413.0000     0.0836     0.0000     0.0000     0.3991     0.0000     0.0000     0.0000     0.6009     0.0000
   6861.5000 -9981.3740     0.6685     1.2712   214.9649     0.0000    -0.0023     0.0802     0.0000     0.0468     4.7416     0.3253     0.0000     0.0055   102.5343    48.3325     0.7458     2.4597   104.1785   204.9453   102.2125    -0.1165     0.2607    -0.0123    -0.0739     0.8442     2.7293     1.0000     0.0000  2403.0000     0.2265     0.0000     0.0000     0.4039     0.0000     0.0000     0.0000     0.5961     0.0000
   6862.0000 -9979.5967     1.0920     1.2712   214.9649     0.0000    -0.0030     0.0832     0.0000     0.0487     5.3174     0.3199     0.0000     0.0054   103.4377    48.3325     0.7399     2.5164   105.0964   204.9453   107.5442    -0.1335     0.0548    -0.0236     0.1430     0.3650     2.7328     1.0000     0.0000  2404.0000     0.0860     0.0000     0.0000     0.4234     0.0000     0.0000     0.0000     0.5766     0.0000
   6862.5000 -9982.0850    -1.0067     3.9711   214.9649     0.0000    -0.0012     0.0857     0.0000     0.0507     2.7490     0.3149     0.0000     0.0044   102.8806    49.5030     0.7210     2.6103   104.5304   204.9453   105.3335    54.9722    41.0338    -0.0303     0.1391     0.2884     2.7364     1.0000     0.0000  2416.0000     0.0811     0.0000     0.0000     0.4404     0.0000     0.0000     0.0000     0.5596     0.0000
   6863.0000 -9981.7295    -1.8458     2.6219   214.9649     0.0000    -0.0012     0.0877     0.0000     0.0520     0.6495     0.3112     0.0009     0.0039   102.3460    49.5030     0.7010     2.6390   103.9873   204.9453   101.0421  -999.2500  -999.2500    -0.0257  -999.2500     0.4736     2.7400     1.0000     0.0000  2412.0000  -999.2500     0.0000     0.0000     0.4538     0.0000     0.0000     0.0016     0.5445     0.0000
   6863.5000 -9980.3076    -4.3621     2.1719   214.9649     0.0000    -0.0012     0.0889     0.0000     0.0527     0.0000     0.3092     0.0097     0.0036    99.3463    47.1620     0.7198     2.5812   100.9394   204.9453   106.1137  -999.2500  -999.2500    -0.0179  -999.2500     0.5112     2.7517     1.0000     0.0000  2382.0000  -999.2500     0.0000     0.0000     0.4615     0.0000     0.0000     0.0181     0.5204     0.0000
   6864.0000 -9981.3740    -4.9408     3.1294   214.9649     0.0000    -0.0012     0.0912     0.0000     0.0536     0.0000     0.3054     0.0118     0.0048   101.2873    47.1620     0.7401     2.5190   102.9116   204.9453    97.4010  -999.2500  -999.2500    -0.0056  -999.2500     1.6466     2.7560     1.0000     0.0000  2395.0000  -999.2500     0.0000     0.0000     0.4773     0.0000     0.0000     0.0221     0.5005     0.0000
   6864.5000 -9981.3740    -3.2624     2.1859   214.9649     0.0000    -0.0012     0.0887     0.0000     0.0520     0.0000     0.3100     0.0051     0.0052    99.1115    48.3325     0.7687     2.4255   100.7009   204.9453   106.5689  -999.2500  -999.2500    -0.0098  -999.2500     0.2468     2.7449     1.0000     0.0000  2416.0000  -999.2500     0.0000     0.0000     0.4601     0.0000     0.0000     0.0095     0.5304     0.0000
